,address,latitude,longitude,nbed,nbath,ncar,price,type,historical_dates,postcode,year,month,suburb,weekly_rent
860,"27 ACACIA WAY, CHURCHILL",-38.301581,146.415178,3.0,1.0,0,$125_Week,House,November 2006,3842,2006,11,CHURCHILL,125
1525,"1 GAYLE COURT, CLAYTON SOUTH",-37.957438,145.133572,3.0,1.0,2,$180_Week,Rental_residential,October 2006,3169,2006,10,SOUTH,180
2091,"5 / 5 BURNS AVE, CLAYTON SOUTH",-37.936524,145.134469,2.0,1.0,1,$230,Apartment,December 2006,3169,2006,12,SOUTH,230
2733,"10/2 MONASH GREEN DRIVE, CLAYTON",-37.918788,145.127626,2.0,1.0,1,$240,Unit,December 2006,3168,2006,12,CLAYTON,240
4260,"9 BURTON AVENUE, CLAYTON",-37.926327,145.115883,4.0,3.0,1,$250,Townhouse,November 2006,3168,2006,11,CLAYTON,250
5171,"-37.93001,145.421908, CLEMATIS",-37.93001,145.421908,3.0,1.0,0,$220_Week,House,November 2006,3782,2006,11,CLEMATIS,220
5392,"2/30 EDMUND ST, CLIFTON HILL",-37.787664,145.004331,2.0,1.0,1,$260,Unit/apmt,October 2006,3068,2006,10,HILL,260
5800,"2/6 FORD STREET, CLIFTON HILL",-37.791295,144.997988,1.0,1.0,1,$175,Unit/apmt,November 2006,3068,2006,11,HILL,175
6153,"14 KIEWA STREET, CLIFTON HILL",-37.79235,145.000221,2.0,1.0,0,$340,Rental_residential,November 2006,3068,2006,11,HILL,340
8676,"3/5 INDUSTRY LANE, COBURG",-37.74493,144.96469,2.0,1.0,1,$300,Rental_residential,December 2006,3058,2006,12,COBURG,300
8678,"2/29 COBURG STREET, COBURG",-37.747604,144.970613,3.0,1.0,1,$260_Week,Available Now,November 2006,3058,2006,11,COBURG,260
9084,"4/36 THE GROVE, COBURG",-37.751916,144.969914,2.0,1.0,1,$255,Townhouse,December 2006,3058,2006,12,COBURG,255
10688,"22 GLEN ROAD, COCKATOO",-37.937274,145.486381,2.0,1.0,0,$200_Week,House,November 2006,3781,2006,11,COCKATOO,200
809,"29A VICTORIA PARADE, COLLINGWOOD",-37.808649,144.983618,2.0,1.0,0,$270,Rental_residential,November 2006,3066,2006,11,COLLINGWOOD,270
1046,"11/99 OXFORD STREET, COLLINGWOOD",-37.80365372,144.98460388,1.0,1.0,1,$290,Unit,November 2006,3066,2006,11,COLLINGWOOD,290
4311,"19 VENTNOR ROAD, COWES",-38.463337,145.235389,3.0,1.0,2,$900_Week,House,November 2006,3922,2006,11,COWES,900
1918,"8/82 BURWOOD HIGHWAY, BURWOOD EAST",-37.85173416,145.13832092,2.0,1.0,1,$190,Unit/apmt,October 2006,3151,2006,10,EAST,190
3018,"16 BEDDOWS STREET, BURWOOD",-37.853564,145.117521,4.0,2.0,1,$300,House,December 2006,3125,2006,12,BURWOOD,300
3019,"16 BEDDOWS STREET, BURWOOD",-37.853564,145.117521,4.0,2.0,1,$300_Week,House,November 2006,3125,2006,11,BURWOOD,300
4738,"252 HIGHFIELD ROAD, CAMBERWELL",-37.848314,145.082571,3.0,2.0,3,$680,House,November 2006,3124,2006,11,CAMBERWELL,680
5129,"9/5 ACHERON AVENUE, CAMBERWELL",-37.84073639,145.0660553,2.0,1.0,0,$230,Unit/apmt,October 2006,3124,2006,10,CAMBERWELL,230
5405,"2/596 RIVERSDALE ROAD, CAMBERWELL",-37.83227158,145.06324768,2.0,1.0,1,$270,Available Now,November 2006,3124,2006,11,CAMBERWELL,270
5571,"3/894-896 TOORAK ROAD, CAMBERWELL",-37.84629822,145.05543518,3.0,2.0,1,$400,Rental_residential,December 2006,3124,2006,12,CAMBERWELL,400
5689,"5/27 THOMAS STREET, CAMBERWELL",-37.84245682,145.09342957,2.0,1.0,1,$270,Unit/apmt,November 2006,3124,2006,11,CAMBERWELL,270
118,"1711/668 BOURKE STREET, MELBOURNE",-37.816897,144.953675,3.0,2.0,2,$540,Available Now,December 2006,3000,2006,12,MELBOURNE,540
3297,"32 CHRISTOPHER CRESCENT, MELTON",-37.685577,144.573168,3.0,1.0,1,$185_Week,House,November 2006,3337,2006,11,MELTON,185
3298,"32 CHRISTOPHER CRESCENT, MELTON",-37.685577,144.573168,3.0,1.0,1,$185,House,November 2006,3337,2006,11,MELTON,185
3972,"3/30 SEA PARADE, MENTONE",-37.98299789,145.05371094,2.0,1.0,1,$270,Rental_residential,October 2006,3194,2006,10,MENTONE,270
4635,"1/77 PATTY STREET, MENTONE",-37.97831,145.066961,3.0,1.0,1,$375,Rental_residential,December 2006,3194,2006,12,MENTONE,375
4670,"8/2-4 SALMON STREET, MENTONE",-37.9790535,145.06227112,1.0,1.0,1,$145,Rental_residential,November 2006,3194,2006,11,MENTONE,145
4699,"6 / 8 COMMERCIAL ROAD, MENTONE",-37.985738,145.065634,2.0,1.0,1,$300_Week,none,November 2006,3194,2006,11,MENTONE,300
4700,"6 / 8 COMMERCIAL ROAD, MENTONE",-37.985738,145.065634,2.0,1.0,1,$290,none,November 2006,3194,2006,11,MENTONE,290
4724,"5/5 STATION STREET, MENTONE",-37.98222351,145.06625366,1.0,1.0,1,$185,Rental_residential,November 2006,3194,2006,11,MENTONE,185
4823,"1/50 BALCOMBE ROAD, MENTONE",-37.981502,145.068097,3.0,3.0,2,$480,Rental_residential,November 2006,3194,2006,11,MENTONE,480
5489,"12/56 MILAN STREET, MENTONE",-37.98303223,145.06063843,2.0,1.0,1,$200,Rental_residential,November 2006,3194,2006,11,MENTONE,200
5714,"125C SEVENTH STREET, MERBEIN SOUTH",-34.2045981,142.0387241,4.0,2.0,2,$250_Week,House,November 2006,3505,2006,11,SOUTH,250
6013,"51 BOUNDARY ROAD, MEREDITH",-37.826186,144.044756,3.0,1.0,1,$180_Week,House,October 2006,3333,2006,10,MEREDITH,180
7210,"172 CANTERBURY ROAD, MIDDLE PARK",-37.853158,144.969079,2.0,1.0,0,$355_Mid,House,November 2006,3206,2006,11,PARK,355
7471,"23 WRIGHT STREET, MIDDLE PARK",-37.84669,144.96075,3.0,3.0,1,$330_Mid,none,December 2006,3206,2006,12,PARK,330
7561,"1/18 PATTERSON STREET, MIDDLE PARK",-37.85435104,144.96452332,2.0,1.0,1,$275_Mid,Rental_residential,November 2006,3206,2006,11,PARK,275
7577,"204 RICHARDSON STREET, MIDDLE PARK",-37.848215,144.958765,2.0,1.0,1,$550_Mid,Rental_residential,December 2006,3206,2006,12,PARK,550
7804,"10/109 NIMMO STREET, MIDDLE PARK",-37.849121,144.963098,2.0,1.0,1,$1457,Rental_residential,November 2006,3206,2006,11,PARK,1457
7941,"4/72 PATTERSON STREET, MIDDLE PARK",-37.85546112,144.96662903,1.0,1.0,1,$220_Mid,Rental_residential,December 2006,3206,2006,12,PARK,220
7975,"11/5 - 7 HAROLD STREET, MIDDLE PARK",-37.848476,144.961384,1.0,1.0,1,$340_Mid,Rental_residential,December 2006,3206,2006,12,PARK,340
7989,"3/51 NIMMO STREET, MIDDLE PARK",-37.850501,144.962039,2.0,1.0,1,$375_Mid,none,November 2006,3206,2006,11,PARK,375
8261,"2/51 NIMMO STREET, MIDDLE PARK",-37.850501,144.962039,2.0,1.0,1,$360_Mid,Rental_residential,October 2006,3206,2006,10,PARK,360
8297,"326 RICHARDSON STREET, MIDDLE PARK",-37.852041,144.965831,2.0,1.0,1,$350_Mid,Rental_residential,November 2006,3206,2006,11,PARK,350
8497,"3/82 PATTERSON STREET, MIDDLE PARK",-37.85563278,144.9669342,2.0,1.0,0,$335_Mid,Unit/apmt,October 2006,3206,2006,10,PARK,335
8664,"5/2 CAMERON AVENUE, MILDURA WEST",-34.181651,142.151354,2.0,1.0,1,$135,Unit/apmt,December 2006,3500,2006,12,WEST,135
10608,"42 SEVENTH STREET, MILDURA",-34.189769,142.171985,3.0,1.0,2,$200,Rental_residential,November 2006,3500,2006,11,MILDURA,200
12778,"17 PATRICK STREET, MILLGROVE",-37.746826,145.661548,3.0,1.0,0,$175_Week,House,November 2006,3799,2006,11,MILLGROVE,175
550,"23 WANDONG AVENUE, WANDONG",-37.35751785,145.02833315,2.0,1.0,1,$170_Week,House,November 2006,3758,2006,11,WANDONG,170
1230,"17 HINCHLEY STREET, WANGARATTA",-36.356764,146.299309,3.0,1.0,2,$240_Week,House,November 2006,3677,2006,11,WANGARATTA,240
1892,"2/13 THOMSON STREET, WANGARATTA",-36.368739,146.318901,2.0,1.0,1,$120_Week,none,October 2006,3677,2006,10,WANGARATTA,120
4783,"63 NORTH ROAD, WARRAGUL",-38.159412,145.949167,3.0,2.0,2,$185_Week,House,November 2006,3820,2006,11,WARRAGUL,185
4784,"63 NORTH ROAD, WARRAGUL",-38.159412,145.949167,3.0,2.0,2,$200,House,November 2006,3820,2006,11,WARRAGUL,200
5756,"20 DAISY STREET, WARRANWOOD",-37.771689,145.244089,4.0,2.0,2,$380_Week,House,November 2006,3134,2006,11,WARRANWOOD,380
242,"62B TWEDDLE PLACE, GISBORNE SOUTH",-37.543852,144.592628,3.0,1.0,0,$190_Week,Unit/apmt,November 2006,3437,2006,11,SOUTH,190
1007,"27 DUNFIELD DRIVE, GLADSTONE PARK",-37.686147,144.895315,3.0,1.0,3,$225_Week,House,November 2006,3043,2006,11,PARK,225
1363,"1 DINGLEY CLOSE, GLADSTONE PARK",-37.686288,144.89869,3.0,1.0,1,$230,House,November 2006,3043,2006,11,PARK,230
1761,"8/15 WARATAH AVENUE, GLEN HUNTLY",-37.891661,145.042483,1.0,1.0,1,$157,Available Now,November 2006,3163,2006,11,HUNTLY,157
2686,"1146 GLEN HUNTLY ROAD, GLEN HUNTLY",-37.89224,145.04113,2.0,1.0,1,$250_Week,Unit/apmt,November 2006,3163,2006,11,HUNTLY,250
2687,"1146 GLEN HUNTLY ROAD, GLEN HUNTLY",-37.89224,145.04113,2.0,1.0,1,$250,Unit/apmt,November 2006,3163,2006,11,HUNTLY,250
2786,"6/11 BELMONT AVENUE, GLEN IRIS",-37.85740662,145.04795837,1.0,1.0,1,$195,Unit/apmt,December 2006,3146,2006,12,IRIS,195
2812,"22 ELLIS ROAD, GLEN IRIS",-37.86,145.046815,4.0,2.0,2,$680,none,October 2006,3146,2006,10,IRIS,680
3062,"7/1492 MALVERN ROAD, GLEN IRIS",-37.853953,145.047567,1.0,1.0,1,$145,Unit/apmt,November 2006,3146,2006,11,IRIS,145
3663,"9/1555 HIGH STREET, GLEN IRIS",-37.85981369,145.06015015,1.0,1.0,1,$200,Unit/apmt,November 2006,3146,2006,11,IRIS,200
4139,"8/46 SCOTT GROVE, GLEN IRIS",-37.85461426,145.050354,2.0,1.0,1,$265,none,December 2006,3146,2006,12,IRIS,265
4505,"2 FERNDALE ROAD, GLEN IRIS",-37.855005,145.06852,5.0,2.0,2,$750,Available Now,December 2006,3146,2006,12,IRIS,750
4865,"46A WILLS STREET, GLEN IRIS",-37.856816,145.056936,2.0,1.0,1,$295,Unit/apmt,November 2006,3146,2006,11,IRIS,295
5183,"9A LITHGOW STREET, GLEN IRIS",-37.850125,145.081979,2.0,1.0,1,$270,House,November 2006,3146,2006,11,IRIS,270
7585,"1/37 GYTON AVENUE, GLEN WAVERLEY",-37.86565018,145.16069031,3.0,1.0,1,$280,Unit/apmt,December 2006,3150,2006,12,WAVERLEY,280
1177,"1/1 FRANCESCO STREET, BENTLEIGH EAST",-37.92020035,145.05574036,3.0,1.0,2,$250,Rental_residential,December 2006,3165,2006,12,EAST,250
1768,"21 ROCHFORD STREET, BENTLEIGH EAST",-37.906838,145.057884,3.0,1.0,2,$260,Rental_residential,November 2006,3165,2006,11,EAST,260
1857,"1/16 BESSIE STREET, BENTLEIGH EAST",-37.92569351,145.08106995,3.0,2.0,1,$395,Rental_residential,November 2006,3165,2006,11,EAST,395
2234,"3/10A EDDYS GROVE, BENTLEIGH",-37.9200325,145.02926636,2.0,1.0,1,$270,Unit/apmt,November 2006,3204,2006,11,BENTLEIGH,270
3098,"6/13 PHILLIP STREET, BENTLEIGH",-37.92409,145.034414,2.0,1.0,1,$195,none,December 2006,3204,2006,12,BENTLEIGH,195
3586,"8/207 CENTRE ROAD, BENTLEIGH",-37.9168129,145.02645874,2.0,1.0,1,$235,Rental_residential,November 2006,3204,2006,11,BENTLEIGH,235
4291,"1 HOWITT COURT, BERWICK",-38.02383,145.32452,4.0,2.0,2,$230,House,November 2006,3806,2006,11,BERWICK,230
4507,"10/10 PARKHILL DRIVE, BERWICK",-38.02732468,145.32804871,3.0,2.0,1,$250,Townhouse,November 2006,3806,2006,11,BERWICK,250
4821,"9 SPOONBILL STREET, BERWICK",-38.062788,145.332992,4.0,2.0,2,$290,House,November 2006,3806,2006,11,BERWICK,290
5984,"2/27 MARGARET STREET, BERWICK",-38.03538132,145.34059143,3.0,1.0,1,$175,Unit/apmt,October 2006,3806,2006,10,BERWICK,175
7864,"1/6 FIRST STREET, BLACK ROCK",-37.97750854,145.01922607,2.0,1.0,1,$230,none,November 2006,3193,2006,11,ROCK,230
8217,"2 / 149 BLUFF ROAD, BLACK ROCK",-37.96472549,145.01823425,2.0,1.0,2,$350,none,December 2006,3193,2006,12,ROCK,350
8652,"8/85 SURREY ROAD, BLACKBURN NORTH",-37.807528,145.158979,1.0,1.0,1,$170,Rental_residential,December 2006,3130,2006,12,NORTH,170
8653,"8/85 SURREY ROAD, BLACKBURN NORTH",-37.807528,145.158979,1.0,1.0,1,$170_Week,Rental_residential,November 2006,3130,2006,11,NORTH,170
10338,"1/3 HINDON STREET, BLACKBURN",-37.8191185,145.14733887,2.0,1.0,2,$250,Unit/apmt,November 2006,3130,2006,11,BLACKBURN,250
1835,"25 MCNAMARA AVENUE, AIRPORT WEST",-37.729434,144.880894,3.0,1.0,1,$260,House,December 2006,3042,2006,12,WEST,260
1836,"25 MCNAMARA AVENUE, AIRPORT WEST",-37.729434,144.880894,3.0,1.0,1,$260_Week,House,November 2006,3042,2006,11,WEST,260
3053,"4/119 DANKS STREET, ALBERT PARK",-37.846203,144.949898,2.0,1.0,0,$310,none,December 2006,3206,2006,12,PARK,310
3210,"3/119 DANKS STREET, ALBERT PARK",-37.84621048,144.95018005,2.0,1.0,0,$350,Rental_residential,October 2006,3206,2006,10,PARK,350
3945,"41 WITHERS STREET, ALBERT PARK",-37.846134,144.947924,2.0,1.0,0,$450,House,November 2006,3206,2006,11,PARK,450
4043,"4/74 KERFERD ROAD, ALBERT PARK",-37.84446335,144.95593262,1.0,1.0,0,$195,none,December 2006,3206,2006,12,PARK,195
4106,"24 KERFERD PLACE, ALBERT PARK",-37.842067,144.957094,3.0,2.0,0,$600,House,December 2006,3206,2006,12,PARK,600
5944,"7 HANSEN STREET, ALTONA EAST",-37.839549,144.864444,4.0,2.0,2,$270,House,October 2006,3025,2006,10,EAST,270
7062,"1/45 EPSOM STREET, ALTONA MEADOWS",-37.86845398,144.7702179,2.0,1.0,1,$165,Unit,November 2006,3028,2006,11,MEADOWS,165
7232,"1/144 VICTORIA STREET, ALTONA MEADOWS",-37.87713623,144.78564453,2.0,1.0,1,$170,Unit,November 2006,3028,2006,11,MEADOWS,170
7825,"266 MASON STREET, ALTONA NORTH",-37.83944,144.857988,3.0,1.0,3,$280,House,November 2006,3025,2006,11,NORTH,280
7869,"1A BERKELEY CRESCENT, ALTONA NORTH",-37.845944,144.847562,2.0,2.0,1,$190,House,October 2006,3025,2006,10,NORTH,190
8765,"108 THIRD AVENUE, ALTONA NORTH",-37.831939,144.853487,3.0,2.0,1,$320,House,November 2006,3025,2006,11,NORTH,320
10807,"4/163 QUEEN STREET, ALTONA",-37.86948776,144.82568359,2.0,1.0,1,$240,none,November 2006,3018,2006,11,ALTONA,240
292,"7 / 40-42 CALDER STREET, MANIFOLD HEIGHTS",-38.14372253,144.33163452,1.0,1.0,1,$110,Unit/apmt,November 2006,3218,2006,11,HEIGHTS,110
2031,"1/12 NAVIGATOR STREET, MARIBYRNONG",-37.76811981,144.89854431,1.0,1.0,1,$175,Unit,December 2006,3032,2006,12,MARIBYRNONG,175
2496,"10/82 RALEIGH ROAD, MARIBYRNONG",-37.768881,144.891825,2.0,1.0,1,$220,none,December 2006,3032,2006,12,MARIBYRNONG,220
2531,"5/91 RALEIGH ROAD, MARIBYRNONG",-37.76910782,144.89178467,3.0,1.0,2,$280,Townhouse,December 2006,3032,2006,12,MARIBYRNONG,280
3265,"37 FORGE CLOSE, MARIBYRNONG",-37.773245,144.879261,3.0,2.0,2,$345,Townhouse,November 2006,3032,2006,11,MARIBYRNONG,345
3503,"4/11 CHIFLEY DRIVE, MARIBYRNONG",-37.76827621,144.90118408,2.0,1.0,1,$170,Rental_residential,November 2006,3032,2006,11,MARIBYRNONG,170
5349,"2/11 GLEN ORME AVENUE, MCKINNON",-37.91093,145.037485,2.0,1.0,1,$240_Week,none,October 2006,3204,2006,10,MCKINNON,240
5350,"2/11 GLEN ORME AVENUE, MCKINNON",-37.91093,145.037485,2.0,1.0,1,$240,none,October 2006,3204,2006,10,MCKINNON,240
6459,"8 CARTWRIGHT COURT, MEENIYAN",-38.581807,146.008969,3.0,1.0,1,$155_Week,House,November 2006,3956,2006,11,MEENIYAN,155
6552,"325 COLLINS STREET, MELBOURNE",-37.81647873,144.96333313,2.0,2.0,1,$630_pw,Available Now,November 2006,3000,2006,11,MELBOURNE,630
6553,"325 COLLINS STREET, MELBOURNE",-37.81647873,144.96333313,2.0,2.0,1,$330_pw,Available Now,October 2006,3000,2006,10,MELBOURNE,330
6554,"325 COLLINS STREET, MELBOURNE",-37.81647873,144.96333313,2.0,2.0,1,$630_pw,Available Now,October 2006,3000,2006,10,MELBOURNE,630
192,"32 GRESSWELL PARK DRIVE, WATSONIA",-37.710506,145.075021,3.0,2.0,2,$310,none,December 2006,3087,2006,12,WATSONIA,310
193,"32 GRESSWELL PARK DRIVE, WATSONIA",-37.710506,145.075021,3.0,2.0,2,$310_Week,none,November 2006,3087,2006,11,WATSONIA,310
4050,"1 GILES COURT, WERRIBEE",-37.886405,144.672862,3.0,2.0,2,$180_Week,House,November 2006,3030,2006,11,WERRIBEE,180
4051,"1 GILES COURT, WERRIBEE",-37.886405,144.672862,3.0,2.0,2,$180,House,November 2006,3030,2006,11,WERRIBEE,180
4856,"28 WERRIMULL SOUTH ROAD, WERRIMULL",-34.390058,141.595836,1.0,1.0,0,$120_Week,House,November 2006,3496,2006,11,WERRIMULL,120
4892,"20 FOREST ROAD, WESBURN",-37.786008,145.65471,2.0,1.0,1,$195_Week,House,November 2006,3799,2006,11,WESBURN,195
7103,"2 HESSE COURT, WESTMEADOWS",-37.670225,144.902533,3.0,1.0,3,$200_Week,Available Now,October 2006,3049,2006,10,WESTMEADOWS,200
7312,"2 DOOEN COURT, WESTMEADOWS",-37.674216,144.901534,2.0,1.0,1,$220,House,December 2006,3049,2006,12,WESTMEADOWS,220
7313,"2 DOOEN COURT, WESTMEADOWS",-37.674216,144.901534,2.0,1.0,1,$220_Week,House,November 2006,3049,2006,11,WESTMEADOWS,220
7810,"6 BASIL CRESCENT, WHEELERS HILL",-37.904682,145.197667,5.0,3.0,4,$420,House,November 2006,3150,2006,11,HILL,420
7847,"50 EARLWOOD DRIVE, WHEELERS HILL",-37.910826,145.178225,3.0,1.0,2,$350,House,November 2006,3150,2006,11,HILL,350
118,"11 GREY ROAD, DARLIMURLA",-38.374746,146.182989,4.0,2.0,2,$250_Week,House,November 2006,3871,2006,11,DARLIMURLA,250
1041,"2/58 DOHERTY STREET, DEER PARK",-37.767467,144.763857,2.0,1.0,1,$180_Week,Unit/apmt,November 2006,3023,2006,11,PARK,180
1307,"1/20 DEER STREET, DEER PARK",-37.769226,144.758012,3.0,1.0,1,$200,Unit/apmt,December 2006,3023,2006,12,PARK,200
1861,"2/1 PLATH CLOSE, DELAHEY",-37.718407,144.78058,3.0,1.0,1,$185_Week,Unit/apmt,November 2006,3037,2006,11,DELAHEY,185
2248,"12 GRANITE WAY, DELAHEY",-37.722019,144.766372,3.0,2.0,4,$230,House,November 2006,3037,2006,11,DELAHEY,230
217,"54 MURRAY VALLEY HIGHWAY, NYAH",-35.17561,143.37736,3.0,1.0,2,$160_Week,House,November 2006,3594,2006,11,NYAH,160
521,"3/22 GREGORY STREET, OAK PARK",-37.72228241,144.91589355,2.0,1.0,1,$270,none,November 2006,3046,2006,11,PARK,270
535,"3/59-61 RHODES PARADE, OAK PARK",-37.715213,144.925254,2.0,1.0,1,$180,Rental_residential,December 2006,3046,2006,12,PARK,180
536,"3/59-61 RHODES PARADE, OAK PARK",-37.715213,144.925254,2.0,1.0,1,$180_Week,Rental_residential,November 2006,3046,2006,11,PARK,180
3177,"23/82-86 ATHERTON RD, OAKLEIGH",-37.899303,145.093684,1.0,1.0,1,$280,Unit/apmt,December 2006,3166,2006,12,OAKLEIGH,280
3356,"11/10 ALBERT AVENUE, OAKLEIGH",-37.89820099,145.09455872,2.0,1.0,1,$240,Unit/apmt,November 2006,3166,2006,11,OAKLEIGH,240
6219,"7/498 NORTH ROAD, ORMOND",-37.90391922,145.03788757,2.0,2.0,2,$325,none,November 2006,3204,2006,11,ORMOND,325
9659,"8 / 174 BEACH ROAD, PARKDALE",-38.00301361,145.07955933,2.0,1.0,1,$250,none,December 2006,3195,2006,12,PARKDALE,250
20,"RMB 6635 HALLS AND PORCHES ROAD, NILMA NORTH",-38.1449666,145.9868351,1.0,1.0,1,$587,House,November 2006,3821,2006,11,NORTH,587
1691,"15/28-30 DUNBLANE ROAD, NOBLE PARK",-37.96305084,145.1803894,2.0,1.0,2,$265,Townhouse,December 2006,3174,2006,12,PARK,265
2312,"2 SIMPSON STREET, NOBLE PARK",-37.964773,145.166772,3.0,1.0,2,$245,none,October 2006,3174,2006,10,PARK,245
6691,"A12/335 ABBOTSFORD STREET, NORTH MELBOURNE",-37.799318,144.945801,1.0,1.0,1,$200_Week,Unit,October 2006,3051,2006,10,MELBOURNE,200
6998,"14/342 DRYBURGH STREET, NORTH MELBOURNE",-37.80441,144.943285,2.0,1.0,1,$280_Week,Unit,October 2006,3051,2006,10,MELBOURNE,280
9567,"15 HARPER STREET, NORTHCOTE",-37.780632,145.001684,3.0,1.0,1,$330,House,November 2006,3070,2006,11,NORTHCOTE,330
10034,"9/6 MCCRACKEN AVENUE, NORTHCOTE",-37.77228,144.99938,2.0,1.0,1,$210,Unit/apmt,November 2006,3070,2006,11,NORTHCOTE,210
10777,"1/6-12 PEARL STREET, NORTHCOTE",-37.778889,144.997477,2.0,1.0,2,$330,none,November 2006,3070,2006,11,NORTHCOTE,330
11318,"13/54 JAMES STREET, NORTHCOTE",-37.77548218,144.9987793,2.0,1.0,1,$280,none,October 2006,3070,2006,10,NORTHCOTE,280
400,"20 MASON STREET, REGENT WEST",-37.73386,145.008343,3.0,1.0,4,$340,House,December 2006,3073,2006,12,WEST,340
401,"23 QUEEN STREET, REGENT WEST",-37.7118644,145.0107588,4.0,2.0,0,$330,House,December 2006,3073,2006,12,WEST,330
402,"17 PERSHING STREET, REGENT WEST",-37.72550583,144.99414062,2.0,1.0,1,$215,House,November 2006,3073,2006,11,WEST,215
403,"17 PERSHING STREET, REGENT WEST",-37.72550583,144.99414062,2.0,1.0,1,$215,House,December 2006,3073,2006,12,WEST,215
404,"17 PERSHING STREET, REGENT WEST",-37.72550583,144.99414062,2.0,1.0,1,$220,House,November 2006,3073,2006,11,WEST,220
405,"44 RONA STREET, REGENT WEST",-37.732672,145.022008,2.0,1.0,1,$250,House,November 2006,3073,2006,11,WEST,250
410,"17 KALIMNA STREET, REGENT",-37.730026,144.997103,3.0,2.0,1,$390,Townhouse,December 2006,3073,2006,12,REGENT,390
411,"105 SPRING STREET, REGENT",-37.729217,145.000633,4.0,2.0,3,$300,House,December 2006,3073,2006,12,REGENT,300
1860,"1/54-56 ST VIGEONS ROAD, RESERVOIR",-37.706804,145.02706,2.0,1.0,1,$170,Rental_residential,December 2006,3073,2006,12,RESERVOIR,170
2413,"2/200 EDWARDES STREET, RESERVOIR",-37.71141052,144.99343872,1.0,1.0,1,$145,Unit/apmt,November 2006,3073,2006,11,RESERVOIR,145
2559,"6/261-263 BROADWAY, RESERVOIR",-37.71721649,145.00976562,1.0,1.0,1,$200,none,November 2006,3073,2006,11,RESERVOIR,200
2812,"2/835 PLENTY ROAD, RESERVOIR",-37.72390366,145.02740479,3.0,1.0,2,$210,Available Now,December 2006,3073,2006,12,RESERVOIR,210
3053,"2/72 BARTON STREET, RESERVOIR",-37.710979,144.998688,3.0,1.0,1,$250,Unit/apmt,November 2006,3073,2006,11,RESERVOIR,250
3611,"1/32 DRYSDALE STREET, RESERVOIR",-37.72924042,145.02259827,1.0,1.0,1,$200,Unit/apmt,November 2006,3073,2006,11,RESERVOIR,200
3955,"162 MARY STREET, RICHMOND",-37.824732,145.000981,2.0,2.0,2,$475,Townhouse,November 2006,3121,2006,11,RICHMOND,475
4123,"9/23 DAVISON STREET, RICHMOND",-37.813077,145.008279,1.0,1.0,1,$180,Unit,December 2006,3121,2006,12,RICHMOND,180
5270,"4/81 EDINBURGH STREET, RICHMOND",-37.825782,145.005652,1.0,1.0,1,$210,Rental_residential,November 2006,3121,2006,11,RICHMOND,210
5370,"2/30 TANNER STREET, RICHMOND",-37.823197,144.991699,1.0,1.0,1,$290,Unit/apmt,December 2006,3121,2006,12,RICHMOND,290
5705,"7/26 DAVISON STREET, RICHMOND",-37.81244659,145.00810242,1.0,1.0,1,$185,none,December 2006,3121,2006,12,RICHMOND,185
6152,"55 BUNTING STREET, RICHMOND",-37.825307,145.009273,2.0,1.0,0,$310,House,October 2006,3121,2006,10,RICHMOND,310
7034,"80 SOMERSET STREET, RICHMOND",-37.815954,145.004037,2.0,1.0,0,$350_Week,House,November 2006,3121,2006,11,RICHMOND,350
7035,"80 SOMERSET STREET, RICHMOND",-37.815954,145.004037,2.0,1.0,0,$350,House,November 2006,3121,2006,11,RICHMOND,350
7470,"3/5 MARWARRA STREET, RINGWOOD EAST",-37.818551,145.24441,2.0,1.0,1,$200_Week,Rental_residential,November 2006,3135,2006,11,EAST,200
7899,"16 MARWARRA STREET, RINGWOOD EAST",-37.81597,145.242518,3.0,1.0,2,$265,House,November 2006,3135,2006,11,EAST,265
9539,"10/35-39 BOURKE STREET, RINGWOOD",-37.8134346,145.22195435,2.0,2.0,1,$320,Unit/apmt,December 2006,3134,2006,12,RINGWOOD,320
10516,"1/23 WILANA STREET, RINGWOOD",-37.816566,145.232972,2.0,1.0,2,$225,none,November 2006,3134,2006,11,RINGWOOD,225
10645,"1/5 IRELAND STREET, RINGWOOD",-37.822419,145.228862,3.0,1.0,1,$300,Unit/apmt,November 2006,3134,2006,11,RINGWOOD,300
845,"10 COULSTOCK STREET, EPPING",-37.650232,145.032922,2.0,1.0,2,$220,House,December 2006,3076,2006,12,EPPING,220
846,"10 COULSTOCK STREET, EPPING",-37.650232,145.032922,2.0,1.0,2,$220_Week,House,November 2006,3076,2006,11,EPPING,220
1758,"2/92 KERFERD STREET, ESSENDON NORTH",-37.736158,144.899935,2.0,1.0,1,$185,Unit/apmt,December 2006,3041,2006,12,NORTH,185
2147,"2/220 PASCOE VALE ROAD, ESSENDON",-37.75356674,144.92591858,1.0,1.0,1,$155,Rental_residential,November 2006,3040,2006,11,ESSENDON,155
2350,"1/110 BRADSHAW STREET, ESSENDON",-37.73928833,144.89573669,3.0,1.0,1,$360_Week,Townhouse,November 2006,3040,2006,11,ESSENDON,360
2351,"1/110 BRADSHAW STREET, ESSENDON",-37.73928833,144.89573669,3.0,1.0,1,$360,Townhouse,November 2006,3040,2006,11,ESSENDON,360
2352,"1/110 BRADSHAW STREET, ESSENDON",-37.73928833,144.89573669,3.0,1.0,1,$375_Week,Townhouse,November 2006,3040,2006,11,ESSENDON,375
2353,"1/110 BRADSHAW STREET, ESSENDON",-37.73928833,144.89573669,3.0,1.0,1,$360,Townhouse,October 2006,3040,2006,10,ESSENDON,360
2558,"15/56 NICHOLSON STREET, ESSENDON",-37.75204468,144.92121887,1.0,1.0,1,$200,none,November 2006,3040,2006,11,ESSENDON,200
2884,"2 / 5 KALIMNA STREET, ESSENDON",-37.7502594,144.92277527,2.0,1.0,1,$190,none,October 2006,3040,2006,10,ESSENDON,190
3396,"54 SPENCER STREET, ESSENDON",-37.746524,144.903275,3.0,2.0,3,$865,House,November 2006,3040,2006,11,ESSENDON,865
3921,"4/30 RICHARDSON STREET, ESSENDON",-37.75121689,144.91326904,1.0,1.0,1,$195,Rental_residential,November 2006,3040,2006,11,ESSENDON,195
4471,"4/23 HODDLE STREET, ESSENDON",-37.75555,144.922925,2.0,1.0,1,$280_Week,Rental_residential,November 2006,3040,2006,11,ESSENDON,280
5536,"4/10 STATION STREET, FAIRFIELD",-37.78393936,145.01708984,1.0,1.0,1,$165,Unit/apmt,November 2006,3078,2006,11,FAIRFIELD,165
5861,"10/42 GILLIES STREET, FAIRFIELD",-37.78032684,145.01652527,1.0,1.0,1,$160,none,October 2006,3078,2006,10,FAIRFIELD,160
6777,"5 WURRUK STREET, FAWKNER",-37.712823,144.971437,3.0,1.0,2,$200_Week,House,November 2006,3060,2006,11,FAWKNER,200
6778,"5 WURRUK STREET, FAWKNER",-37.712823,144.971437,3.0,1.0,2,$200_Wk,House,November 2006,3060,2006,11,FAWKNER,200
8166,"54 AUSTIN STREET, FERNTREE GULLY",-37.881232,145.286142,2.0,1.0,1,$195_Week,none,October 2006,3156,2006,10,GULLY,195
9316,"14/55 YORK STREET, FITZROY NORTH",-37.79171753,144.97802734,2.0,1.0,1,$300_Week,Unit/apmt,November 2006,3068,2006,11,NORTH,300
9569,"4 TRANMERE STREET, FITZROY NORTH",-37.78478,144.9817,3.0,1.0,1,$360,none,October 2006,3068,2006,10,NORTH,360
10040,"167 SCOTCHMER STREET, FITZROY NORTH",-37.783303,144.984943,2.0,1.0,1,$390,Rental_residential,November 2006,3068,2006,11,NORTH,390
10727,"2/50 SPRING STREET, FITZROY",-37.79582214,144.97654724,2.0,1.0,1,$420,Rental_residential,November 2006,3065,2006,11,FITZROY,420
11421,"3/55 NAPIER STREET, FITZROY",-37.80650711,144.97917175,1.0,1.0,0,$170,Unit/apmt,October 2006,3065,2006,10,FITZROY,170
11744,"11/41 NAPIER STREET, FITZROY",-37.80696106,144.9790802,1.0,1.0,0,$210,Rental_residential,November 2006,3065,2006,11,FITZROY,210
12016,"10 LEICESTER STREET, FITZROY",-37.795203,144.976317,3.0,2.0,0,$460,Rental_residential,December 2006,3065,2006,12,FITZROY,460
12115,"313 YOUNG STREET, FITZROY",-37.796471,144.979813,2.0,1.0,0,$340,House,November 2006,3065,2006,11,FITZROY,340
174,"1/33 SEYMOUR GROVE, CAMBERWELL",-37.83588409,145.0581665,2.0,1.0,1,$250,Rental_residential,October 2006,3124,2006,10,CAMBERWELL,250
403,"6/11 SEYMOUR GROVE, CAMBERWELL",-37.83608246,145.05992126,2.0,1.0,1,$240,none,November 2006,3124,2006,11,CAMBERWELL,240
2963,"2/892 BURKE ROAD, CANTERBURY",-37.81732178,145.05955505,2.0,1.0,1,$250,Unit/apmt,November 2006,3126,2006,11,CANTERBURY,250
2998,"1/147 PROSPECT HILL ROAD, CANTERBURY",-37.82987976,145.07504272,2.0,1.0,1,$275,none,November 2006,3126,2006,11,CANTERBURY,275
3972,"27 KENDALL AVENUE, CAPE WOOLAMAI",-38.527479,145.332007,4.0,2.0,0,$1100_Week,House,November 2006,3925,2006,11,WOOLAMAI,1100
5480,"521 NICHOLSON STREET, CARLTON NORTH",-37.787286,144.976534,2.0,1.0,0,$350,none,November 2006,3054,2006,11,NORTH,350
5608,"11/1023 RATHDOWNE STREET, CARLTON NORTH",-37.780777,144.973176,2.0,1.0,1,$320,Rental_residential,December 2006,3054,2006,12,NORTH,320
6036,"93 FENWICK STREET, CARLTON NORTH",-37.787868,144.973111,2.0,1.0,1,$400_-_$420,none,October 2006,3054,2006,10,NORTH,420
6137,"46 KEELEY LANE, CARLTON NORTH",-37.782538,144.969366,1.0,1.0,1,$300,Townhouse,November 2006,3054,2006,11,NORTH,300
6802,"6/26 GARTON STREET, CARLTON NORTH",-37.78432846,144.96389771,1.0,1.0,1,$195,Unit/apmt,November 2006,3054,2006,11,NORTH,195
7020,"112 PATERSON STREET, CARLTON NORTH",-37.782499,144.965703,2.0,1.0,0,$330,Rental_residential,November 2006,3054,2006,11,NORTH,330
7167,"817 RATHDOWNE STREET, CARLTON NORTH",-37.785312,144.972306,3.0,1.0,0,$485,Rental_residential,November 2006,3054,2006,11,NORTH,485
7202,"173 FENWICK STREET, CARLTON NORTH",-37.787526,144.97002,3.0,1.0,0,$380,House,November 2006,3054,2006,11,NORTH,380
7643,"23/25 BARKLY STREET, CARLTON",-37.79850006,144.97451782,2.0,1.0,1,$300,none,December 2006,3053,2006,12,CARLTON,300
7924,"32 RATHDOWNE STREET, CARLTON",-37.799761,144.970378,1.0,1.0,0,$250,Terrace,October 2006,3053,2006,10,CARLTON,250
9016,"20/100 QUEENSBERRY STREET, CARLTON",-37.80461884,144.96565247,2.0,1.0,1,$380,Unit/apmt,December 2006,3053,2006,12,CARLTON,380
9596,"926 SWANSTON STREET, CARLTON",-37.79476,144.9652,4.0,1.0,1,$550,Available Now,November 2006,3053,2006,11,CARLTON,550
9659,"22/109 LYGON STREET, CARLTON",-37.80450821,144.96600342,1.0,1.0,1,$180,Studio,November 2006,3053,2006,11,CARLTON,180
9829,"68 PALMERSTON STREET, CARLTON",-37.796321,144.972642,3.0,2.0,1,$550,House,October 2006,3053,2006,10,CARLTON,550
10330,"7/35 TRANMERE AVENUE, CARNEGIE",-37.89057922,145.06112671,2.0,1.0,1,$235,Rental_residential,November 2006,3163,2006,11,CARNEGIE,235
10331,"7/35 TRANMERE AVENUE, CARNEGIE",-37.89057922,145.06112671,2.0,1.0,1,$235,Rental_residential,October 2006,3163,2006,10,CARNEGIE,235
11279,"2/317 NEERIM ROAD, CARNEGIE",-37.889403,145.057546,1.0,1.0,0,$170_Week,Unit/apmt,October 2006,3163,2006,10,CARNEGIE,170
11706,"8/19 EDGEWOOD STREET, CARNEGIE",-37.887194,145.052204,2.0,1.0,1,$220,Unit/apmt,December 2006,3163,2006,12,CARNEGIE,220
12808,"8 / 41 SHEPPARSON AVENUE, CARNEGIE",-37.89133072,145.05758667,1.0,1.0,1,$175,none,November 2006,3163,2006,11,CARNEGIE,175
12809,"8 / 41 SHEPPARSON AVENUE, CARNEGIE",-37.89133072,145.05758667,1.0,1.0,1,$175,none,October 2006,3163,2006,10,CARNEGIE,175
1335,"1/18 VIEW ROAD, BAYSWATER",-37.84173,145.26193,3.0,1.0,2,$245_Week,none,November 2006,3153,2006,11,BAYSWATER,245
2750,"17 CANBERRA GROVE, BEAUMARIS",-37.976773,145.042391,4.0,2.0,2,$1560,House,November 2006,3193,2006,11,BEAUMARIS,1560
3004,"447A BALCOMBE ROAD, BEAUMARIS",-37.978367,145.03529,4.0,2.0,2,$900,none,November 2006,3193,2006,11,BEAUMARIS,900
4108,"3 MERRIGUM LANE, BELGRAVE",-37.915338,145.342558,4.0,2.0,1,$310,House,November 2006,3160,2006,11,BELGRAVE,310
5422,"6 APALOOSA COURT, BELMONT",-38.191142,144.330301,3.0,2.0,2,$230,Rental_residential,October 2006,3216,2006,10,BELMONT,230
6907,"5/32 HOPETOUN STREET, BENDIGO",-36.75617218,144.28753662,2.0,1.0,1,$150,Unit/apmt,November 2006,3550,2006,11,BENDIGO,150
8776,"40A EAGLEHAWK ROAD, BENDIGO",-36.755546,144.26572,3.0,1.0,1,$150,House,November 2006,3550,2006,11,BENDIGO,150
113,"2/10 CASTLEY CRESCENT, BRAYBROOK",-37.78360748,144.86009216,1.0,1.0,1,$200,none,October 2006,3019,2006,10,BRAYBROOK,200
168,"26 TRELOAR CRESCENT, BRAYBROOK",-37.78519,144.84761,3.0,1.0,1,$170_Week,House,November 2006,3019,2006,11,BRAYBROOK,170
169,"26 TRELOAR CRESCENT, BRAYBROOK",-37.78519,144.84761,3.0,1.0,1,$170,House,November 2006,3019,2006,11,BRAYBROOK,170
3520,"4/284 NEW STREET, BRIGHTON",-37.90653229,144.9929657,2.0,1.0,1,$425,Unit/apmt,October 2006,3186,2006,10,BRIGHTON,425
4419,"1/133 COCHRANE STREET, BRIGHTON",-37.89300156,144.9997406,4.0,2.0,2,$330,none,November 2006,3186,2006,11,BRIGHTON,330
4420,"1/133 COCHRANE STREET, BRIGHTON",-37.89300156,144.9997406,4.0,2.0,2,$330,none,October 2006,3186,2006,10,BRIGHTON,330
5965,"55 ACADEMY DRIVE, BROADMEADOWS",-37.673805,144.944046,3.0,2.0,2,$230_Week,House,November 2006,3047,2006,11,BROADMEADOWS,230
6036,"9B STANHOPE STREET, BROADMEADOWS",-37.686229,144.934605,1.0,1.0,1,$120_Week,Unit,November 2006,3047,2006,11,BROADMEADOWS,120
8938,"6/40 CUMMING STREET, BRUNSWICK WEST",-37.760921,144.943922,2.0,1.0,1,$200_Week,Unit/apmt,October 2006,3055,2006,10,WEST,200
8939,"6/40 CUMMING STREET, BRUNSWICK WEST",-37.760921,144.943922,2.0,1.0,1,$210,Unit/apmt,October 2006,3055,2006,10,WEST,210
9407,"7/558 MORELAND ROAD, BRUNSWICK WEST",-37.754319,144.954044,1.0,1.0,1,$160,Rental_residential,November 2006,3055,2006,11,WEST,160
10758,"14 ASHMORE STREET, BRUNSWICK",-37.763478,144.971348,2.0,1.0,0,$280,House,November 2006,3056,2006,11,BRUNSWICK,280
10791,"3/13 LUSCOMBE STREET, BRUNSWICK",-37.77632141,144.96832275,1.0,1.0,1,$180,Unit/apmt,December 2006,3056,2006,12,BRUNSWICK,180
10964,"53 DUNSTAN AVENUE, BRUNSWICK",-37.757826,144.973387,2.0,1.0,0,$260,Rental_residential,November 2006,3056,2006,11,BRUNSWICK,260
38,"13 THE CREST, ATTWOOD",-37.6734,144.888719,4.0,2.0,2,$290,none,October 2006,3049,2006,10,ATTWOOD,290
1155,"58 MACEY AVENUE, AVONDALE HEIGHTS",-37.763524,144.863893,3.0,1.0,1,$210,Rental_residential,December 2006,3034,2006,12,HEIGHTS,210
1247,"473 BELGRAVE-GEMBROOK ROAD, AVONSLEIGH",-37.924614,145.47316,3.0,2.0,1,$205_Week,none,November 2006,3782,2006,11,AVONSLEIGH,205
2960,"9/21 CHUSAN STREET, BALACLAVA",-37.86719,144.99903,1.0,1.0,1,$160,Rental_residential,December 2006,3183,2006,12,BALACLAVA,160
4506,"3/15 AQUILA COURT, BALLARAT NORTH",-37.54381,143.86977,1.0,1.0,1,$120_Week,Unit/apmt,October 2006,3350,2006,10,NORTH,120
5612,"210 NEILL STREET, BALLARAT",-37.55631,143.860517,3.0,1.0,1,$220,none,October 2006,3350,2006,10,BALLARAT,220
6479,"300 STAUGHTON VALE ROAD, BALLIANG",-37.86424065,144.27925515,4.0,2.0,4,$270_Week,House,November 2006,3340,2006,11,BALLIANG,270
7118,"5 LEXTON STREET, BALWYN NORTH",-37.800577,145.067599,2.0,1.0,1,$280,House,November 2006,3104,2006,11,NORTH,280
7673,"4/178 DONCASTER ROAD, BALWYN NORTH",-37.79467392,145.08302307,3.0,1.0,1,$220,none,October 2006,3104,2006,10,NORTH,220
8135,"10/3 BOSTON ROAD, BALWYN",-37.81676102,145.0771637,2.0,1.0,1,$255,none,December 2006,3103,2006,12,BALWYN,255
8768,"1/1 PARRING ROAD, BALWYN",-37.81316757,145.09060669,2.0,2.0,1,$395,Available Now,December 2006,3103,2006,12,BALWYN,395
9422,"2/8 BEVAN STREET, BALWYN",-37.812674,145.074864,2.0,1.0,1,$250,Rental_residential,December 2006,3103,2006,12,BALWYN,250
958,"3/1 ALFRED PLACE, WILLIAMSTOWN",-37.8587265,144.89981079,2.0,1.0,2,$330,Unit/apmt,November 2006,3016,2006,11,WILLIAMSTOWN,330
1266,"3/88 VICTORIA STREET, WILLIAMSTOWN",-37.86087418,144.88912964,2.0,1.0,1,$230,none,December 2006,3016,2006,12,WILLIAMSTOWN,230
1267,"3/88 VICTORIA STREET, WILLIAMSTOWN",-37.86087418,144.88912964,2.0,1.0,1,$230,none,November 2006,3016,2006,11,WILLIAMSTOWN,230
1406,"23 CASPIAN TERRACE, WILLIAMSTOWN",-37.858435,144.874358,5.0,3.0,2,$570,House,December 2006,3016,2006,12,WILLIAMSTOWN,570
1610,"27 JAMES STREET, WILLIAMSTOWN",-37.857491,144.900065,3.0,1.0,1,$300_Week,House,November 2006,3016,2006,11,WILLIAMSTOWN,300
1611,"27 JAMES STREET, WILLIAMSTOWN",-37.857491,144.900065,3.0,1.0,1,$270,House,October 2006,3016,2006,10,WILLIAMSTOWN,270
1817,"12/14 STEVEDORE STREET, WILLIAMSTOWN",-37.857257,144.901216,1.0,1.0,1,$170_Week,Unit/apmt,November 2006,3016,2006,11,WILLIAMSTOWN,170
1908,"158B CECIL STREET, WILLIAMSTOWN",-37.860876,144.899932,3.0,1.0,1,$360,House,December 2006,3016,2006,12,WILLIAMSTOWN,360
2541,"3/81 PASCO STREET, WILLIAMSTOWN",-37.86319733,144.89515686,2.0,1.0,1,$350,none,December 2006,3016,2006,12,WILLIAMSTOWN,350
2542,"3/81 PASCO STREET, WILLIAMSTOWN",-37.86319733,144.89515686,2.0,1.0,1,$320,none,December 2006,3016,2006,12,WILLIAMSTOWN,320
2933,"31 RAILWAY CRESCENT, WILLIAMSTOWN",-37.866242,144.899589,2.0,1.0,0,$290,none,December 2006,3016,2006,12,WILLIAMSTOWN,290
2934,"31 RAILWAY CRESCENT, WILLIAMSTOWN",-37.866242,144.899589,2.0,1.0,0,$300,none,November 2006,3016,2006,11,WILLIAMSTOWN,300
3292,"2 MACLEAN STREET, WILLIAMSTOWN",-37.858546,144.89958,3.0,1.0,1,$300,House,December 2006,3016,2006,12,WILLIAMSTOWN,300
3293,"2 MACLEAN STREET, WILLIAMSTOWN",-37.858546,144.89958,3.0,1.0,1,$300_Week,House,November 2006,3016,2006,11,WILLIAMSTOWN,300
3434,"152 CECIL STREET, WILLIAMSTOWN",-37.861602,144.900153,2.0,1.0,0,$380,Rental_residential,December 2006,3016,2006,12,WILLIAMSTOWN,380
4389,"21/K5 HIGH STREET, WINDSOR",-37.85472,144.99214,1.0,1.0,1,$160,Unit/apmt,October 2006,3181,2006,10,WINDSOR,160
4482,"23/174 PEEL STREET, WINDSOR",-37.85627747,144.99160767,1.0,1.0,1,$300,Unit/apmt,December 2006,3181,2006,12,WINDSOR,300
4872,"1/30 AWBURN STREET, WODONGA",-36.127941,146.87982,2.0,1.0,1,$145,Unit/apmt,November 2006,3690,2006,11,WODONGA,145
5940,"2/2 BOWMAN COURT, WODONGA",-36.12877655,146.86358643,2.0,1.0,1,$210,Rental_residential,November 2006,3690,2006,11,WODONGA,210
6520,"4/6 SKIPTON COURT, WODONGA",-36.12986,146.907663,1.0,1.0,1,$150,Rental_residential,November 2006,3690,2006,11,WODONGA,150
645,"2/25 CHURCHILL STREET, DONCASTER EAST",-37.787203,145.160692,2.0,1.0,1,$220,none,December 2006,3109,2006,12,EAST,220
882,"4/21 DEHNERT STREET, DONCASTER EAST",-37.7854805,145.14837646,2.0,1.0,1,$220,Unit/apmt,December 2006,3109,2006,12,EAST,220
883,"4/21 DEHNERT STREET, DONCASTER EAST",-37.7854805,145.14837646,2.0,1.0,1,$220,Unit/apmt,November 2006,3109,2006,11,EAST,220
1194,"1/63 FRANKLIN ROAD, DONCASTER EAST",-37.78981018,145.16004944,2.0,1.0,1,$180,Unit/apmt,November 2006,3109,2006,11,EAST,180
1275,"1/232-234 BLACKBURN ROAD, DONCASTER EAST",-37.800255,145.159765,3.0,1.0,1,$255_Week,Unit/apmt,November 2006,3109,2006,11,EAST,255
3234,"5/10-16 WETHERBY ROAD, DONCASTER",-37.78806686,145.14378357,1.0,1.0,1,$160,Unit/apmt,November 2006,3108,2006,11,DONCASTER,160
3254,"9/10-16 WETHERBY ROAD, DONCASTER",-37.787964,145.143575,1.0,1.0,1,$165_Week,Unit/apmt,November 2006,3108,2006,11,DONCASTER,165
3418,"2/60 WHITTENS LANE, DONCASTER",-37.79232407,145.13069153,3.0,1.0,1,$260,Unit/apmt,November 2006,3108,2006,11,DONCASTER,260
3552,"6/55 WETHERBY ROAD, DONCASTER",-37.791657,145.1428,3.0,1.0,1,$280,Townhouse,November 2006,3108,2006,11,DONCASTER,280
1341,"4/4 HERBERT STREET, PASCOE VALE",-37.7253418,144.92185974,2.0,1.0,1,$300,Townhouse,October 2006,3044,2006,10,VALE,300
1384,"5/4 HERBERT STREET, PASCOE VALE",-37.7253418,144.92185974,2.0,1.0,1,$280,Townhouse,October 2006,3044,2006,10,VALE,280
1471,"4/16 ESSEX STREET, PASCOE VALE",-37.72719193,144.94721985,2.0,1.0,1,$245_Week,Rental_residential,November 2006,3044,2006,11,VALE,245
1472,"4/16 ESSEX STREET, PASCOE VALE",-37.72719193,144.94721985,2.0,1.0,1,$245,Rental_residential,November 2006,3044,2006,11,VALE,245
1977,"1/4 HERBERT STREET, PASCOE VALE",-37.725434,144.921734,2.0,2.0,1,$360,Townhouse,October 2006,3044,2006,10,VALE,360
2569,"13 KIAH COURT, PATTERSON LAKES",-38.062067,145.147337,2.0,1.0,1,$175,Unit/apmt,November 2006,3197,2006,11,LAKES,175
3610,"11 RIBBON COURT, PINES FOREST",-38.123512,145.155713,3.0,1.0,1,$175,House,November 2006,3200,2006,11,FOREST,175
4826,"8/2A PARKSIDE STREET, ELSTERNWICK",-37.88569,145.011453,2.0,1.0,1,$250,Rental_residential,December 2006,3185,2006,12,ELSTERNWICK,250
4836,"3/2-4 KING STREET, ELSTERNWICK",-37.883388,145.006216,2.0,1.0,1,$275,Unit/apmt,December 2006,3185,2006,12,ELSTERNWICK,275
5210,"1/35 NEPEAN HIGHWAY, ELSTERNWICK",-37.88696671,145.00024414,3.0,2.0,1,$315,Rental_residential,December 2006,3185,2006,12,ELSTERNWICK,315
5353,"16/71 ALLISON ROAD, ELSTERNWICK",-37.88209534,145.01173401,1.0,1.0,1,$180,Rental_residential,October 2006,3185,2006,10,ELSTERNWICK,180
5633,"5/2 YORSTON COURT, ELSTERNWICK",-37.88478851,145.0085907,1.0,1.0,1,$270_Week,none,November 2006,3185,2006,11,ELSTERNWICK,270
5634,"5/2 YORSTON COURT, ELSTERNWICK",-37.88478851,145.0085907,1.0,1.0,1,$270,none,October 2006,3185,2006,10,ELSTERNWICK,270
5750,"7/11 HODDLE STREET, ELSTERNWICK",-37.88662338,145.01300049,2.0,2.0,1,$280,Rental_residential,November 2006,3185,2006,11,ELSTERNWICK,280
5751,"7/11 HODDLE STREET, ELSTERNWICK",-37.88662338,145.01300049,2.0,2.0,1,$280,Rental_residential,October 2006,3185,2006,10,ELSTERNWICK,280
6669,"12 BIRD STREET, ELTHAM",-37.713497,145.140108,3.0,1.0,1,$285,none,December 2006,3095,2006,12,ELTHAM,285
6798,"4/7 ADDISON STREET, ELWOOD",-37.87449646,144.98138428,2.0,1.0,1,$230,Unit/apmt,November 2006,3184,2006,11,ELWOOD,230
6869,"2/73 MARINE PARADE, ELWOOD",-37.8779335,144.97750854,2.0,1.0,0,$320,none,October 2006,3184,2006,10,ELWOOD,320
6897,"2/7 VAUTIER STREET, ELWOOD",-37.88594437,144.98690796,2.0,1.0,1,$290,none,November 2006,3184,2006,11,ELWOOD,290
6940,"7/493 ST KILDA STREET, ELWOOD",-37.885871,144.991683,2.0,1.0,1,$285,Unit/apmt,December 2006,3184,2006,12,ELWOOD,285
7271,"7/1 GLENHUNTLY ROAD, ELWOOD",-37.882121,144.982307,2.0,1.0,1,$420,Unit/apmt,November 2006,3184,2006,11,ELWOOD,420
7915,"9/25 BENDIGO AVENUE, ELWOOD",-37.8855629,144.98291016,1.0,1.0,1,$210,Rental_residential,November 2006,3184,2006,11,ELWOOD,210
8066,"70 FOAM STREET, ELWOOD",-37.888892,144.987924,3.0,2.0,1,$650,none,November 2006,3184,2006,11,ELWOOD,650
8136,"7/1 RUSKIN STREET, ELWOOD",-37.873806,144.98179626,2.0,1.0,1,$340,Unit/apmt,December 2006,3184,2006,12,ELWOOD,340
8286,"1/33 TENNYSON STREET, ELWOOD",-37.87562943,144.98812866,2.0,1.0,1,$440,Townhouse,November 2006,3184,2006,11,ELWOOD,440
8375,"4/31 DICKENS STREET, ELWOOD",-37.87264252,144.98431396,2.0,1.0,1,$270,Unit/apmt,December 2006,3184,2006,12,ELWOOD,270
8622,"4/16 DALEY STREET, ELWOOD",-37.883011,144.990456,2.0,1.0,1,$270,Unit/apmt,December 2006,3184,2006,12,ELWOOD,270
8872,"3/485 ST KILDA STREET, ELWOOD",-37.88633728,144.99147034,1.0,1.0,1,$215,Rental_residential,November 2006,3184,2006,11,ELWOOD,215
8882,"38 MEREDITH STREET, ELWOOD",-37.876841,144.978871,3.0,1.0,1,$550,none,December 2006,3184,2006,12,ELWOOD,550
9879,"5 / 12 SELWYN AVENUE, ELWOOD",-37.88494873,144.98449707,2.0,1.0,1,$360,none,December 2006,3184,2006,12,ELWOOD,360
9976,"1/1 CYRIL STREET, ELWOOD",-37.87695694,144.99107361,1.0,1.0,0,$260,Rental_residential,December 2006,3184,2006,12,ELWOOD,260
11246,"2 MILDURA CRESCENT, ENDEAVOUR HILLS",-37.972231,145.259027,3.0,2.0,1,$280_Week,House,November 2006,3802,2006,11,HILLS,280
11272,"35 AMALFI DRIVE, ENDEAVOUR HILLS",-37.978549,145.244563,4.0,1.0,3,$220_Week,House,November 2006,3802,2006,11,HILLS,220
11273,"35 AMALFI DRIVE, ENDEAVOUR HILLS",-37.978549,145.244563,4.0,1.0,3,$220,House,November 2006,3802,2006,11,HILLS,220
11334,"1/2 REED COURT, ENDEAVOUR HILLS",-37.969944,145.270665,3.0,1.0,1,$200_Week,Unit,November 2006,3802,2006,11,HILLS,200
11335,"1/2 REED COURT, ENDEAVOUR HILLS",-37.969944,145.270665,3.0,1.0,1,$200,Unit,October 2006,3802,2006,10,HILLS,200
11596,"1/17 BRAMWELL CLOSE, ENDEAVOUR HILLS",-37.99160385,145.26370239,2.0,1.0,1,$200_Week,Rental_residential,November 2006,3802,2006,11,HILLS,200
11597,"1/17 BRAMWELL CLOSE, ENDEAVOUR HILLS",-37.99160385,145.26370239,2.0,1.0,1,$200,Rental_residential,November 2006,3802,2006,11,HILLS,200
485,"149 WILLIAM STREET, ST ALBANS",-37.736411,144.805246,1.0,1.0,0,$185,House,November 2006,3021,2006,11,ALBANS,185
665,"440 MAIN ROAD WEST, ST ALBANS",-37.74265,144.787109,3.0,1.0,1,$190_Week,Rental_residential,November 2006,3021,2006,11,ALBANS,190
695,"38 STEVENS ROAD, ST ALBANS",-37.736473,144.78592,3.0,1.0,0,$200,none,December 2006,3021,2006,12,ALBANS,200
696,"38 STEVENS ROAD, ST ALBANS",-37.736473,144.78592,3.0,1.0,0,$200_Week,none,November 2006,3021,2006,11,ALBANS,200
821,"24 BELFORT STREET, ST ALBANS",-37.750598,144.818979,3.0,1.0,2,$175,Rental_residential,December 2006,3021,2006,12,ALBANS,175
2601,"17/220 BARKLY STREET, ST KILDA",-37.870521,144.980662,2.0,1.0,1,$335,Unit/apmt,October 2006,3182,2006,10,KILDA,335
2638,"4/48 DALGETY STREET, ST KILDA",-37.85935593,144.98078918,1.0,1.0,1,$245,Unit/apmt,November 2006,3182,2006,11,KILDA,245
2697,"4/25 BRIGHTON ROAD, ST KILDA",-37.86925507,144.98735046,1.0,1.0,1,$180,Rental_residential,December 2006,3182,2006,12,KILDA,180
2790,"11/4 ALFRED SQUARE, ST KILDA",-37.8645668,144.97425842,1.0,1.0,1,$300_Week,Available Now,November 2006,3182,2006,11,KILDA,300
3251,"9/1 DUKE STREET, ST KILDA",-37.86791229,144.9881134,2.0,1.0,2,$350,Unit/apmt,October 2006,3182,2006,10,KILDA,350
3369,"12/35 JACKSON STREET, ST KILDA",-37.86153412,144.97654724,1.0,1.0,0,$210,none,November 2006,3182,2006,11,KILDA,210
3394,"2/6 REDAN STREET, ST KILDA",-37.85961151,144.98886108,2.0,1.0,1,$250,none,November 2006,3182,2006,11,KILDA,250
4081,"9/32 WELLINGTON STREET, ST KILDA",-37.85681534,144.98510742,1.0,1.0,1,$180,Rental_residential,October 2006,3182,2006,10,KILDA,180
4355,"11/27 CHARNWOOD ROAD, ST KILDA",-37.858944,144.987172,2.0,1.0,1,$450,Unit/apmt,December 2006,3182,2006,12,KILDA,450
4388,"1/14 FOSTER STREET, ST KILDA",-37.86885452,144.98301697,2.0,1.0,0,$295,none,November 2006,3182,2006,11,KILDA,295
4411,"42/1 ST KILDA ROAD, ST KILDA",-37.8571876,144.9825378,1.0,1.0,1,$380_Week,Unit/apmt,November 2006,3182,2006,11,KILDA,380
5199,"7/12 PAKINGTON STREET, ST KILDA",-37.86569214,144.98716736,2.0,2.0,1,$450,Unit,December 2006,3182,2006,12,KILDA,450
5669,"13/116 INKERMAN STREET, ST KILDA",-37.864749,144.987229,1.0,1.0,1,$185,Rental_residential,December 2006,3182,2006,12,KILDA,185
5686,"2/24 ACLAND STREET, ST KILDA",-37.86486053,144.97648621,2.0,1.0,0,$350,Available Now,November 2006,3182,2006,11,KILDA,350
7029,"2/1 CLIFF AVENUE, STRATHDALE",-36.75572205,144.30984497,2.0,1.0,1,$150,Unit/apmt,November 2006,3550,2006,11,STRATHDALE,150
7322,"2/207 MCIVOR ROAD, STRATHDALE",-36.75861359,144.31510925,2.0,1.0,1,$160,Unit/apmt,November 2006,3550,2006,11,STRATHDALE,160
7536,"6/207 MCIVOR ROAD, STRATHDALE",-36.75861359,144.31510925,2.0,1.0,1,$180,Rental_residential,December 2006,3550,2006,12,STRATHDALE,180
455,"2/2 WARWICKSHIRE COURT, NARRE WARREN",-38.00614548,145.31900024,2.0,1.0,1,$185,Unit,November 2006,3805,2006,11,WARREN,185
690,"10 STRAWBENT RISE, NARRE WARREN",-38.022236,145.297033,3.0,1.0,2,$235,House,November 2006,3805,2006,11,WARREN,235
796,"13 ONYX COURT, NARRE WARREN",-37.998102,145.313889,3.0,1.0,2,$225_Week,House,October 2006,3805,2006,10,WARREN,225
1010,"8 ADELE CLOSE, NARRE WARREN",-38.009181,145.302245,3.0,1.0,0,$190,House,December 2006,3805,2006,12,WARREN,190
1011,"8 ADELE CLOSE, NARRE WARREN",-38.009181,145.302245,3.0,1.0,0,$190_Week,House,November 2006,3805,2006,11,WARREN,190
1808,"79 FLEETWOOD DRIVE, NARRE WARREN",-38.039565,145.313838,3.0,2.0,2,$235,Rental_residential,November 2006,3805,2006,11,WARREN,235
2279,"3 NOBELIUS AVENUE, NARRE WARREN",-38.025088,145.303529,2.0,1.0,2,$190_Week,House,October 2006,3805,2006,10,WARREN,190
5399,"2 DAVIES STREET, NEWPORT",-37.845216,144.887879,3.0,1.0,2,$280_New,none,December 2006,3015,2006,12,NEWPORT,280
5400,"2 DAVIES STREET, NEWPORT",-37.845216,144.887879,3.0,1.0,2,$280_New,none,October 2006,3015,2006,10,NEWPORT,280
5901,"2/81 CHALLIS STREET, NEWPORT",-37.84895,144.872215,2.0,1.0,1,$220_Week,Rental_residential,November 2006,3015,2006,11,NEWPORT,220
5906,"48 RIVER STREET, NEWPORT",-37.840787,144.889164,2.0,1.0,1,$250_Week,none,October 2006,3015,2006,10,NEWPORT,250
5907,"48 RIVER STREET, NEWPORT",-37.840787,144.889164,2.0,1.0,1,$250_New,none,October 2006,3015,2006,10,NEWPORT,250
6287,"36/132-136 MASON STREET, NEWPORT",-37.841119,144.871477,3.0,2.0,1,$350_New,Townhouse,October 2006,3015,2006,10,NEWPORT,350
6702,"42 MADDOX ROAD, NEWPORT",-37.844742,144.869254,2.0,1.0,2,$320_New,Townhouse,December 2006,3015,2006,12,NEWPORT,320
6864,"37 ROSSHIRE ROAD, NEWPORT",-37.848286,144.864277,3.0,2.0,2,$290_New,Rental_residential,November 2006,3015,2006,11,NEWPORT,290
1446,"14 MILTON DRIVE, WYNDHAM VALE",-37.896661,144.618411,3.0,1.0,1,$200_Week,none,November 2006,3024,2006,11,VALE,200
3344,"2 CRUSOE DRIVE, LYSTERFIELD",-37.912536,145.274279,3.0,1.0,2,$250,House,November 2006,3156,2006,11,LYSTERFIELD,250
7784,"3/28 FERNCROFT AVENUE, MALVERN EAST",-37.868817,145.056786,2.0,1.0,2,$285,none,November 2006,3145,2006,11,EAST,285
8195,"4/27 MOAMA ROAD, MALVERN EAST",-37.878139,145.04853,2.0,1.0,1,$290_Week,Unit/apmt,November 2006,3145,2006,11,EAST,290
8304,"213/313-319 WAVERLEY ROAD, MALVERN EAST",-37.87700272,145.05918884,1.0,1.0,0,$160,Available Now,December 2006,3145,2006,12,EAST,160
8491,"10/997 DANDENONG ROAD, MALVERN EAST",-37.88057327,145.05015564,2.0,1.0,1,$260,Unit/apmt,November 2006,3145,2006,11,EAST,260
9953,"6/36 JOHNSTONE STREET, MALVERN",-37.86824799,145.03504944,2.0,1.0,1,$240,Rental_residential,November 2006,3144,2006,11,MALVERN,240
875,"454 BURWOOD HIGHWAY, VERMONT SOUTH",-37.856544,145.17979,4.0,2.0,1,$420_-_$450,House,November 2006,3133,2006,11,SOUTH,450
2113,"13 TULIP STREET, VIOLET TOWN",-36.635858,145.720138,3.0,1.0,1,$110_Week,House,November 2006,3669,2006,11,TOWN,110
4157,"4 WALWORTH AVENUE, CAULFIELD NORTH",-37.878047,145.022827,5.0,3.0,2,$700,House,November 2006,3161,2006,11,NORTH,700
4455,"12/9 HUDSON STREET, CAULFIELD NORTH",-37.87969208,145.03329468,1.0,1.0,1,$145,Rental_residential,November 2006,3161,2006,11,NORTH,145
4714,"15 STEELE STREET, CAULFIELD SOUTH",-37.897071,145.02499,3.0,1.0,1,$350,House,December 2006,3162,2006,12,SOUTH,350
4715,"15 STEELE STREET, CAULFIELD SOUTH",-37.897071,145.02499,3.0,1.0,1,$430,House,November 2006,3162,2006,11,SOUTH,430
4765,"23 SUSSEX ROAD, CAULFIELD SOUTH",-37.896003,145.023677,2.0,1.0,1,$320,Rental_residential,November 2006,3162,2006,11,SOUTH,320
5425,"19 ALDER STREET, CAULFIELD SOUTH",-37.888217,145.018859,3.0,1.0,2,$380,Rental_residential,December 2006,3162,2006,12,SOUTH,380
6693,"4/42 NARONG ROAD, CAULFIELD",-37.86785889,145.02030945,2.0,1.0,1,$310,none,December 2006,3162,2006,12,CAULFIELD,310
9198,"1/12 WOODBINE GROVE, CHELSEA",-38.05466843,145.11959839,2.0,1.0,1,$180,Rental_residential,December 2006,3196,2006,12,CHELSEA,180
9199,"1/12 WOODBINE GROVE, CHELSEA",-38.05466843,145.11959839,2.0,1.0,1,$180_Week,Rental_residential,November 2006,3196,2006,11,CHELSEA,180
9218,"5 JACKSONS ROAD, CHELSEA",-38.043858,145.12312,2.0,1.0,1,$220,Unit/apmt,December 2006,3196,2006,12,CHELSEA,220
9385,"1/48 EMBANKMENT GROVE, CHELSEA",-38.04736328,145.12069702,2.0,1.0,2,$140,House,November 2006,3196,2006,11,CHELSEA,140
9573,"5/18 AVONDALE AVENUE, CHELSEA",-38.05137634,145.11312866,1.0,1.0,1,$135,Rental_residential,November 2006,3196,2006,11,CHELSEA,135
9678,"34 BAXTER AVENUE, CHELSEA",-38.045267,145.122249,3.0,1.0,2,$290,Rental_residential,November 2006,3196,2006,11,CHELSEA,290
9893,"3/488 NEPEAN HIGHWAY, CHELSEA",-38.05815887,145.11807251,2.0,1.0,1,$275,none,November 2006,3196,2006,11,CHELSEA,275
10439,"306A STATION STREET, CHELSEA",-38.049857,145.115467,3.0,2.0,1,$280_Week,House,November 2006,3196,2006,11,CHELSEA,280
351,"3/522 SOUTH ROAD, MOORABBIN",-37.935679,145.054866,3.0,2.0,1,$330,Rental_residential,November 2006,3189,2006,11,MOORABBIN,330
1098,"3/2-4 STATION STREET, MOOROOLBARK",-37.78566742,145.31225586,3.0,2.0,1,$240_Week,Unit/apmt,November 2006,3138,2006,11,MOOROOLBARK,240
2538,"3/4 MONTGOMERY STREET, MORDIALLOC",-38.006054,145.084171,2.0,1.0,1,$1018,Available Now,November 2006,3195,2006,11,MORDIALLOC,1018
7121,"165 KUNYUNG ROAD, MOUNT ELIZA",-38.19853,145.08341,4.0,2.0,0,$260,House,December 2006,3930,2006,12,ELIZA,260
155,"23 CHRIS COURT, HILLSIDE",-37.698987,144.754894,4.0,2.0,2,$250_Week,House,November 2006,3875,2006,11,HILLSIDE,250
156,"23 CHRIS COURT, HILLSIDE",-37.698987,144.754894,4.0,2.0,2,$250,House,November 2006,3875,2006,11,HILLSIDE,250
709,"1/174 DERRIMUT ROAD, HOPPERS CROSSING",-37.87083054,144.68455505,2.0,1.0,1,$195,Unit/apmt,November 2006,3029,2006,11,CROSSING,195
729,"2/2 PERKINS AVENUE, HOPPERS CROSSING",-37.869084,144.691815,2.0,1.0,2,$175_Week,Rental_residential,November 2006,3029,2006,11,CROSSING,175
912,"37 CASEY DRIVE, HOPPERS CROSSING",-37.849291,144.6762,3.0,2.0,2,$245_Week,House,November 2006,3029,2006,11,CROSSING,245
993,"12 GREVILLEA CRESCENT, HOPPERS CROSSING",-37.863723,144.717439,3.0,2.0,2,$260_Week,Rental_residential,November 2006,3029,2006,11,CROSSING,260
1101,"3 SANDLEFORD WAY, HOPPERS CROSSING",-37.848812,144.674317,4.0,2.0,2,$250,Rental_residential,November 2006,3029,2006,11,CROSSING,250
2181,"1 WATERSIDE CLOSE, HOPPERS CROSSING",-37.857091,144.713746,3.0,2.0,2,$230,House,December 2006,3029,2006,12,CROSSING,230
3342,"2/610 NEERIM ROAD, HUGHESDALE",-37.892269,145.082571,3.0,1.0,1,$415,Rental_residential,November 2006,3166,2006,11,HUGHESDALE,415
3399,"1/610 NEERIM ROAD, HUGHESDALE",-37.8918457,145.08255005,2.0,2.0,1,$395,Townhouse,November 2006,3166,2006,11,HUGHESDALE,395
6381,"2/353 UPPER HEIDELBERG ROAD, IVANHOE",-37.757111,145.054489,5.0,2.0,2,$280_-_$340,Available Now,November 2006,3079,2006,11,IVANHOE,340
7060,"2/16 SALISBURY AVENUE, IVANHOE",-37.77402496,145.03877258,3.0,2.0,2,$430,none,November 2006,3079,2006,11,IVANHOE,430
7567,"8/15 ASHBY GROVE, IVANHOE",-37.76699066,145.05148315,2.0,1.0,2,$275,Unit/apmt,November 2006,3079,2006,11,IVANHOE,275
2767,"18 PROUDFOOT STREET, MONT ALBERT",-37.820106,145.109862,3.0,2.0,1,$330,Rental_residential,December 2006,3127,2006,12,ALBERT,330
3253,"7 STREETON COURT, MONT ALBERT",-37.823091,145.112751,4.0,3.0,4,$725,none,December 2006,3127,2006,12,ALBERT,725
3953,"8B BOXTREE ROAD, MONTROSE",-37.81429,145.339061,1.0,1.0,1,$160_Week,House,November 2006,3765,2006,11,MONTROSE,160
4760,"6/61-63 LENNOX STREET, MOONEE PONDS",-37.765672,144.908865,3.0,2.0,2,$370,Townhouse,December 2006,3039,2006,12,PONDS,370
5064,"20 SUSSEX STREET, MOONEE PONDS",-37.763877,144.90963,2.0,1.0,1,$350,Rental_residential,November 2006,3039,2006,11,PONDS,350
5196,"18 ATHOL STREET, MOONEE PONDS",-37.769905,144.918246,2.0,1.0,0,$240_Week,House,November 2006,3039,2006,11,PONDS,240
5197,"18 ATHOL STREET, MOONEE PONDS",-37.769905,144.918246,2.0,1.0,0,$240,House,October 2006,3039,2006,10,PONDS,240
5287,"2/104 BENT STREET, MOONEE PONDS",-37.76305771,144.93603516,2.0,1.0,1,$195,Unit,November 2006,3039,2006,11,PONDS,195
1600,"7/1091 BURKE ROAD, HAWTHORN EAST",-37.81835175,145.05895996,2.0,1.0,1,$300,Rental_residential,November 2006,3123,2006,11,EAST,300
1881,"12/352 AUBURN ROAD, HAWTHORN EAST",-37.83197403,145.0430603,2.0,1.0,1,$270,none,December 2006,3123,2006,12,EAST,270
2426,"20/114 RIVERSDALE ROAD, HAWTHORN",-37.82920074,145.03660583,2.0,1.0,1,$280,Unit/apmt,November 2006,3122,2006,11,HAWTHORN,280
2740,"7/21 GLEN STREET, HAWTHORN",-37.831197,145.035214,2.0,1.0,1,$225,Unit/apmt,December 2006,3122,2006,12,HAWTHORN,225
2823,"13/166 POWER STREET, HAWTHORN",-37.82514572,145.02552795,1.0,1.0,1,$280,Unit/apmt,November 2006,3122,2006,11,HAWTHORN,280
2914,"21/23 PARK STREET, HAWTHORN",-37.81985474,145.03781128,1.0,1.0,0,$155,Studio,October 2006,3122,2006,10,HAWTHORN,155
2934,"18/19 PARK STREET, HAWTHORN",-37.81984329,145.03755188,1.0,1.0,1,$220,Rental_residential,November 2006,3122,2006,11,HAWTHORN,220
3192,"3/26 RIVERSDALE ROAD, HAWTHORN",-37.828107,145.028063,1.0,1.0,1,$250,none,December 2006,3122,2006,12,HAWTHORN,250
3280,"7/20 FORDHOLM ROAD, HAWTHORN",-37.831099,145.030567,2.0,1.0,1,$235,Unit/apmt,December 2006,3122,2006,12,HAWTHORN,235
3368,"6/250 RIVERSDALE ROAD, HAWTHORN",-37.830012,145.044414,2.0,1.0,1,$290,Unit/apmt,November 2006,3122,2006,11,HAWTHORN,290
3369,"6/250 RIVERSDALE ROAD, HAWTHORN",-37.830012,145.044414,2.0,1.0,1,$280,Unit/apmt,November 2006,3122,2006,11,HAWTHORN,280
3470,"9/42 CRESWICK STREET, HAWTHORN",-37.818549,145.016028,1.0,1.0,1,$220,Rental_residential,December 2006,3122,2006,12,HAWTHORN,220
3764,"3/3 HENRY STREET, HAWTHORN",-37.82001495,145.0430603,2.0,1.0,1,$260,none,November 2006,3122,2006,11,HAWTHORN,260
4211,"3 SCOTCH CIRCUIT, HAWTHORN",-37.835329,145.041419,3.0,2.0,1,$450,Townhouse,December 2006,3122,2006,12,HAWTHORN,450
4212,"3 SCOTCH CIRCUIT, HAWTHORN",-37.835329,145.041419,3.0,2.0,1,$450,Townhouse,November 2006,3122,2006,11,HAWTHORN,450
4222,"5/83 DENHAM STREET, HAWTHORN",-37.81930923,145.02348328,2.0,1.0,1,$240,Unit/apmt,November 2006,3122,2006,11,HAWTHORN,240
4694,"15/9 LISSON GROVE, HAWTHORN",-37.82613754,145.0269165,2.0,1.0,1,$250,none,November 2006,3122,2006,11,HAWTHORN,250
4913,"6/41 MORANG ROAD, HAWTHORN",-37.82371902,145.02410889,1.0,1.0,1,$250,Unit/apmt,November 2006,3122,2006,11,HAWTHORN,250
5000,"3/611 GLENFERRIE ROAD, HAWTHORN",-37.82363129,145.03495789,1.0,1.0,0,$100_Week,Unit/apmt,November 2006,3122,2006,11,HAWTHORN,100
5022,"6/70A WATTLE ROAD, HAWTHORN",-37.82525635,145.032547,2.0,1.0,1,$230,none,November 2006,3122,2006,11,HAWTHORN,230
5426,"16/64 AUBURN ROAD, HAWTHORN",-37.819934,145.045431,1.0,1.0,1,$200,none,December 2006,3122,2006,12,HAWTHORN,200
5566,"771 CLARKES ROAD, HAZELWOOD NORTH",-38.289143,146.516895,5.0,2.0,2,$350_Week,House,November 2006,3840,2006,11,NORTH,350
6707,"4/3 ORCHARD GROVE, HEATHMONT",-37.83435822,145.24267578,2.0,1.0,2,$210,Unit/apmt,October 2006,3135,2006,10,HEATHMONT,210
7122,"1 SHELLEY STREET, HEIDELBERG HEIGHTS",-37.743656,145.050636,4.0,1.0,1,$215,none,November 2006,3081,2006,11,HEIGHTS,215
7553,"53 SWANSTON STREET, HEIDELBERG HEIGHTS",-37.738147,145.050976,2.0,1.0,2,$215,none,December 2006,3081,2006,12,HEIGHTS,215
8337,"5/49 HAWDON STREET, HEIDELBERG",-37.75883484,145.06391907,1.0,1.0,1,$165,none,November 2006,3084,2006,11,HEIDELBERG,165
8478,"9/10 STRADBROKE AVENUE, HEIDELBERG",-37.75467682,145.06253052,2.0,1.0,1,$220,none,November 2006,3084,2006,11,HEIDELBERG,220
10081,"29 OUTLOOK WAY, HERNES OAK",-38.220326,146.300279,4.0,2.0,2,$290_Week,Acreage,November 2006,3825,2006,11,OAK,290
267,"17 WATTLETREE DRIVE, MOUNT HELEN",-37.6246334,143.8789023,4.0,2.0,2,$260_Week,none,November 2006,3350,2006,11,HELEN,260
274,"1/50 BROOK STREET, SUNBURY",-37.582175,144.733313,2.0,1.0,1,$155_Week,Available Now,November 2006,3429,2006,11,SUNBURY,155
1226,"10 HEATHERBRAE CRESCENT, SUNBURY",-37.564535,144.715975,3.0,2.0,2,$280_Week,Available Now,November 2006,3429,2006,11,SUNBURY,280
1393,"10/40-42 HARKER STREET, SUNBURY",-37.583914,144.727973,2.0,1.0,1,$180,Unit/apmt,December 2006,3429,2006,12,SUNBURY,180
1394,"10/40-42 HARKER STREET, SUNBURY",-37.583914,144.727973,2.0,1.0,1,$180_Week,Unit/apmt,November 2006,3429,2006,11,SUNBURY,180
1484,"37 ANGLERS ROAD, SUNDERLAND BAY",-38.507245,145.276957,3.0,2.0,2,$200_Week,House,November 2006,3922,2006,11,BAY,200
1488,"70 THE ESPLANADE, SUNDERLAND BAY",-38.507914,145.276821,3.0,1.0,2,$1000_Week,House,November 2006,3922,2006,11,BAY,1000
1760,"80 BACK BEACH ROAD, SUNSET STRIP",-38.497057,145.2648,2.0,1.0,0,$140_Week,House,November 2006,3922,2006,11,STRIP,140
1823,"30 BERMAGUI CRESCENT, SUNSET STRIP",-38.49422,145.266123,3.0,1.0,2,$700_Week,House,November 2006,3922,2006,11,STRIP,700
2202,"21 COMPTON PARADE, SUNSHINE NORTH",-37.769513,144.832115,3.0,1.0,3,$190,House,November 2006,3020,2006,11,NORTH,190
2555,"6 LEARMONTH CRESCENT, SUNSHINE WEST",-37.803263,144.828731,3.0,1.0,3,$180,House,December 2006,3020,2006,12,WEST,180
2653,"4/13 BARDSLEY STREET, SUNSHINE WEST",-37.790837,144.823247,2.0,1.0,0,$140,none,November 2006,3020,2006,11,WEST,140
4079,"67 FRASER STREET, SUNSHINE",-37.78532,144.8204,3.0,1.0,2,$185,House,November 2006,3020,2006,11,SUNSHINE,185
4606,"1 BEECH STREET, SURREY HILLS",-37.835865,145.107994,2.0,1.0,1,$220,House,December 2006,3127,2006,12,HILLS,220
4792,"1/56 UNION ROAD, SURREY HILLS",-37.83034515,145.09646606,3.0,2.0,2,$575_-_$625,Unit/apmt,October 2006,3127,2006,10,HILLS,625
5033,"2/969 RIVERSDALE ROAD, SURREY HILLS",-37.83544159,145.09757996,2.0,1.0,1,$290,none,December 2006,3127,2006,12,HILLS,290
5040,"19/20 FLORENCE ROAD, SURREY HILLS",-37.82896,145.102297,3.0,1.0,2,$250_-_$350,Unit/apmt,November 2006,3127,2006,11,HILLS,350
5410,"14 VERDUN STREET, SURREY HILLS",-37.833905,145.093705,5.0,4.0,2,$300,Rental_residential,November 2006,3127,2006,11,HILLS,300
5645,"2/9 MIDDLESEX ROAD, SURREY HILLS",-37.826488,145.090013,2.0,1.0,1,$280,none,December 2006,3127,2006,12,HILLS,280
5738,"2/6 BLACKBURN STREET, SURREY HILLS",-37.82286072,145.0995636,2.0,2.0,1,$375,none,November 2006,3127,2006,11,HILLS,375
6705,"1/9 GLOUCESTER COURT, SYDENHAM",-37.692139,144.76364,3.0,2.0,0,$215_Week,none,October 2006,3037,2006,10,SYDENHAM,215
6816,"3/15 BEAUMONT COURT, SYDENHAM",-37.691069,144.759964,2.0,1.0,1,$195_Week,none,November 2006,3037,2006,11,SYDENHAM,195
6817,"3/15 BEAUMONT COURT, SYDENHAM",-37.691069,144.759964,2.0,1.0,1,$195,none,November 2006,3037,2006,11,SYDENHAM,195
6832,"23 RUBEN DRIVE, SYDENHAM",-37.705984,144.759448,3.0,2.0,2,$260_Week,House,November 2006,3037,2006,11,SYDENHAM,260
7300,"3 BUNGARIM WYND, SYDENHAM",-37.707069,144.76208,4.0,2.0,2,$300_Week,none,November 2006,3037,2006,11,SYDENHAM,300
7301,"3 BUNGARIM WYND, SYDENHAM",-37.707069,144.76208,4.0,2.0,2,$300,none,November 2006,3037,2006,11,SYDENHAM,300
7302,"3 BUNGARIM WYND, SYDENHAM",-37.707069,144.76208,4.0,2.0,2,$300_Week,none,October 2006,3037,2006,10,SYDENHAM,300
7608,"5/70 COMMUNITY HUB, SYDENHAM",-37.70170975,144.75717163,3.0,2.0,1,$235,Unit/apmt,December 2006,3037,2006,12,SYDENHAM,235
265,"31 COWANS DRIVE, GREENDALE",-37.518222,144.306996,4.0,2.0,1,$200_Week,House,November 2006,3341,2006,11,GREENDALE,200
896,"32 CRANA GROVE, GREENSBOROUGH",-37.685665,145.108802,3.0,1.0,2,$260,House,December 2006,3088,2006,12,GREENSBOROUGH,260
907,"3/157 ST HELENA ROAD, GREENSBOROUGH",-37.70024872,145.12129211,3.0,2.0,2,$470,House,December 2006,3088,2006,12,GREENSBOROUGH,470
3862,"13 KING STREET, HAMPTON EAST",-37.933645,145.032238,3.0,1.0,3,$420,Rental_residential,December 2006,3188,2006,12,EAST,420
4219,"39 STRABANE WAY, HAMPTON PARK",-38.04078,145.259328,4.0,2.0,2,$250_Week,House,November 2006,3976,2006,11,PARK,250
4220,"39 STRABANE WAY, HAMPTON PARK",-38.04078,145.259328,4.0,2.0,2,$250,House,October 2006,3976,2006,10,PARK,250
4963,"30 STRONG DRIVE, HAMPTON PARK",-38.034328,145.272176,3.0,1.0,4,$190,House,November 2006,3976,2006,11,PARK,190
5229,"60 BATEMAN GROVE, HAMPTON PARK",-38.045683,145.255277,3.0,2.0,2,$230,House,December 2006,3976,2006,12,PARK,230
5339,"46 JUSTIN CIRCUIT, HAMPTON PARK",-38.025861,145.271247,3.0,1.0,2,$230,House,December 2006,3976,2006,12,PARK,230
5516,"1/64-66 LAURA DRIVE, HAMPTON PARK",-38.041868,145.279991,3.0,1.0,1,$210_Week,Unit/apmt,October 2006,3976,2006,10,PARK,210
5891,"2/62 BEACH ROAD, HAMPTON",-37.94073868,145.00028992,1.0,1.0,1,$260_Week,Rental_residential,November 2006,3188,2006,11,HAMPTON,260
6276,"6 IVY STREET, HAMPTON",-37.93205,145.018417,3.0,1.0,2,$550,Rental_residential,November 2006,3188,2006,11,HAMPTON,550
6803,"4/62 BEACH ROAD, HAMPTON",-37.94073868,145.00028992,1.0,1.0,1,$260,none,November 2006,3188,2006,11,HAMPTON,260
3660,"10 CHRISTOPHER CRESCENT, TULLAMARINE",-37.699635,144.877546,3.0,1.0,2,$210,House,December 2006,3043,2006,12,TULLAMARINE,210
3661,"10 CHRISTOPHER CRESCENT, TULLAMARINE",-37.699635,144.877546,3.0,1.0,2,$210_Week,House,November 2006,3043,2006,11,TULLAMARINE,210
3950,"1/6 SPRING ST, TULLAMARINE",-37.70474625,144.87860107,3.0,2.0,1,$250,House,November 2006,3043,2006,11,TULLAMARINE,250
4768,"10 JANUS STREET, TULLAMARINE",-37.698679,144.876042,3.0,1.0,4,$250,House,December 2006,3043,2006,12,TULLAMARINE,250
4786,"39/200 MELROSE DRIVE, TULLAMARINE",-37.69816589,144.88018799,2.0,1.0,1,$180,none,December 2006,3043,2006,12,TULLAMARINE,180
529,"2/1 KING STREET, BULLEEN",-37.7625885,145.08422852,3.0,2.0,2,$370,Townhouse,December 2006,3105,2006,12,BULLEEN,370
530,"2/1 KING STREET, BULLEEN",-37.7625885,145.08422852,3.0,2.0,2,$390,Townhouse,December 2006,3105,2006,12,BULLEEN,390
531,"2/1 KING STREET, BULLEEN",-37.7625885,145.08422852,3.0,2.0,2,$400,Townhouse,October 2006,3105,2006,10,BULLEEN,400
1002,"82 MILLICENT AVENUE, BULLEEN",-37.773785,145.097544,3.0,1.0,1,$260,Rental_residential,December 2006,3105,2006,12,BULLEEN,260
3651,"7/1A MAIN DRIVE, BUNDOORA",-37.71373367,145.04605103,3.0,2.0,1,$315_Week,Available Now,November 2006,3083,2006,11,BUNDOORA,315
3693,"7/1191 PLENTY ROAD, BUNDOORA",-37.70021,145.058057,1.0,1.0,1,$250_Week,Available Now,November 2006,3083,2006,11,BUNDOORA,250
3846,"292 LUMEAH ROAD, BUNINYONG",-37.644803,143.876357,4.0,2.0,2,$280,Available Now,October 2006,3357,2006,10,BUNINYONG,280
2425,"10 ISAACS STREET, LAVERTON",-37.8523,144.773116,2.0,1.0,2,$220,House,November 2006,3028,2006,11,LAVERTON,220
2773,"25 KAYE CRESCENT, LAVERTON",-37.852036,144.771045,3.0,2.0,2,$185_Week,House,November 2006,3028,2006,11,LAVERTON,185
2774,"25 KAYE CRESCENT, LAVERTON",-37.852036,144.771045,3.0,2.0,2,$185,House,November 2006,3028,2006,11,LAVERTON,185
3688,"3320 MIDLAND HIGHWAY, LETHBRIDGE",-37.924588,144.113884,3.0,1.0,0,$180_Week,House,November 2006,3332,2006,11,LETHBRIDGE,180
3720,"21 NOYES ROAD, LETHBRIDGE",-37.965373,144.129922,2.0,1.0,1,$170_Week,none,November 2006,3332,2006,11,LETHBRIDGE,170
3765,"72 SUTHERLAND STREET, LETHBRIDGE",-37.971512,144.140276,3.0,1.0,2,$220_Week,House,November 2006,3332,2006,11,LETHBRIDGE,220
4575,"1523 TULLEY ROAD, LIMA",-36.775484,145.983874,4.0,1.0,2,$280_Week,House,November 2006,3673,2006,11,LIMA,280
5458,"27 DERWENT DRIVE, LONG GULLY",-36.750283,144.256686,3.0,1.0,2,$180,House,November 2006,3550,2006,11,GULLY,180
2227,"1/269 NEPEAN HIGHWAY, SEAFORD",-38.1228981,145.12481689,2.0,1.0,1,$180,Unit/apmt,December 2006,3198,2006,12,SEAFORD,180
2416,"29 KANANOOK AVENUE, SEAFORD",-38.115601,145.128913,3.0,2.0,4,$250_Week,none,November 2006,3198,2006,11,SEAFORD,250
4220,"108 STATION ROAD, SEDDON",-37.806359,144.885463,2.0,1.0,1,$250,House,November 2006,3011,2006,11,SEDDON,250
4235,"9/181 GEELONG ROAD, SEDDON",-37.80261612,144.88616943,2.0,1.0,1,$145,none,November 2006,3011,2006,11,SEDDON,145
4508,"181 BUCKLEY STREET, SEDDON",-37.802957,144.889219,3.0,2.0,0,$290,Rental_residential,December 2006,3011,2006,12,SEDDON,290
5068,"20 JOYCE ROAD, SEVILLE EAST",-37.777061,145.490524,3.0,2.0,4,$250_Week,none,November 2006,3139,2006,11,EAST,250
5175,"5 VALLEY ROAD, SEVILLE",-37.771655,145.460035,3.0,2.0,1,$230_Week,House,November 2006,3139,2006,11,SEVILLE,230
6366,"2 DAINTON STREET, SHEPPARTON",-36.395985,145.404499,3.0,1.0,1,$250_Week,House,November 2006,3630,2006,11,SHEPPARTON,250
6367,"2 DAINTON STREET, SHEPPARTON",-36.395985,145.404499,3.0,1.0,1,$250,House,November 2006,3630,2006,11,SHEPPARTON,250
6681,"21 ROMNEY CRESCENT, SHEPPARTON",-36.352713,145.414799,3.0,1.0,1,$245_Week,House,November 2006,3630,2006,11,SHEPPARTON,245
981,"100 BRANIFFS ROAD, JEERALANG",-38.351072,146.409419,3.0,2.0,2,$290_Week,House,November 2006,3840,2006,11,JEERALANG,290
983,"25 BRANIFFS ROAD, JEERALANG",-38.344868,146.409023,1.0,1.0,1,$70_Week,Townhouse,November 2006,3840,2006,11,JEERALANG,70
3040,"305 ELTHAM-YARRA GLEN ROAD, KANGAROO GROUND",-37.68985,145.215905,2.0,1.0,1,$240_Week,none,November 2006,3097,2006,11,GROUND,240
3806,"2/10 STOCKWELL CRESCENT, KEILOR DOWNS",-37.71340561,144.79414368,3.0,1.0,1,$185_Week,none,November 2006,3038,2006,11,DOWNS,185
3807,"2/10 STOCKWELL CRESCENT, KEILOR DOWNS",-37.71340561,144.79414368,3.0,1.0,1,$185,none,November 2006,3038,2006,11,DOWNS,185
4876,"1 AVILA PLACE, KEILOR LODGE",-37.700397,144.806967,4.0,2.0,2,$350_Week,Rental_residential,November 2006,3038,2006,11,LODGE,350
4877,"1 AVILA PLACE, KEILOR LODGE",-37.700397,144.806967,4.0,2.0,2,$350,Rental_residential,November 2006,3038,2006,11,LODGE,350
755,"11 EVENGLOW COURT, SMITHS BEACH",-38.498618,145.257989,3.0,2.0,2,$1050_Week,House,November 2006,3922,2006,11,BEACH,1050
284,"18 OCEAN DRIVE, PORT FAIRY",-38.391483,142.225219,1.0,1.0,0,$1050_Week,House,November 2006,3284,2006,11,FAIRY,1050
285,"18 OCEAN DRIVE, PORT FAIRY",-38.391483,142.225219,1.0,1.0,0,$2800_Week,House,November 2006,3284,2006,11,FAIRY,2800
522,"C203/166 ROUSE STREET, PORT MELBOURNE",-37.841211,144.938255,1.0,1.0,1,$400,none,November 2006,3207,2006,11,MELBOURNE,400
804,"14 SWALLOW STREET, PORT MELBOURNE",-37.83881,144.932766,1.0,1.0,1,$380,House,November 2006,3207,2006,11,MELBOURNE,380
930,"1.06/91 DOW STREET, PORT MELBOURNE",-37.840548,144.942207,1.0,1.0,1,$320,none,November 2006,3207,2006,11,MELBOURNE,320
1618,"903/115 BEACH STREET, PORT MELBOURNE",-37.840225,144.930452,2.0,2.0,1,$585,Unit/apmt,December 2006,3207,2006,12,MELBOURNE,585
1632,"208/65 BEACH STREET, PORT MELBOURNE",-37.84211,144.936383,2.0,2.0,1,$385,Unit/apmt,December 2006,3207,2006,12,MELBOURNE,385
1685,"D404/52 NOTT STREET, PORT MELBOURNE",-37.84087372,144.9387207,1.0,1.0,1,$400,Unit/apmt,November 2006,3207,2006,11,MELBOURNE,400
2520,"72 BRIDGE STREET, PORT MELBOURNE",-37.837428,144.945248,2.0,1.0,0,$400,Unit/apmt,December 2006,3207,2006,12,MELBOURNE,400
2836,"407/55 BAY STREET, PORT MELBOURNE",-37.834478,144.945988,1.0,1.0,0,$350,none,December 2006,3207,2006,12,MELBOURNE,350
2978,"14 INGLES STREET, PORT MELBOURNE",-37.835369,144.948677,2.0,1.0,0,$360,House,December 2006,3207,2006,12,MELBOURNE,360
3262,"1/3 LIARDET STREET, PORT MELBOURNE",-37.839268,144.943386,2.0,1.0,1,$445,none,December 2006,3207,2006,12,MELBOURNE,445
3350,"30 THE ESPLANADE, PORTARLINGTON",-38.112944,144.665582,2.0,1.0,0,$700_Week,House,November 2006,3223,2006,11,PORTARLINGTON,700
3361,"31 HARDING STREET, PORTARLINGTON",-38.11807,144.651053,3.0,1.0,1,$890_Week,House,November 2006,3223,2006,11,PORTARLINGTON,890
3378,"43 SIMSON STREET, PORTARLINGTON",-38.117628,144.667214,2.0,1.0,1,$600_Week,House,November 2006,3223,2006,11,PORTARLINGTON,600
3456,"380 TOWER ROAD, PORTARLINGTON",-38.127301,144.672072,1.0,1.0,2,$1065_Week,Rental_residential,November 2006,3223,2006,11,PORTARLINGTON,1065
3586,"31 HIGH STREET, PORTARLINGTON",-38.118722,144.649001,3.0,2.0,2,$800_Week,House,November 2006,3223,2006,11,PORTARLINGTON,800
4681,"155 MUST STREET, PORTLAND",-38.359308,141.596485,3.0,1.0,1,$240,House,October 2006,3305,2006,10,PORTLAND,240
5271,"73 PERTH STREET, PRAHRAN",-37.846803,144.987715,3.0,1.0,2,$440,none,October 2006,3181,2006,10,PRAHRAN,440
5737,"14 MOSS STREET, PRAHRAN",-37.848264,144.988335,3.0,1.0,1,$380,Available Now,December 2006,3181,2006,12,PRAHRAN,380
6302,"2A CHOMLEY STREET, PRAHRAN",-37.858758,145.005508,2.0,2.0,2,$450_Week,House,November 2006,3181,2006,11,PRAHRAN,450
6522,"102/11 HILLINGDON PLACE, PRAHRAN",-37.8510704,144.9944458,2.0,1.0,1,$345,Available Now,November 2006,3181,2006,11,PRAHRAN,345
6538,"78 ABERDEEN ROAD, PRAHRAN",-37.85296,145.005846,1.0,1.0,0,$340,Available Now,October 2006,3181,2006,10,PRAHRAN,340
6888,"20 BIDEY STREET, PRAHRAN",-37.856332,145.004869,3.0,1.0,0,$550,House,December 2006,3181,2006,12,PRAHRAN,550
7216,"36/108 GREVILLE STREET, PRAHRAN",-37.848784,144.98759,2.0,1.0,1,$1651,Unit/apmt,October 2006,3181,2006,10,PRAHRAN,1651
7275,"13/22 CHOMLEY STREET, PRAHRAN",-37.857929,145.005535,1.0,1.0,1,$250,Unit/apmt,December 2006,3181,2006,12,PRAHRAN,250
7652,"13 BOWEN STREET, PRAHRAN",-37.854916,145.003736,2.0,1.0,0,$400,none,November 2006,3181,2006,11,PRAHRAN,400
7978,"37 LEWISHAM ROAD, PRAHRAN",-37.855252,144.999113,3.0,2.0,0,$375,Available Now,November 2006,3181,2006,11,PRAHRAN,375
8822,"6/608 BELL STREET, PRESTON",-37.74353027,144.98997498,2.0,1.0,1,$180,none,October 2006,3072,2006,10,PRESTON,180
10521,"2/5 COOMA STREET, PRESTON",-37.741697,145.006128,1.0,1.0,1,$145,Unit/apmt,December 2006,3072,2006,12,PRESTON,145
10953,"18/11-13 COOMA STREET, PRESTON",-37.74135208,145.006073,1.0,1.0,0,$135,House,November 2006,3072,2006,11,PRESTON,135
820,"2/3 LOWER PLENTY ROAD, ROSANNA",-37.746395,145.05888,2.0,1.0,1,$240_Week,Unit/apmt,November 2006,3084,2006,11,ROSANNA,240
4673,"73 RAVENHILL BOULEVARD, ROXBURGH PARK",-37.634417,144.917974,3.0,2.0,2,$260_Week,none,November 2006,3064,2006,11,PARK,260
4674,"73 RAVENHILL BOULEVARD, ROXBURGH PARK",-37.634417,144.917974,3.0,2.0,2,$250_Week,none,November 2006,3064,2006,11,PARK,250
4675,"73 RAVENHILL BOULEVARD, ROXBURGH PARK",-37.634417,144.917974,3.0,2.0,2,$260,none,November 2006,3064,2006,11,PARK,260
5144,"6 SIMMONDS PLACE, ROXBURGH PARK",-37.63389,144.927545,3.0,2.0,2,$230_Week,Townhouse,November 2006,3064,2006,11,PARK,230
5270,"14/67 RAVENHILL BOULEVARD, ROXBURGH PARK",-37.63508224,144.91812134,2.0,2.0,1,$210,Unit/apmt,November 2006,3064,2006,11,PARK,210
7392,"29/291 YORK STREET, SALE",-38.102174,147.067711,2.0,1.0,1,$125,Unit/apmt,October 2006,3850,2006,10,SALE,125
258,"10/414 GLENFERRIE ROAD, KOOYONG",-37.84173203,145.03210449,3.0,1.0,1,$280,Unit/apmt,October 2006,3144,2006,10,KOOYONG,280
3794,"2/156 CASEY DRIVE, LALOR",-37.67469788,145.03916931,3.0,1.0,1,$205,Unit/apmt,November 2006,3075,2006,11,LALOR,205
3808,"3 HOTHAM COURT, LALOR",-37.667364,144.998162,3.0,1.0,4,$200,none,December 2006,3075,2006,12,LALOR,200
3882,"6 PRINCE ANDREW AVENUE, LALOR",-37.668812,145.023088,3.0,1.0,1,$205,Available Now,December 2006,3075,2006,12,LALOR,205
626,"307/84 ALTONA STREET, KENSINGTON",-37.797329,144.925945,2.0,1.0,1,$280,Unit/apmt,November 2006,3031,2006,11,KENSINGTON,280
642,"6/46 BAYSWATER ROAD, KENSINGTON",-37.79333878,144.9236145,2.0,1.0,1,$225,Rental_residential,November 2006,3031,2006,11,KENSINGTON,225
735,"411/60 SPEAKMEN STREET, KENSINGTON",-37.794335,144.91696,2.0,1.0,1,$255,Unit/apmt,December 2006,3031,2006,12,KENSINGTON,255
736,"411/60 SPEAKMEN STREET, KENSINGTON",-37.794335,144.91696,2.0,1.0,1,$255_Week,Unit/apmt,November 2006,3031,2006,11,KENSINGTON,255
746,"40 FRANCIS LANE, KENSINGTON",-37.793713,144.918367,3.0,2.0,1,$355,Rental_residential,December 2006,3031,2006,12,KENSINGTON,355
864,"20 CRICHTON LANE, KENSINGTON",-37.792576,144.922112,1.0,1.0,1,$220_Week,Townhouse,November 2006,3031,2006,11,KENSINGTON,220
1062,"22 LITTLE BENDALL STREET, KENSINGTON",-37.789017,144.92346,2.0,1.0,1,$240,Townhouse,October 2006,3031,2006,10,KENSINGTON,240
1192,"16 MCCONNELL STREET, KENSINGTON",-37.79027,144.928395,3.0,2.0,0,$270,none,October 2006,3031,2006,10,KENSINGTON,270
1223,"5 EASTWOOD STREET, KENSINGTON",-37.788745,144.929811,2.0,1.0,0,$275,House,November 2006,3031,2006,11,KENSINGTON,275
2046,"58 MARKET STREET, KENSINGTON",-37.790529,144.925817,3.0,1.0,1,$330,Townhouse,October 2006,3031,2006,10,KENSINGTON,330
2295,"6A CALWELL STREET, KENSINGTON",-37.788257,144.926914,2.0,1.0,1,$255,none,December 2006,3031,2006,12,KENSINGTON,255
2386,"56 THE RIDGEWAY, KENSINGTON",-37.794773,144.924578,2.0,1.0,0,$330,none,November 2006,3031,2006,11,KENSINGTON,330
3365,"15 HARP ROAD, KEW EAST",-37.800013,145.056797,3.0,1.0,3,$280,none,December 2006,3102,2006,12,EAST,280
3612,"3/51 STUDLEY PARK ROAD, KEW",-37.80686188,145.02197266,2.0,1.0,1,$280,none,November 2006,3101,2006,11,KEW,280
3620,"2/45 DISRAELI STREET, KEW",-37.80154037,145.03918457,2.0,1.0,1,$260,none,December 2006,3101,2006,12,KEW,260
3825,"131 WELLINGTON STREET, KEW",-37.810512,145.043006,2.0,1.0,0,$300,House,December 2006,3101,2006,12,KEW,300
3947,"7/60 PRINCESS STREET, KEW",-37.80411148,145.02958679,2.0,1.0,1,$250,Unit/apmt,November 2006,3101,2006,11,KEW,250
4157,"12/103 BARKERS ROAD, KEW",-37.8132515,145.02592468,2.0,1.0,2,$280,Rental_residential,November 2006,3101,2006,11,KEW,280
4260,"4/30 GLADSTONE STREET, KEW",-37.801807,145.040814,2.0,1.0,1,$249,Unit/apmt,December 2006,3101,2006,12,KEW,249
4261,"4/30 GLADSTONE STREET, KEW",-37.801807,145.040814,2.0,1.0,1,$249,Unit/apmt,November 2006,3101,2006,11,KEW,249
4379,"2 SACKVILLE STREET, KEW",-37.812601,145.04643,3.0,2.0,1,$450,House,November 2006,3101,2006,11,KEW,450
4734,"2/66 COBDEN STREET, KEW",-37.801408,145.036336,2.0,1.0,1,$180_-_$210,none,December 2006,3101,2006,12,KEW,210
5095,"7/14 FOLEY STREET, KEW",-37.812876,145.027073,2.0,1.0,1,$320,none,December 2006,3101,2006,12,KEW,320
5224,"78 EDGEVALE ROAD, KEW",-37.812676,145.042838,3.0,1.0,1,$450,House,November 2006,3101,2006,11,KEW,450
5553,"30/20 PAKINGTON STREET, KEW",-37.80403137,145.03468323,2.0,1.0,1,$245,Unit/apmt,October 2006,3101,2006,10,KEW,245
5563,"34 BARNARD GROVE, KEW",-37.792261,145.035598,3.0,1.0,1,$410,House,November 2006,3101,2006,11,KEW,410
5686,"3/58 HARP ROAD, KEW",-37.7999115,145.05410767,2.0,1.0,1,$240,none,December 2006,3101,2006,12,KEW,240
5711,"6/11 DEAN STREET, KEW",-37.81559753,145.0581665,2.0,1.0,1,$295,none,December 2006,3101,2006,12,KEW,295
7847,"12 COTTAGE CRESCENT, KILMORE",-37.294684,144.942878,3.0,2.0,2,$235_Week,House,November 2006,3764,2006,11,KILMORE,235
8183,"43 LIVERPOOL ROAD, KILSYTH",-37.806476,145.315478,2.0,2.0,1,$180_Week,House,November 2006,3137,2006,11,KILSYTH,180
8187,"83 HAWTHORY ROAD, KILSYTH",-37.79499,145.313695,3.0,1.0,2,$240_Week,House,November 2006,3137,2006,11,KILSYTH,240
10159,"142 QUEENSVILLE STREET, KINGSVILLE",-37.810466,144.882826,3.0,1.0,1,$240,House,October 2006,3012,2006,10,KINGSVILLE,240
10443,"4 BELINDAVALE DRIVE, KNOXFIELD",-37.882318,145.241397,4.0,2.0,4,$370,House,December 2006,3180,2006,12,KNOXFIELD,370
376,"11/22-28 CANTERBURY STREET, FLEMINGTON",-37.78156662,144.92601013,1.0,1.0,1,$110_Week,Unit/apmt,November 2006,3031,2006,11,FLEMINGTON,110
377,"11/22-28 CANTERBURY STREET, FLEMINGTON",-37.78156662,144.92601013,1.0,1.0,1,$110,Unit/apmt,October 2006,3031,2006,10,FLEMINGTON,110
806,"7/15 DOVER STREET, FLEMINGTON",-37.78341675,144.92701721,1.0,1.0,1,$160,Rental_residential,October 2006,3031,2006,10,FLEMINGTON,160
828,"10 GLANCE STREET, FLEMINGTON",-37.787063,144.92487,2.0,1.0,0,$260,Rental_residential,November 2006,3031,2006,11,FLEMINGTON,260
864,"8/13-15 DOVER STREET, FLEMINGTON",-37.78328,144.92737,1.0,1.0,1,$165_Week,House,November 2006,3031,2006,11,FLEMINGTON,165
1187,"19/48 FARNHAM STREET, FLEMINGTON",-37.78254318,144.93074036,1.0,1.0,1,$175,none,October 2006,3031,2006,10,FLEMINGTON,175
2400,"3/10 DRECHSLER STREET, FLORA HILL",-36.77913284,144.29029846,1.0,1.0,1,$105,Rental_residential,November 2006,3550,2006,11,HILL,105
2556,"53 LONG GULLY ROAD, FLOWERDALE",-37.342474,145.298467,1.0,1.0,1,$125_Week,House,November 2006,3658,2006,11,FLOWERDALE,125
3915,"12/19 EMPIRE STREET, FOOTSCRAY",-37.78915,144.891317,2.0,1.0,1,$170,Unit/apmt,November 2006,3011,2006,11,FOOTSCRAY,170
4780,"2/103 HUSBAND ROAD, FOREST HILL",-37.839582,145.182596,2.0,1.0,1,$180,Rental_residential,December 2006,3131,2006,12,HILL,180
7997,"58 STANLEY STREET, FRANKSTON",-38.138677,145.133275,3.0,1.0,1,$240,House,November 2006,3199,2006,11,FRANKSTON,240
7998,"58 STANLEY STREET, FRANKSTON",-38.138677,145.133275,3.0,1.0,1,$240,House,October 2006,3199,2006,10,FRANKSTON,240
8468,"4/2 MEREWEATHER AVENUE, FRANKSTON",-38.1348381,145.12516785,2.0,1.0,1,$175,Unit/apmt,December 2006,3199,2006,12,FRANKSTON,175
8583,"9 MALCOLM COURT, FRANKSTON",-38.142879,145.144807,3.0,1.0,2,$200,House,December 2006,3199,2006,12,FRANKSTON,200
8584,"9 MALCOLM COURT, FRANKSTON",-38.142879,145.144807,3.0,1.0,2,$205,House,December 2006,3199,2006,12,FRANKSTON,205
10666,"4 MEREWEATHER AVENUE, FRANKSTON",-38.1351,145.125597,4.0,1.0,1,$250,House,December 2006,3199,2006,12,FRANKSTON,250
11088,"7/34 WILLIAMS STREET, FRANKSTON",-38.151339,145.120581,2.0,1.0,1,$135,none,November 2006,3199,2006,11,FRANKSTON,135
11341,"122 BEACH STREET, GARDEN CITY",-37.839842,144.929687,3.0,2.0,2,$975,House,November 2006,3207,2006,11,CITY,975
12964,"6/61 BROUGHAM STREET, GEELONG",-38.1454277,144.36256409,1.0,1.0,1,$265,Rental_residential,November 2006,3220,2006,11,GEELONG,265
977,"4/51 SPRING STREET, THOMASTOWN",-37.68592453,145.00747681,2.0,1.0,1,$185,House,November 2006,3074,2006,11,THOMASTOWN,185
1716,"47 FENWICK STREET, THORNBURY",-37.76204,145.004852,2.0,1.0,1,$300,Available Now,December 2006,3071,2006,12,THORNBURY,300
2112,"6/73 COLLINS STREET, THORNBURY",-37.75528336,145.0098114,2.0,1.0,1,$230,none,December 2006,3071,2006,12,THORNBURY,230
2113,"6/73 COLLINS STREET, THORNBURY",-37.75528336,145.0098114,2.0,1.0,1,$230,none,November 2006,3071,2006,11,THORNBURY,230
2364,"7/104 GOOCH STREET, THORNBURY",-37.75884247,145.00759888,1.0,1.0,1,$145,Unit/apmt,October 2006,3071,2006,10,THORNBURY,145
2821,"99 GOOCH STREET, THORNBURY",-37.758498,145.006945,4.0,1.0,2,$390_Week,House,November 2006,3071,2006,11,THORNBURY,390
3346,"38 HAMMOND STREET, THORNBURY",-37.763845,145.012988,3.0,1.0,5,$290,none,December 2006,3071,2006,12,THORNBURY,290
3580,"5/77 COLLINS STREET, THORNBURY",-37.75528717,145.01029968,2.0,1.0,1,$220,none,November 2006,3071,2006,11,THORNBURY,220
3962,"8/65 MARTIN STREET, THORNBURY",-37.76125336,145.00521851,2.0,1.0,1,$170,Rental_residential,October 2006,3071,2006,10,THORNBURY,170
4271,"1/109 NORMANBY AVENUE, THORNBURY",-37.7588501,144.99008179,3.0,1.0,1,$245,none,October 2006,3071,2006,10,THORNBURY,245
4669,"14 RAILWAY ROAD, THORPDALE",-38.287206,146.17799,3.0,1.0,1,$160_Week,none,November 2006,3835,2006,11,THORPDALE,160
5062,"1/3 DAVIS COURT, TONGALA",-36.246092,144.953247,2.0,1.0,1,$606,Unit,November 2006,3621,2006,11,TONGALA,606
5840,"24/746 ORRONG ROAD, TOORAK",-37.83813095,145.01443481,2.0,1.0,1,$320,none,December 2006,3142,2006,12,TOORAK,320
6049,"2/2A BURNIE STREET, TOORAK",-37.835808,145.007826,1.0,1.0,1,$195,Rental_residential,December 2006,3142,2006,12,TOORAK,195
6058,"2/693 MALVERN ROAD, TOORAK",-37.84885406,145.01031494,2.0,1.0,1,$290,Available Now,October 2006,3142,2006,10,TOORAK,290
6537,"4/10 DEVORGILLA AVENUE, TOORAK",-37.849525,145.020704,1.0,1.0,1,$180,none,December 2006,3142,2006,12,TOORAK,180
6685,"15/8 LAMBERT ROAD, TOORAK",-37.8473,145.010407,2.0,1.0,0,$175,Unit/apmt,December 2006,3142,2006,12,TOORAK,175
7122,"8/6 LAMBERT ROAD, TOORAK",-37.84710693,145.01025391,2.0,1.0,1,$275,Unit/apmt,October 2006,3142,2006,10,TOORAK,275
7185,"12/2A BURNIE STREET, TOORAK",-37.83592,145.00942,1.0,1.0,1,$220_Week,Unit/apmt,November 2006,3142,2006,11,TOORAK,220
7541,"13 / 76 MATHOURA ROAD, TOORAK",-37.84276962,145.00810242,1.0,1.0,1,$260,none,November 2006,3142,2006,11,TOORAK,260
7957,"2/145 CANTERBURY ROAD, TOORAK",-37.84206009,145.01042175,1.0,1.0,0,$195,Rental_residential,October 2006,3142,2006,10,TOORAK,195
1023,"2/4-6 WILLIAM STREET, CRANBOURNE",-38.10353851,145.27857971,3.0,1.0,1,$200,House,November 2006,3977,2006,11,CRANBOURNE,200
1101,"8 ARNOLD STREET, CRANBOURNE",-38.10417,145.290638,3.0,1.0,2,$175_Week,House,October 2006,3977,2006,10,CRANBOURNE,175
3644,"4/39 FORTUNA AVENUE, CROYDON",-37.80651855,145.27563477,2.0,1.0,1,$250,Rental_residential,November 2006,3136,2006,11,CROYDON,250
437,"32 BEACONSFIELD PARADE, GLENROWAN",-36.460599,146.222163,3.0,2.0,2,$200_Week,House,November 2006,3675,2006,11,GLENROWAN,200
501,"3/53 MAUDE AVENUE, GLENROY",-37.70175552,144.93560791,2.0,1.0,2,$230_Week,none,November 2006,3046,2006,11,GLENROY,230
502,"3/53 MAUDE AVENUE, GLENROY",-37.70175552,144.93560791,2.0,1.0,2,$230,none,November 2006,3046,2006,11,GLENROY,230
2083,"21 TARANA AVENUE, GLENROY",-37.7119,144.908324,3.0,1.0,1,$195,Unit/apmt,November 2006,3046,2006,11,GLENROY,195
2097,"5/167 GLENROY ROAD, GLENROY",-37.705522,144.920696,2.0,1.0,1,$195_Week,Unit/apmt,November 2006,3046,2006,11,GLENROY,195
1118,"1/22 CHATSWORTH AVENUE, ARDEER",-37.7740593,144.80172729,2.0,1.0,2,$195_Week,none,November 2006,3022,2006,11,ARDEER,195
1119,"1/22 CHATSWORTH AVENUE, ARDEER",-37.7740593,144.80172729,2.0,1.0,2,$195,none,November 2006,3022,2006,11,ARDEER,195
2325,"20 HAMPDEN ROAD, ARMADALE",-37.856151,145.01333,4.0,2.0,3,$1000,House,December 2006,3143,2006,12,ARMADALE,1000
2612,"5/1 DUNCRAIG AVENUE, ARMADALE",-37.8616066,145.02537537,2.0,1.0,1,$265,Unit/apmt,November 2006,3143,2006,11,ARMADALE,265
2817,"3/531 ORRONG ROAD, ARMADALE",-37.85705566,145.01087952,2.0,1.0,1,$380,none,December 2006,3143,2006,12,ARMADALE,380
3010,"6/48 SUTHERLAND ROAD, ARMADALE",-37.85811615,145.01725769,1.0,1.0,1,$220,Rental_residential,December 2006,3143,2006,12,ARMADALE,220
3286,"3/18 ST GEORGES ROAD, ARMADALE",-37.860549,145.021161,1.0,1.0,1,$190,Rental_residential,November 2006,3143,2006,11,ARMADALE,190
3424,"4/532 ORRONG ROAD, ARMADALE",-37.85732269,145.01123047,2.0,1.0,1,$360,none,October 2006,3143,2006,10,ARMADALE,360
3527,"1/403 DANDENONG ROAD, ARMADALE",-37.86183929,145.01831055,2.0,1.0,1,$250,Rental_residential,November 2006,3143,2006,11,ARMADALE,250
5770,"51 THE PARADE, ASCOT VALE",-37.772748,144.913887,4.0,1.0,0,$340_Week,House,November 2006,3032,2006,11,VALE,340
5771,"51 THE PARADE, ASCOT VALE",-37.772748,144.913887,4.0,1.0,0,$340,House,November 2006,3032,2006,11,VALE,340
6057,"12/209 MARIBYRNONG ROAD, ASCOT VALE",-37.77125168,144.91023254,2.0,1.0,1,$210,Unit/apmt,November 2006,3032,2006,11,VALE,210
6648,"10/32 FISHER PARADE, ASCOT VALE",-37.784577,144.905481,3.0,2.0,1,$330,Townhouse,November 2006,3032,2006,11,VALE,330
6649,"10/32 FISHER PARADE, ASCOT VALE",-37.784577,144.905481,3.0,2.0,1,$330_Week,Townhouse,November 2006,3032,2006,11,VALE,330
6694,"11/24 ORMOND ROAD, ASCOT VALE",-37.77300262,144.92996216,1.0,1.0,1,$180_Week,none,November 2006,3032,2006,11,VALE,180
8056,"12 LIBERATOR STREET, ASHBURTON",-37.866175,145.090293,3.0,1.0,1,$270,House,December 2006,3147,2006,12,ASHBURTON,270
8840,"1/33 GEORGE STREET, ASHWOOD",-37.86299896,145.09721375,3.0,2.0,2,$420,House,November 2006,3147,2006,11,ASHWOOD,420
9257,"4/17 TEMPLE STREET, ASHWOOD",-37.86992264,145.09465027,2.0,1.0,1,$250,Unit/apmt,November 2006,3147,2006,11,ASHWOOD,250
9738,"7/34 NEPEAN HIGHWAY, ASPENDALE",-38.011105,145.089387,2.0,1.0,1,$715,none,November 2006,3195,2006,11,ASPENDALE,715
10060,"9 PARKVIEW DRIVE, ASPENDALE",-38.0215,145.101561,4.0,2.0,2,$350,none,November 2006,3195,2006,11,ASPENDALE,350
672,"7/28 BROADWAY, BONBEACH",-38.05923462,145.12280273,2.0,1.0,1,$160,Unit/apmt,November 2006,3196,2006,11,BONBEACH,160
755,"68 BROADWAY, BONBEACH",-38.057652,145.127529,2.0,1.0,2,$305,House,December 2006,3196,2006,12,BONBEACH,305
2057,"64A TULIP CRESCENT, BORONIA",-37.868298,145.284281,1.0,1.0,0,$90_Week,none,November 2006,3155,2006,11,BORONIA,90
4358,"9/13 OXFORD STREET, BOX HILL",-37.8219223,145.1212616,3.0,3.0,2,$360,Unit/apmt,November 2006,3128,2006,11,HILL,360
5034,"17/53 BISHOP STREET, BOX HILL",-37.820393,145.133997,2.0,1.0,1,$190,Unit/apmt,December 2006,3128,2006,12,HILL,190
5110,"14/23-33 CAMBRIDGE STREET, BOX HILL",-37.82081223,145.1207428,2.0,1.0,1,$310,Townhouse,November 2006,3128,2006,11,HILL,310
6095,"10/23-33 CAMBRIDGE STREET, BOX HILL",-37.82081223,145.1207428,3.0,3.0,2,$365,Townhouse,November 2006,3128,2006,11,HILL,365
6147,"9/36 ROSE STREET, BOX HILL",-37.82184982,145.12918091,2.0,1.0,1,$220,Available Now,December 2006,3128,2006,12,HILL,220
939,"1/114 BURKE STREET, YARRAGON SOUTH",-38.2418774,146.0758885,2.0,1.0,1,$160_Week,House,November 2006,3823,2006,11,SOUTH,160
940,"9 BORONIA STREET, YARRAGON SOUTH",-38.2418774,146.0758885,3.0,1.0,2,$210_Week,House,November 2006,3823,2006,11,SOUTH,210
1367,"524 YAN YEAN ROAD, YARRAMBAT",-37.643996,145.131632,3.0,1.0,2,$340_Week,none,November 2006,3091,2006,11,YARRAMBAT,340
1562,"32 OVENS STREET, YARRAVILLE",-37.81815,144.891695,2.0,1.0,0,$280,Rental_residential,December 2006,3013,2006,12,YARRAVILLE,280
1563,"32 OVENS STREET, YARRAVILLE",-37.81815,144.891695,2.0,1.0,0,$280_Week,Rental_residential,November 2006,3013,2006,11,YARRAVILLE,280
1984,"32 SANDERSON STREET, YARRAVILLE",-37.814545,144.867159,3.0,1.0,2,$215,Rental_residential,December 2006,3013,2006,12,YARRAVILLE,215
3368,"2/78 ANDERSON STREET, YARRAVILLE",-37.81611252,144.88722229,1.0,1.0,1,$170,Rental_residential,October 2006,3013,2006,10,YARRAVILLE,170
3588,"4 FORREST STREET, YARRAVILLE",-37.813741,144.885005,3.0,1.0,0,$310,none,November 2006,3013,2006,11,YARRAVILLE,310
4422,"530 JUMBUK ROAD, YINNAR SOUTH",-38.34909566,146.37310528,3.0,2.0,4,$280_Week,House,November 2006,3869,2006,11,SOUTH,280
4423,"1135 WHITELAWS TRACK, YINNAR SOUTH",-38.3759626,146.3429133,3.0,1.0,1,$200_Week,House,November 2006,3869,2006,11,SOUTH,200
4509,"2 / 4 GEORGE STREET, YINNAR",-38.330291,146.32664,2.0,1.0,2,$95_Week,none,November 2006,3869,2006,11,YINNAR,95
