,address,latitude,longitude,nbed,nbath,ncar,price,type,historical_dates,postcode,year,month,suburb,weekly_rent,residence_type
4,"108 ADELAIDE STREET, CHEWTON",-37.093186,144.254132,2.0,1.0,2,$250_pw,Residential Lease,October 2010,3451,2010,10,CHEWTON,250,Other
31,"224 MAIN ROAD, CHEWTON",-37.0800585,144.2635775,1.0,1.0,0,$200_pw,House,January 2010,3451,2010,1,CHEWTON,200,House
69,"12 FRYERS ROAD, CHEWTON",-37.082726,144.256496,3.0,1.0,1,$220_pw,House,May 2010,3451,2010,5,CHEWTON,220,House
161,"9 PIZZEY STREET, CHILDERS",-25.233695,152.276337,3.0,1.0,1,$235_pw,none,October 2010,3824,2010,10,CHILDERS,235,Other
162,"19 WEST STREET, CHILDERS",-25.234515,152.275467,3.0,1.0,0,$270_pw,House,August 2010,3824,2010,8,CHILDERS,270,House
360,"1/31 COUNTRY CLUB DRIVE, CHIRNSIDE PARK",-37.756332,145.325246,3.0,1.0,1,$320_pw,House,March 2010,3116,2010,3,PARK,320,House
393,"5 YARRARIDGE DRIVE, CHIRNSIDE PARK",-37.757684,145.305604,3.0,1.0,2,$340_pw,House,December 2010,3116,2010,12,PARK,340,House
494,"55 CHIRNSIDE DRIVE, CHIRNSIDE PARK",-37.754336,145.320414,4.0,2.0,2,$380_pw,House,February 2010,3116,2010,2,PARK,380,House
518,"56 MUIR ROAD, CHRISTMAS HILLS",-37.657453,145.338221,2.0,1.0,0,$300_per_week,Rental_residential,July 2010,3775,2010,7,HILLS,300,Other
571,"585 CHUM CREEK ROAD, CHUM CREEK",-37.64491085,145.49757232,3.0,1.0,4,$375_per_week,House,March 2010,3777,2010,3,CREEK,375,House
623,"15 CURRINGA COURT, CHURCHILL",-38.319109,146.420642,4.0,2.0,2,$300_per_week,none,December 2010,3842,2010,12,CHURCHILL,300,Other
690,"5 AMAROO DRIVE, CHURCHILL",-38.323465,146.422057,3.0,1.0,1,$200_pw,none,September 2010,3842,2010,9,CHURCHILL,200,Other
765,"31 DAVANZO AVENUE, CLARINDA",-37.944702,145.105229,3.0,1.0,2,$400,none,April 2010,3169,2010,4,CLARINDA,400,Other
915,"20 CRAWFORD ROAD, CLARINDA",-37.929396,145.101594,2.0,1.0,1,$290,House,April 2010,3169,2010,4,CLARINDA,290,House
977,"430 WEBSTERS ROAD, CLARKEFIELD",-37.480097,144.737853,5.0,2.0,4,$380_per_week,House,February 2010,3430,2010,2,CLARKEFIELD,380,House
992,"600 KONAGADERRA ROAD, CLARKEFIELD",-37.515177,144.783865,3.0,1.0,0,$400_per_week,House,March 2010,3430,2010,3,CLARKEFIELD,400,House
1014,"554 HEATHS LANE, CLARKEFIELD",-37.460714,144.804313,3.0,1.0,2,$250_pw,House,April 2010,3430,2010,4,CLARKEFIELD,250,House
1021,"0 HEATHS LANE, CLARKEFIELD",-37.453903,144.752682,3.0,1.0,0,$230_per_week,none,August 2010,3430,2010,8,CLARKEFIELD,230,Other
1022,"1 GATEHOUSE, BOLINDA VALE, CLARKEFIELD",-37.4487718,144.6856322,3.0,1.0,1,$200_per_week,none,August 2010,3430,2010,8,CLARKEFIELD,200,Other
1023,"COTTAGE/ 1556 MELBOURNE-LANCEFIELD ROAD, CLARKEFIELD",-37.4757072,144.7495857,3.0,1.0,1,$185_per_week,none,March 2010,3430,2010,3,CLARKEFIELD,185,Other
1223,"12 BOTANIC DRIVE, CLAYTON SOUTH",-37.939354,145.13641,3.0,2.0,2,$420,none,January 2010,3169,2010,1,SOUTH,420,Other
1566,"3/44 OAKES AVENUE, CLAYTON SOUTH",-37.935969,145.133936,2.0,1.0,1,$250_Weekly,House,December 2010,3169,2010,12,SOUTH,250,House
1599,"13 SPRING VALLEY DRIVE, CLAYTON SOUTH",-37.947671,145.137097,3.0,2.0,2,$350,House,October 2010,3169,2010,10,SOUTH,350,House
1658,"4/15 OAKES AVENUE, CLAYTON SOUTH",-37.935135,145.129653,3.0,2.0,1,$430,House,January 2010,3169,2010,1,SOUTH,430,House
1739,"1 MELOSA AVENUE, CLAYTON SOUTH",-37.937284,145.114101,3.0,1.0,2,$320_per_week,House,May 2010,3169,2010,5,SOUTH,320,House
1788,"1/60 OAKES AVENUE, CLAYTON SOUTH",-37.93713,145.136159,3.0,2.0,2,$290_p.w.,Townhouse,December 2010,3169,2010,12,SOUTH,290,House
1819,"13 BROWNS ROAD, CLAYTON",-37.920978,145.127558,3.0,1.0,2,$420,House,June 2010,3168,2010,6,CLAYTON,420,House
1858,"5/42 EVELYN STREET, CLAYTON",-37.921181,145.131503,3.0,2.0,2,$350_p.w.,Townhouse,December 2010,3168,2010,12,CLAYTON,350,House
1859,"5/42 EVELYN STREET, CLAYTON",-37.921181,145.131503,3.0,2.0,2,$360,Townhouse,November 2010,3168,2010,11,CLAYTON,360,House
1865,"4/10 PANORAMA STREET, CLAYTON",-37.918065,145.130143,3.0,1.0,1,$380,Townhouse,December 2010,3168,2010,12,CLAYTON,380,House
1943,"30/2 GREENFIELD DRIVE, CLAYTON",-37.923181,145.128623,2.0,1.0,1,$365,Unit,September 2010,3168,2010,9,CLAYTON,365,Apartment
1944,"30/2 GREENFIELD DRIVE, CLAYTON",-37.923181,145.128623,2.0,1.0,1,$390,Unit,March 2010,3168,2010,3,CLAYTON,390,Apartment
1955,"1/34 WELLINGTON ROAD, CLAYTON",-37.915779,145.133915,1.0,1.0,1,$240,Unit,June 2010,3168,2010,6,CLAYTON,240,Apartment
1956,"1/34 WELLINGTON ROAD, CLAYTON",-37.915779,145.133915,1.0,1.0,1,$240,Unit,May 2010,3168,2010,5,CLAYTON,240,Apartment
1957,"1/34 WELLINGTON ROAD, CLAYTON",-37.915779,145.133915,1.0,1.0,1,$240,Unit,March 2010,3168,2010,3,CLAYTON,240,Apartment
2086,"33 ALICE STREET, CLAYTON",-37.917622,145.115287,4.0,2.0,1,$390_Weekly,House,December 2010,3168,2010,12,CLAYTON,390,House
2123,"10/2 MONASH GREEN DRIVE, CLAYTON",-37.918788,145.127626,2.0,1.0,1,$350,Unit,December 2010,3168,2010,12,CLAYTON,350,Apartment
2124,"10/2 MONASH GREEN DRIVE, CLAYTON",-37.918788,145.127626,2.0,1.0,1,$370,Unit,May 2010,3168,2010,5,CLAYTON,370,Apartment
2171,"71 CLAYTON ROAD, CLAYTON",-37.9139021,145.1218545,4.0,2.0,2,$310,House,December 2010,3168,2010,12,CLAYTON,310,House
2185,"1/31 GLENBROOK AVENUE, CLAYTON",-37.909275,145.123752,3.0,1.0,2,$300,House,October 2010,3168,2010,10,CLAYTON,300,House
2186,"1/31 GLENBROOK AVENUE, CLAYTON",-37.909275,145.123752,3.0,1.0,2,$330_per_week,House,September 2010,3168,2010,9,CLAYTON,330,House
2187,"1/31 GLENBROOK AVENUE, CLAYTON",-37.909275,145.123752,3.0,1.0,2,$330,House,August 2010,3168,2010,8,CLAYTON,330,House
2188,"1/31 GLENBROOK AVENUE, CLAYTON",-37.909275,145.123752,3.0,1.0,2,$360_per_week,House,May 2010,3168,2010,5,CLAYTON,360,House
2313,"10 SHADY MEWS, CLAYTON",-37.922472,145.127818,3.0,1.0,1,$400,Townhouse,June 2010,3168,2010,6,CLAYTON,400,House
2314,"10 SHADY MEWS, CLAYTON",-37.922472,145.127818,3.0,1.0,1,$390,Townhouse,June 2010,3168,2010,6,CLAYTON,390,House
2429,"5/645 BLACKBURN ROAD, CLAYTON",-37.917981,145.139598,1.0,1.0,1,$220_p.w.,Unit,July 2010,3168,2010,7,CLAYTON,220,Apartment
2548,"1/13 EVELYN STREET, CLAYTON",-37.918973,145.130798,6.0,2.0,1,$700,House,May 2010,3168,2010,5,CLAYTON,700,House
2657,"1953 DANDENONG ROAD, CLAYTON",-37.91327,145.126079,5.0,4.0,3,$350,Townhouse,January 2010,3168,2010,1,CLAYTON,350,House
2681,"1/67 MADELEINE ROAD, CLAYTON",-37.919718,145.118887,2.0,1.0,1,$310_pw,none,August 2010,3168,2010,8,CLAYTON,310,Other
2800,"4/22 WRIGHT STREET, CLAYTON",-37.922062,145.124729,2.0,1.0,1,$280,House,November 2010,3168,2010,11,CLAYTON,280,House
2805,"3/21 FRANCIS STREET, CLAYTON",-37.924041,145.121709,2.0,1.0,1,$310,none,August 2010,3168,2010,8,CLAYTON,310,Other
2812,"23 BRUSHBOX COURT, CLAYTON",-37.92356953,145.12906235,3.0,1.0,1,$420,Townhouse,December 2010,3168,2010,12,CLAYTON,420,House
2886,"13/9-11 BROWNS ROAD, CLAYTON",-37.918418,145.127927,2.0,1.0,1,$250,House,April 2010,3168,2010,4,CLAYTON,250,House
2906,"9 SHADY MEWS, CLAYTON",-37.922424,145.12782,2.0,1.0,2,$350_per_week,Rental_residential,December 2010,3168,2010,12,CLAYTON,350,Other
2907,"9 SHADY MEWS, CLAYTON",-37.922424,145.12782,2.0,1.0,2,$370,Rental_residential,December 2010,3168,2010,12,CLAYTON,370,Other
2983,"6/1-3 ARNOTT STREET, CLAYTON",-37.916516,145.134721,3.0,1.0,1,$410_pw,none,January 2010,3168,2010,1,CLAYTON,410,Other
3011,"1/31 GLENBROOK AVE, CLAYTON",-37.909189,145.123384,3.0,1.0,2,$300,House,October 2010,3168,2010,10,CLAYTON,300,House
3056,"2B HOURIGAN AVENUE, CLAYTON",-37.917265,145.121913,3.0,2.0,2,$400,Townhouse,January 2010,3168,2010,1,CLAYTON,400,House
3146,"23 MCBEAN STREET, CLAYTON",-37.923718,145.111716,2.0,1.0,2,$350_per_week,Townhouse,December 2010,3168,2010,12,CLAYTON,350,House
3208,"3/1450 NORTH ROAD, CLAYTON",-37.914333,145.120368,2.0,1.0,1,$280_pw,Rental_residential,July 2010,3168,2010,7,CLAYTON,280,Other
3209,"3/1450 NORTH ROAD, CLAYTON",-37.914333,145.120368,2.0,1.0,1,$290_pw,Rental_residential,June 2010,3168,2010,6,CLAYTON,290,Other
3688,"2 BRUSHBOX COURT, CLAYTON",-37.925488,145.119662,3.0,1.0,2,$430,Townhouse,July 2010,3168,2010,7,CLAYTON,430,House
3703,"9/56-58 KANOOKA GROVE, CLAYTON",-37.921688,145.126396,3.0,1.0,1,$400_p.w.,House,December 2010,3168,2010,12,CLAYTON,400,House
3916,"10 VICTOR ROAD, CLEMATIS",-37.929733,145.419864,5.0,2.0,0,$400_per_week,none,September 2010,3782,2010,9,CLEMATIS,400,Other
3946,"6 VICTOR ROAD, CLEMATIS",-37.929987,145.420214,2.0,1.0,1,$300_per_week,none,October 2010,3782,2010,10,CLEMATIS,300,Other
3971,"10 VICTOR RD, CLEMATIS",-37.929733,145.419864,5.0,2.0,0,$400_per_week,House,August 2010,3782,2010,8,CLEMATIS,400,House
4013,"29 FENWICK STREET, CLIFTON HILL",-37.789226,144.999862,2.0,1.0,0,$440_pw,none,January 2010,3068,2010,1,HILL,440,Other
4049,"70 NOONE STREET, CLIFTON HILL",-37.793407,144.992413,2.0,1.0,0,$365_pw,Rental_residential,April 2010,3068,2010,4,HILL,365,Other
4185,"2/57 CAROLINE STREET, CLIFTON HILL",-37.790209,145.00096,1.0,1.0,1,$210_pw,Rental_residential,January 2010,3068,2010,1,HILL,210,Other
4197,"18/14 THE ESPLANADE, CLIFTON HILL",-37.788057,145.005844,1.0,1.0,1,$260_p.w.,Rental_residential,August 2010,3068,2010,8,HILL,260,Other
4210,"205 SPENSLEY STREET, CLIFTON HILL",-37.786573,145.004419,2.0,1.0,1,$495_pw,House,April 2010,3068,2010,4,HILL,495,House
4214,"19 GROOM STREET, CLIFTON HILL",-37.794371,144.998236,2.0,1.0,0,$450_pw,none,January 2010,3068,2010,1,HILL,450,Other
4289,"11 DALLY STREET, CLIFTON HILL",-37.792519,144.999611,2.0,1.0,0,$470_pw,none,November 2010,3068,2010,11,HILL,470,Other
4316,"53 DWYER STREET, CLIFTON HILL",-37.785982,145.001994,2.0,1.0,0,$500_pw,none,March 2010,3068,2010,3,HILL,500,Other
4416,"1 YAMBLA STREET, CLIFTON HILL",-37.792736,145.000619,2.0,1.0,1,$475_pw,none,September 2010,3068,2010,9,HILL,475,Other
4417,"1 YAMBLA STREET, CLIFTON HILL",-37.792736,145.000619,2.0,1.0,1,$475_pw,none,August 2010,3068,2010,8,HILL,475,Other
4429,"40 O GRADY STREET, CLIFTON HILL",-37.786837,144.998903,3.0,1.0,2,$700_pw,Rental_residential,October 2010,3068,2010,10,HILL,700,Other
4457,"16 COUNCIL STREET, CLIFTON HILL",-37.792331,144.986235,2.0,2.0,0,$570_pw,none,September 2010,3068,2010,9,HILL,570,Other
4476,"16/16 THE ESPLANADE, CLIFTON HILL",-37.7879444,145.0061292,1.0,1.0,1,$275_pw,none,June 2010,3068,2010,6,HILL,275,Other
4504,"32 YAMBLA STREET, CLIFTON HILL",-37.791828,145.001142,3.0,2.0,1,$700_pw,House,August 2010,3068,2010,8,HILL,700,House
4505,"32 YAMBLA STREET, CLIFTON HILL",-37.791828,145.001142,3.0,2.0,1,$700_pw,House,July 2010,3068,2010,7,HILL,700,House
4601,"30 WRIGHT STREET, CLIFTON HILL",-37.78906,145.00174,2.0,1.0,1,$500_pw,Rental_residential,January 2010,3068,2010,1,HILL,500,Other
4724,"5/56 JOHN STREET, CLIFTON HILL",-37.78723145,144.99583435,1.0,1.0,1,$345_per_week,none,October 2010,3068,2010,10,HILL,345,Other
4814,"1/211 GOLD STREET, CLIFTON HILL",-37.791306,144.990222,2.0,1.0,1,$395_per_week,none,August 2010,3068,2010,8,HILL,395,Other
4951,"10 LACORRA COURT, CLIFTON SPRINGS",-38.151941,144.576798,4.0,2.0,1,$295_pw,Rental_residential,December 2010,3222,2010,12,SPRINGS,295,Other
5056,"10 ALBERT STREET, CLUNES",-37.287198,143.78807,3.0,2.0,1,$180_Weekly,House,February 2010,3370,2010,2,CLUNES,180,House
5120,"6 CAMERON STREET, CLUNES",-37.292247,143.791814,2.0,1.0,2,$160,none,September 2010,3370,2010,9,CLUNES,160,Other
5571,"107 COBAINS ESTATE ROAD, COBAINS",-38.0840691,147.1410804,3.0,2.0,0,$220_Weekly,House,November 2010,3851,2010,11,COBAINS,220,House
5572,"263 BENGWORDEN ROAD, COBAINS",-38.071445,147.103421,3.0,1.0,3,$250_pw,House,October 2010,3851,2010,10,COBAINS,250,House
5598,"2/86 CURDIE STREET, COBDEN",-38.327394,143.071066,2.0,1.0,1,$185_per_week,House,November 2010,3266,2010,11,COBDEN,185,House
5612,"74 WALKER STREET, COBDEN",-38.32536,143.080733,2.0,1.0,1,$170_per_week,House,October 2010,3266,2010,10,COBDEN,170,House
5642,"22 PARROTT STREET, COBDEN",-38.32951,143.076719,4.0,1.0,3,$220_per_week,House,January 2010,3266,2010,1,COBDEN,220,House
5691,"1 MITCHELL STREET, COBDEN",-38.3321,143.073485,4.0,1.0,2,$235_per_week,House,October 2010,3266,2010,10,COBDEN,235,House
5704,"1/84 PARROTT STREET, COBDEN",-38.328608,143.068643,3.0,1.0,1,$185_per_week,House,October 2010,3266,2010,10,COBDEN,185,House
5871,"28 VICTORIA COURT, COBUNGRA",-37.091318,147.444334,4.0,2.0,0,$350_per_week,House,March 2010,3898,2010,3,COBUNGRA,350,House
5917,"34 CLAREMONT STREET, COBURG NORTH",-37.732144,144.978717,3.0,1.0,2,$340_per_week,House,June 2010,3058,2010,6,NORTH,340,House
5918,"34 CLAREMONT STREET, COBURG NORTH",-37.732144,144.978717,3.0,1.0,2,$340_per_week,House,May 2010,3058,2010,5,NORTH,340,House
5986,"1/16 TONKIN AVENUE, COBURG NORTH",-37.720549,144.953335,2.0,1.0,1,$270_p.w.,House,August 2010,3058,2010,8,NORTH,270,House
6140,"9 RONALD STREET, COBURG NORTH",-37.730771,144.980626,3.0,1.0,0,$310_p.w.,Rental_residential,March 2010,3058,2010,3,NORTH,310,Other
6187,"10/23 BAXTER STREET, COBURG",-37.746319,144.963475,1.0,1.0,1,$240_pw,none,July 2010,3058,2010,7,COBURG,240,Other
6188,"10/23 BAXTER STREET, COBURG",-37.746319,144.963475,1.0,1.0,1,$220_pw,none,January 2010,3058,2010,1,COBURG,220,Other
6220,"2/64 VICTORIA STREET, COBURG",-37.742205,144.958461,2.0,1.0,1,$300_per_week,none,November 2010,3058,2010,11,COBURG,300,Other
6221,"2/64 VICTORIA STREET, COBURG",-37.742205,144.958461,2.0,1.0,1,$300_per_week,none,October 2010,3058,2010,10,COBURG,300,Other
6222,"2/64 VICTORIA STREET, COBURG",-37.742205,144.958461,2.0,1.0,1,$330_pw,none,January 2010,3058,2010,1,COBURG,330,Other
6226,"18/23 BAXTER STREET, COBURG",-37.746319,144.963475,2.0,1.0,1,$320_pw,none,June 2010,3058,2010,6,COBURG,320,Other
6227,"18/23 BAXTER STREET, COBURG",-37.746319,144.963475,2.0,1.0,1,$320_pw,none,May 2010,3058,2010,5,COBURG,320,Other
6288,"11/51 STOCKADE AVENUE, COBURG",-37.7383322,144.9702595,5.0,4.0,1,$450_pw,none,July 2010,3058,2010,7,COBURG,450,Other
6300,"19 SAUNDERS STREET, COBURG",-37.752043,144.950572,3.0,1.0,1,$420_pw,House,February 2010,3058,2010,2,COBURG,420,House
6383,"2/48 THE GROVE, COBURG",-37.752217,144.971599,2.0,1.0,1,$290_p.w.,Villa,September 2010,3058,2010,9,COBURG,290,House
6414,"177 URQUHART STREET, COBURG",-37.741016,144.975769,3.0,2.0,1,$450_pw,House,January 2010,3058,2010,1,COBURG,450,House
6464,"6/1 THE GROVE, COBURG",-37.750961,144.965767,2.0,1.0,1,$320_p.w.,Townhouse,November 2010,3058,2010,11,COBURG,320,House
6465,"6/1 THE GROVE, COBURG",-37.750961,144.965767,2.0,1.0,1,$330,Townhouse,November 2010,3058,2010,11,COBURG,330,House
6536,"49 SOUDAN STREET, COBURG",-37.739114,144.951791,3.0,1.0,1,$425_pw,none,March 2010,3058,2010,3,COBURG,425,Other
6625,"14A HARDWICK STREET, COBURG",-37.749445,144.968678,2.0,1.0,0,$395_pw,House,October 2010,3058,2010,10,COBURG,395,House
6668,"80 SHAFTSBURY STREET, COBURG",-37.748313,144.955317,4.0,2.0,4,$520_pw,none,August 2010,3058,2010,8,COBURG,520,Other
6686,"9 BEAUMONDE STREET, COBURG",-37.755099,144.978924,4.0,2.0,1,$500_p.w.,none,June 2010,3058,2010,6,COBURG,500,Other
6687,"9 BEAUMONDE STREET, COBURG",-37.755099,144.978924,4.0,2.0,1,$500_p.w.,none,May 2010,3058,2010,5,COBURG,500,Other
6770,"156 GORDON STREET, COBURG",-37.7430127,144.9495076,3.0,2.0,2,$495_per_week,House,April 2010,3058,2010,4,COBURG,495,House
6791,"46 DAVIS STREET, COBURG",-37.740319,144.951406,3.0,1.0,3,$400_pw,House,December 2010,3058,2010,12,COBURG,400,House
6804,"13 COLLINS STREET, COBURG",-37.737022,144.954334,3.0,1.0,2,$395_per_week,Rental_residential,November 2010,3058,2010,11,COBURG,395,Other
6827,"2/56 THE AVENUE, COBURG",-37.752826,144.968178,2.0,2.0,1,$250_pw,none,August 2010,3058,2010,8,COBURG,250,Other
6843,"114 SHAFTSBURY STREET, COBURG",-37.745519,144.955825,3.0,2.0,1,$450_per_week,none,April 2010,3058,2010,4,COBURG,450,Other
6973,"11/40-50 STOCKADE AVENUE, COBURG",-37.737521,144.970247,2.0,1.0,1,$380_pw,Townhouse,June 2010,3058,2010,6,COBURG,380,House
6974,"11/40-50 STOCKADE AVENUE, COBURG",-37.737521,144.970247,2.0,1.0,1,$400_Weekly,Townhouse,February 2010,3058,2010,2,COBURG,400,House
6975,"11/40-50 STOCKADE AVENUE, COBURG",-37.737521,144.970247,2.0,1.0,1,$400_pw,Townhouse,January 2010,3058,2010,1,COBURG,400,House
7000,"39 FISCHER STREET, COBURG",-37.733824,144.953878,3.0,1.0,1,$400_per_week,House,February 2010,3058,2010,2,COBURG,400,House
7057,"69 CAMPBELL STREET, COBURG",-37.753608,144.969821,2.0,2.0,1,$450_pw,Rental_residential,August 2010,3058,2010,8,COBURG,450,Other
7107,"41/14 BELL STREET, COBURG",-37.74239,144.977185,2.0,1.0,1,$390_p.w.,none,March 2010,3058,2010,3,COBURG,390,Other
7108,"41/14 BELL STREET, COBURG",-37.74239,144.977185,2.0,1.0,1,$390,none,February 2010,3058,2010,2,COBURG,390,Other
7146,"20 SHACKELL STREET, COBURG",-37.742317,144.952214,3.0,1.0,2,$390_per_week,House,November 2010,3058,2010,11,COBURG,390,House
7227,"20/5 INDUSTRY LANE, COBURG",-37.7370286,144.9695513,2.0,1.0,1,$340_per_week,Townhouse,February 2010,3058,2010,2,COBURG,340,House
7245,"11/1 MANNA GUM COURT, COBURG",-37.736609,144.975974,3.0,2.0,2,$450,Available Now,December 2010,3058,2010,12,COBURG,450,Other
7246,"11/1 MANNA GUM COURT, COBURG",-37.736609,144.975974,3.0,2.0,2,$460_Weekly,Available Now,February 2010,3058,2010,2,COBURG,460,Other
7283,"69A MORELAND ROAD, COBURG",-37.756399,144.97422,3.0,1.0,1,$370,none,October 2010,3058,2010,10,COBURG,370,Other
7561,"3/11 METHVEN STREET, COBURG",-37.746901,144.963811,2.0,1.0,1,$360_p.w.,none,December 2010,3058,2010,12,COBURG,360,Other
7621,"5/144 NICHOLSON STREET, COBURG",-37.745681,144.977713,2.0,1.0,1,$280_pw,none,February 2010,3058,2010,2,COBURG,280,Other
7694,"1/1 INDUSTRY LANE, COBURG",-37.7369442,144.9699153,1.0,1.0,1,$340_per_week,none,August 2010,3058,2010,8,COBURG,340,Other
7695,"1/1 INDUSTRY LANE, COBURG",-37.7369442,144.9699153,1.0,1.0,1,$355_per_week,none,July 2010,3058,2010,7,COBURG,355,Other
7730,"304/19 PENTRIDGE BOULEVARD, COBURG",-37.738903,144.970583,1.0,1.0,1,$330_pw,Available Now,September 2010,3058,2010,9,COBURG,330,Other
7758,"407/19 PENTRIDGE BLVD, COBURG",-37.738903,144.970583,2.0,1.0,1,$340_p.w.,Rental_residential,August 2010,3058,2010,8,COBURG,340,Other
7794,"2/115 HARDING STREET, COBURG",-37.746057,144.977021,2.0,1.0,1,$340_pw,none,April 2010,3058,2010,4,COBURG,340,Other
7815,"3/170 GORDON STREET, COBURG",-37.742134,144.94979,2.0,1.0,1,$350_pw,none,August 2010,3058,2010,8,COBURG,350,Other
7827,"3/22 CHAMBERS STREET, COBURG",-37.747267,144.96884,2.0,1.0,1,$330,none,October 2010,3058,2010,10,COBURG,330,Other
7836,"1 DARE STREET, COBURG",-37.749962,144.96728,3.0,3.0,2,$420_pw,none,September 2010,3058,2010,9,COBURG,420,Other
7866,"25A FISCHER STREET, COBURG",-37.734543,144.953756,2.0,1.0,1,$350_p.w.,Rental_residential,November 2010,3058,2010,11,COBURG,350,Other
7915,"4 FARM ROAD, COBURG",-37.736096,144.971437,4.0,2.0,3,$495_pw,Available Now,September 2010,3058,2010,9,COBURG,495,Other
7922,"18/2 ALICE STREET, COBURG",-37.743803,144.957178,2.0,1.0,1,$290_pw,none,March 2010,3058,2010,3,COBURG,290,Other
7923,"18/2 ALICE STREET, COBURG",-37.743803,144.957178,2.0,1.0,1,$320_pw,none,February 2010,3058,2010,2,COBURG,320,Other
7994,"1 HAVEN COURT, COCKATOO",-37.948073,145.496363,2.0,1.0,2,$260_per_week,House,October 2010,3781,2010,10,COCKATOO,260,House
8046,"2 BELGRAVE AVENUE, COCKATOO",-37.92732,145.495818,4.0,2.0,6,$300_pw,Rental_residential,February 2010,3781,2010,2,COCKATOO,300,Other
8114,"18 CARAWA STREET, COCKATOO",-37.926109,145.49772,3.0,2.0,1,$260_per_week,Rental_residential,June 2010,3781,2010,6,COCKATOO,260,Other
8117,"11 ACLARE STREET, COCKATOO",-37.950754,145.509465,3.0,1.0,2,$270,House,February 2010,3781,2010,2,COCKATOO,270,House
45,"35 MARKET STREET, COHUNA",-35.812621,144.22028,4.0,2.0,2,$140_pw,House,September 2010,3568,2010,9,COHUNA,140,House
71,"151 KING GEORGE STREET, COHUNA",-35.802147,144.215476,3.0,1.0,1,$165_pw,House,May 2010,3568,2010,5,COHUNA,165,House
78,"94 CHANNEL STREET, COHUNA",-35.804436,144.214723,2.0,1.0,1,$140_pw,House,October 2010,3568,2010,10,COHUNA,140,House
89,"352 COIMADAI DIGGERS REST ROAD, COIMADAI",-37.6201439,144.5063489,4.0,3.0,4,$500_p.w.,House,December 2010,3340,2010,12,COIMADAI,500,House
90,"352 COIMADAI DIGGERS REST ROAD, COIMADAI",-37.6201439,144.5063489,4.0,3.0,4,$450_per_week,House,August 2010,3340,2010,8,COIMADAI,450,House
108,"80 DRAPERS ROAD, COLAC EAST",-38.3319866,143.6261362,3.0,1.0,2,$240_pw,House,September 2010,3250,2010,9,EAST,240,House
111,"10 FLAXMILL ROAD, COLAC EAST",-38.327462,143.618703,4.0,2.0,0,$320_pw,House,February 2010,3250,2010,2,EAST,320,House
114,"53 POLLACK STREET, COLAC WEST",-38.335818,143.591217,3.0,1.0,2,$200_pw,House,August 2010,3250,2010,8,WEST,200,House
154,"1/42A MANIFOLD STREET, COLAC",-38.33727,143.58236,2.0,1.0,1,$240_pw,none,June 2010,3250,2010,6,COLAC,240,Other
221,"102 QUEEN STREET, COLAC",-38.344296,143.592366,2.0,1.0,1,$185_pw,Townhouse,July 2010,3250,2010,7,COLAC,185,House
281,"LOT 4 BURGE COURT, COLBINABBIN",-36.591533,144.795291,3.0,1.0,1,$180_p.w.,House,September 2010,3559,2010,9,COLBINABBIN,180,House
340,"18 CHEVIOT AVENUE, COLDSTREAM",-37.728222,145.384468,3.0,1.0,1,$310_pw,House,November 2010,3770,2010,11,COLDSTREAM,310,House
341,"18 CHEVIOT AVENUE, COLDSTREAM",-37.728222,145.384468,3.0,1.0,1,$300_pw,House,April 2010,3770,2010,4,COLDSTREAM,300,House
516,"1166 BOONOONAR ROAD, COLIGNAN",-34.546283,142.334486,3.0,1.0,2,$180_pw,none,October 2010,3494,2010,10,COLIGNAN,180,Other
548,"129 SACKVILLE STREET, COLLINGWOOD",-37.79908,144.991078,2.0,1.0,0,$450_pw,Rental_residential,July 2010,3066,2010,7,COLLINGWOOD,450,Other
571,"42 BALLARAT STREET, COLLINGWOOD",-37.795156,144.990856,2.0,1.0,0,$440_pw,Rental_residential,August 2010,3066,2010,8,COLLINGWOOD,440,Other
630,"136 RUPERT STREET, COLLINGWOOD",-37.803877,144.989676,2.0,1.0,0,$430_per_week,none,October 2010,3066,2010,10,COLLINGWOOD,430,Other
631,"136 RUPERT STREET, COLLINGWOOD",-37.803877,144.989676,2.0,1.0,0,$480_per_week,none,February 2010,3066,2010,2,COLLINGWOOD,480,Other
707,"5/15-17 BENDIGO STREET, COLLINGWOOD",-37.796087,144.992632,1.0,1.0,1,$265_pw,Rental_residential,June 2010,3066,2010,6,COLLINGWOOD,265,Other
752,"14/34 SMITH STREET, COLLINGWOOD",-37.8072953,144.9828207,1.0,1.0,1,$365_pw,Rental_residential,July 2010,3066,2010,7,COLLINGWOOD,365,Other
801,"9/1 PEEL STREET, COLLINGWOOD",-37.805201,144.983757,1.0,1.0,1,$345_pw,Rental_residential,April 2010,3066,2010,4,COLLINGWOOD,345,Other
805,"2 OTTER STREET, COLLINGWOOD",-37.800579,144.984424,1.0,1.0,0,$360_-_$1560_pw,House,June 2010,3066,2010,6,COLLINGWOOD,1560,House
859,"321 WELLINGTON STREET, COLLINGWOOD",-37.795446,144.987781,2.0,1.0,0,$395_pw,none,February 2010,3066,2010,2,COLLINGWOOD,395,Other
1170,"1/1 PEEL STREET, COLLINGWOOD",-37.8050584,144.9837832,1.0,1.0,1,$390,Rental_residential,October 2010,3066,2010,10,COLLINGWOOD,390,Other
1171,"1/1 PEEL STREET, COLLINGWOOD",-37.8050584,144.9837832,1.0,1.0,1,$390_pw,Rental_residential,April 2010,3066,2010,4,COLLINGWOOD,390,Other
1242,"8/78 OXFORD STREET, COLLINGWOOD",-37.803368,144.985101,1.0,1.0,1,$370_per_week,Unit,November 2010,3066,2010,11,COLLINGWOOD,370,Apartment
1264,"15/99 OXFORD STREET, COLLINGWOOD",-37.80752,144.983944,1.0,1.0,1,$360_per_week,Unit,September 2010,3066,2010,9,COLLINGWOOD,360,Apartment
1275,"55 GIPPS STREET, COLLINGWOOD",-37.804818,144.988822,2.0,1.0,1,$450_per_week,House,April 2010,3066,2010,4,COLLINGWOOD,450,House
1333,"162 KEELE STREET, COLLINGWOOD",-37.79749,144.992525,2.0,1.0,0,$475,House,December 2010,3066,2010,12,COLLINGWOOD,475,House
1343,"506/103-107 OXFORD STREET, COLLINGWOOD",-37.80316,144.984807,2.0,1.0,1,$495_pw,Rental_residential,July 2010,3066,2010,7,COLLINGWOOD,495,Other
1409,"3/20 BEDFORD STREET, COLLINGWOOD",-37.800633,144.984904,2.0,1.0,1,$495_pw,none,February 2010,3066,2010,2,COLLINGWOOD,495,Other
1615,"6/15-25 OXFORD STREET, COLLINGWOOD",-37.807803,144.984175,2.0,1.0,1,$460_pw,none,October 2010,3066,2010,10,COLLINGWOOD,460,Other
1616,"6/15-25 OXFORD STREET, COLLINGWOOD",-37.807803,144.984175,2.0,1.0,1,$460_pw,none,September 2010,3066,2010,9,COLLINGWOOD,460,Other
1629,"9/109 OXFORD STREET, COLLINGWOOD",-37.802889,144.984737,2.0,1.0,1,$460_pw,none,February 2010,3066,2010,2,COLLINGWOOD,460,Other
1641,"2/9-11 OTTER STREET, COLLINGWOOD",-37.800996,144.985087,2.0,1.0,1,$360_-_$1560_pw,Rental_residential,December 2010,3066,2010,12,COLLINGWOOD,1560,Other
1672,"33 MCLEODS ROAD, CONDAH",-37.949464,141.754979,3.0,1.0,2,$170_per_week,none,December 2010,3303,2010,12,CONDAH,170,Other
1700,"235 KNIGHTS ROAD, CONGUPNA",-36.323892,145.458638,3.0,1.0,1,$210_pw,none,February 2010,3633,2010,2,CONGUPNA,210,Other
1717,"610 GRAHAMVALE ROAD, CONGUPNA",-36.309451,145.432335,3.0,1.0,2,$180_pw,House,January 2010,3633,2010,1,CONGUPNA,180,House
1718,"70 TANK CORNER ROAD, CONGUPNA",-36.30165,145.43311,3.0,1.0,1,$170_per_week,none,December 2010,3633,2010,12,CONGUPNA,170,Other
1722,"3593 KATAMATITE ROAD, CONGUPNA",-36.300179,145.434519,4.0,1.0,2,$250_per_week,none,September 2010,3633,2010,9,CONGUPNA,250,Other
1723,"3593 KATAMATITE ROAD, CONGUPNA",-36.300179,145.434519,4.0,1.0,2,$250_pw,none,August 2010,3633,2010,8,CONGUPNA,250,Other
1726,"755 LEMNOS NORTH ROAD, CONGUPNA",-36.297128,145.464944,4.0,2.0,1,$360_pw,House,September 2010,3633,2010,9,CONGUPNA,360,House
1727,"520 GOULBURN VALLEY HIGHWAY, CONGUPNA",-36.297923,145.431809,5.0,2.0,1,$420_pw,House,July 2010,3633,2010,7,CONGUPNA,420,House
1828,"9A WESTMERE CRESCENT, COOLAROO",-37.664659,144.93586,1.0,1.0,1,$220_per_week,Unit,August 2010,3048,2010,8,COOLAROO,220,Apartment
1829,"9A WESTMERE CRESCENT, COOLAROO",-37.664659,144.93586,1.0,1.0,1,$195_per_week,Unit,May 2010,3048,2010,5,COOLAROO,195,Apartment
1965,"6 LOVAT COURT, COOLAROO",-37.654336,144.930513,3.0,1.0,2,$260_pw,Rental_residential,April 2010,3048,2010,4,COOLAROO,260,Other
1978,"44 LONGFORD CRESCENT, COOLAROO",-37.661346,144.92736,3.0,1.0,1,$290_per_week,House,October 2010,3048,2010,10,COOLAROO,290,House
1999,"18 MOYNE CRESCENT, COOLAROO",-37.656359,144.930264,3.0,1.0,1,$280_per_week,House,November 2010,3048,2010,11,COOLAROO,280,House
2277,"3 LOFTY COURT, CORIO",-38.070837,144.370725,3.0,1.0,1,$215_pw,none,October 2010,3214,2010,10,CORIO,215,Other
2278,"3 LOFTY COURT, CORIO",-38.070837,144.370725,3.0,1.0,1,$215_p.w.,none,September 2010,3214,2010,9,CORIO,215,Other
2279,"3 LOFTY COURT, CORIO",-38.070837,144.370725,3.0,1.0,1,$215_p.w.,none,August 2010,3214,2010,8,CORIO,215,Other
2322,"59 CLOVERDALE DRIVE, CORIO",-38.067956,144.347957,4.0,2.0,2,$350,House,January 2010,3214,2010,1,CORIO,350,House
2442,"124 PLANTATION ROAD, CORIO",-38.067161,144.362963,3.0,2.0,2,$270,none,January 2010,3214,2010,1,CORIO,270,Other
2454,"5 VERMONT AVENUE, CORIO",-38.082459,144.357115,2.0,1.0,1,$210_per_week,none,March 2010,3214,2010,3,CORIO,210,Other
2464,"14 CORANGAMITE DRIVE, CORIO",-38.067773,144.34357,4.0,1.0,2,$270,House,June 2010,3214,2010,6,CORIO,270,House
2476,"89 COLORADO DRIVE, CORIO",-38.078145,144.350478,3.0,1.0,1,$190,House,September 2010,3214,2010,9,CORIO,190,House
2491,"25 QUEBEC AVENUE, CORIO",-38.078008,144.360939,3.0,1.0,4,$250_pw,House,July 2010,3214,2010,7,CORIO,250,House
2554,"3/8-9 FIELDMAN COURT, CORIO",-38.068974,144.350346,2.0,1.0,1,$230_pw,none,January 2010,3214,2010,1,CORIO,230,Other
2779,"182 LARPENT ROAD, COROROOKE",-38.285258,143.504604,1.0,1.0,1,$130_pw,House,April 2010,3254,2010,4,COROROOKE,130,House
2960,"10 OUTLOOK DRIVE, COWES",-38.456911,145.205001,4.0,1.0,2,$280,House,May 2010,3922,2010,5,COWES,280,House
2970,"31 OUTLOOK DRIVE, COWES",-38.457133,145.202724,4.0,2.0,0,$430_p.w.,House,July 2010,3922,2010,7,COWES,430,House
2971,"31 OUTLOOK DRIVE, COWES",-38.457133,145.202724,4.0,2.0,0,$430_p.w.,House,May 2010,3922,2010,5,COWES,430,House
3031,"1/96-100 THOMPSON AVENUE, COWES",-38.451396,145.238254,2.0,2.0,1,$190,Unit,August 2010,3922,2010,8,COWES,190,Apartment
3176,"1/30 WYNDHAM AVENUE, COWES",-38.455184,145.233564,2.0,1.0,1,$220_per_week,House,August 2010,3922,2010,8,COWES,220,House
3255,"57 REDWOOD DRIVE, COWES",-38.462887,145.241769,3.0,2.0,2,$350_p.w.,House,February 2010,3922,2010,2,COWES,350,House
3274,"13 ROYDON ROAD, COWES",-38.453742,145.232441,2.0,1.0,0,$255_per_week,House,December 2010,3922,2010,12,COWES,255,House
3371,"4/35 CHAPEL STREET, COWES",-38.450944,145.24391,2.0,1.0,1,$205,Rental_residential,July 2010,3922,2010,7,COWES,205,Other
3400,"2/64 JUSTICE ROAD, COWES",-38.4557179,145.2106686,3.0,2.0,2,$330,Townhouse,August 2010,3922,2010,8,COWES,330,House
3401,"2/64 JUSTICE ROAD, COWES",-38.4557179,145.2106686,3.0,2.0,2,$330_per_week,Townhouse,June 2010,3922,2010,6,COWES,330,House
3573,"15 CRICKET ST, COWWARR",-38.0125485,146.6979245,3.0,1.0,0,$270_Weekly,House,February 2010,3857,2010,2,COWWARR,270,House
3603,"2 ELWOOD COURT, CRAIGIE",-31.78481,115.76898,3.0,1.0,0,$365_per_week,House,September 2010,3465,2010,9,CRAIGIE,365,House
3647,"22 FLAGSTAFF LOOP, CRAIGIEBURN",-37.584694,144.939183,3.0,2.0,2,$340_per_week,House,August 2010,3064,2010,8,CRAIGIEBURN,340,House
3987,"8 BRECON NOOK, CRAIGIEBURN",-37.608906,144.924308,3.0,1.0,0,$265_p.w.,House,November 2010,3064,2010,11,CRAIGIEBURN,265,House
4012,"274 WATERVIEW BOULEVARD, CRAIGIEBURN",-37.582363,144.907861,4.0,2.0,2,$390,House,December 2010,3064,2010,12,CRAIGIEBURN,390,House
4261,"33 PRINCES CIRCUIT, CRAIGIEBURN",-37.584038,144.936392,3.0,2.0,2,$365_p.w.,House,May 2010,3064,2010,5,CRAIGIEBURN,365,House
4414,"22 DAN MORGAN DRIVE, CRANBOURNE EAST",-38.099713,145.318784,4.0,2.0,2,$380_per_week,House,July 2010,3977,2010,7,EAST,380,House
4711,"11 BEECHTREE WAY, CRANBOURNE NORTH",-38.083203,145.318652,4.0,2.0,2,$340,House,November 2010,3977,2010,11,NORTH,340,House
4774,"4/20 HUON PARK ROAD, CRANBOURNE NORTH",-38.074527,145.27318,3.0,2.0,2,$310,none,September 2010,3977,2010,9,NORTH,310,Other
4775,"4/20 HUON PARK ROAD, CRANBOURNE NORTH",-38.074527,145.27318,3.0,2.0,2,$310,none,August 2010,3977,2010,8,NORTH,310,Other
4776,"4/20 HUON PARK ROAD, CRANBOURNE NORTH",-38.074527,145.27318,3.0,2.0,2,$310_pw,none,July 2010,3977,2010,7,NORTH,310,Other
4842,"12 ISLINGTON AVENUE, CRANBOURNE NORTH",-38.069538,145.289037,4.0,2.0,2,$360_pw,House,November 2010,3977,2010,11,NORTH,360,House
4867,"27 ELIZA STREET, CRANBOURNE NORTH",-38.07808763,145.28925138,3.0,1.0,1,$280_per_week,House,October 2010,3977,2010,10,NORTH,280,House
4890,"20 COURTENAY AVENUE, CRANBOURNE NORTH",-38.077896,145.27619,3.0,1.0,1,$290,House,October 2010,3977,2010,10,NORTH,290,House
4891,"20 COURTENAY AVENUE, CRANBOURNE NORTH",-38.077896,145.27619,3.0,1.0,1,$280,House,August 2010,3977,2010,8,NORTH,280,House
5010,"590 CRANBOURNE FRANKSTON ROAD, CRANBOURNE SOUTH",-38.133811,145.229305,4.0,2.0,4,$360_Weekly,Available Now,December 2010,3977,2010,12,SOUTH,360,Other
5133,"10 NERRENA RISE, CRANBOURNE WEST",-38.096508,145.259518,3.0,2.0,2,$340,House,December 2010,3977,2010,12,WEST,340,House
5172,"28 SCOTT STREET, CRANBOURNE",-38.109806,145.280379,3.0,1.0,2,$250_per_week,none,March 2010,3977,2010,3,CRANBOURNE,250,Other
5268,"27 PEPPERBUSH CIRCUIT, CRANBOURNE",-38.086679,145.281677,4.0,2.0,2,$310,House,February 2010,3977,2010,2,CRANBOURNE,310,House
5344,"19 THOMAS CRESCENT, CRANBOURNE",-38.106523,145.270989,3.0,1.0,1,$270,House,March 2010,3977,2010,3,CRANBOURNE,270,House
5378,"23 LAMONT CRESCENT, CRANBOURNE",-38.099023,145.270836,3.0,1.0,1,$280_Weekly,House,August 2010,3977,2010,8,CRANBOURNE,280,House
5408,"2/36 VIRGINIA STREET, CRANBOURNE",-38.094064,145.274541,3.0,2.0,1,$280_per_week,Unit,April 2010,3977,2010,4,CRANBOURNE,280,Apartment
5473,"19 JILLIAN STREET, CRANBOURNE",-38.107651,145.274156,3.0,1.0,1,$300_per_week,Rental_residential,August 2010,3977,2010,8,CRANBOURNE,300,Other
5538,"8 CANTERBURY STREET, CRANBOURNE",-38.100922,145.285479,3.0,2.0,2,$330_per_week,House,November 2010,3977,2010,11,CRANBOURNE,330,House
5897,"2 PEPPERBUSH CIRCUIT, CRANBOURNE",-38.086034,145.283276,4.0,2.0,2,$350_p.w.,House,November 2010,3977,2010,11,CRANBOURNE,350,House
260,"4 BLAXLAND STREET, BURNSIDE HEIGHTS",-37.73260444,144.76011929,3.0,3.0,2,$350_per_week,House,September 2010,3023,2010,9,HEIGHTS,350,House
332,"25 BELLEVILLE CLOSE, BURNSIDE HEIGHTS",-37.72466778,144.75340716,3.0,2.0,2,$310_per_week,House,December 2010,3023,2010,12,HEIGHTS,310,House
350,"2 FLORIDA COURT, BURNSIDE HEIGHTS",-37.7357208,144.75009035,3.0,2.0,2,$350_per_week,House,December 2010,3023,2010,12,HEIGHTS,350,House
418,"15 WYLIE CIRCUIT, BURNSIDE HEIGHTS",-37.73201578,144.75406918,4.0,2.0,2,$350_per_week,House,October 2010,3023,2010,10,HEIGHTS,350,House
503,"3 SAVIOUR ROAD, BURNSIDE HEIGHTS",-37.7263099,144.7571593,3.0,2.0,1,$385_per_week,none,October 2010,3023,2010,10,HEIGHTS,385,Other
1122,"3 GOULD PLACE, BURNSIDE",-37.751245,144.749376,3.0,1.0,1,$300_p.w.,none,November 2010,3023,2010,11,BURNSIDE,300,Other
1385,"97 BURWOOD HIGHWAY, BURWOOD EAST",-37.850939,145.140001,3.0,1.0,2,$350,House,January 2010,3151,2010,1,EAST,350,House
1451,"25 DOROTHY STREET, BURWOOD EAST",-37.854663,145.145829,3.0,1.0,1,$350,House,January 2010,3151,2010,1,EAST,350,House
1480,"295 BLACKBURN ROAD, BURWOOD EAST",-37.846728,145.153585,4.0,2.0,2,$410_pw,House,January 2010,3151,2010,1,EAST,410,House
1481,"295 BLACKBURN ROAD, BURWOOD EAST",-37.846728,145.153585,4.0,2.0,2,$430_pw,House,January 2010,3151,2010,1,EAST,430,House
1509,"75 SEVENOAKS ROAD, BURWOOD EAST",-37.858463,145.155964,3.0,1.0,1,$430,House,January 2010,3151,2010,1,EAST,430,House
1523,"15 MOONA STREET, BURWOOD EAST",-37.852733,145.138887,3.0,1.0,2,$350_per_week,House,July 2010,3151,2010,7,EAST,350,House
1728,"48 ROBINLEE AVENUE, BURWOOD EAST",-37.849451,145.158313,3.0,1.0,2,$395_p.w.,House,July 2010,3151,2010,7,EAST,395,House
1758,"68A ROSLYN STREET, BURWOOD",-37.845154,145.103348,1.0,1.0,1,$220,none,June 2010,3125,2010,6,BURWOOD,220,Other
2124,"58 ROSLYN STREET, BURWOOD",-37.845828,145.103217,4.0,1.0,2,$450_pw,none,December 2010,3125,2010,12,BURWOOD,450,Other
2210,"80 PARER STREET, BURWOOD",-37.844473,145.104706,3.0,2.0,2,$430_p.w.,none,July 2010,3125,2010,7,BURWOOD,430,Other
2211,"80 PARER STREET, BURWOOD",-37.844473,145.104706,3.0,2.0,2,$465_per_week,none,February 2010,3125,2010,2,BURWOOD,465,Other
2263,"17 CROMWELL STREET, BURWOOD",-37.85218,145.105285,3.0,1.0,2,$450_p.w.,House,June 2010,3125,2010,6,BURWOOD,450,House
2264,"17 CROMWELL STREET, BURWOOD",-37.85218,145.105285,3.0,1.0,2,$470,House,May 2010,3125,2010,5,BURWOOD,470,House
2310,"1/2 FINCH STREET, BURWOOD",-37.851738,145.12391,3.0,2.0,2,$550,Townhouse,December 2010,3125,2010,12,BURWOOD,550,House
2350,"2/365 BURWOOD HIGHWAY, BURWOOD",-37.851292,145.128462,4.0,2.0,2,$550,Townhouse,July 2010,3125,2010,7,BURWOOD,550,House
2473,"2A RENOWN STREET, BURWOOD",-37.851639,145.122251,3.0,2.0,1,$400_per_week,House,November 2010,3125,2010,11,BURWOOD,400,House
2480,"17 STEPHENS STREET, BURWOOD",-37.856717,145.108984,2.0,1.0,2,$335_per_week,House,September 2010,3125,2010,9,BURWOOD,335,House
2533,"1/8 RENOWN STREET, BURWOOD",-37.852163,145.12234,4.0,2.0,2,$560_per_week,Townhouse,May 2010,3125,2010,5,BURWOOD,560,House
2608,"7 HUGHES STREET, BURWOOD",-37.852023,145.1079,3.0,1.0,1,$325_per_week,House,June 2010,3125,2010,6,BURWOOD,325,House
2609,"7 HUGHES STREET, BURWOOD",-37.852023,145.1079,3.0,1.0,1,$370_pw,House,April 2010,3125,2010,4,BURWOOD,370,House
2706,"15 CUMMING STREET, BURWOOD",-37.851446,145.11354,3.0,1.0,2,$395,House,November 2010,3125,2010,11,BURWOOD,395,House
2707,"15 CUMMING STREET, BURWOOD",-37.851446,145.11354,3.0,1.0,2,$400,House,October 2010,3125,2010,10,BURWOOD,400,House
2708,"15 CUMMING STREET, BURWOOD",-37.851446,145.11354,3.0,1.0,2,$400,House,September 2010,3125,2010,9,BURWOOD,400,House
3066,"15 GILLIESTON ROAD, BYRNESIDE",-36.4167807,145.1864301,4.0,1.0,2,$300_pw,none,April 2010,3617,2010,4,BYRNESIDE,300,Other
3096,"72 DYAR AVENUE, CABARITA",-34.2121384,142.0901623,3.0,2.0,2,$375,none,September 2010,3505,2010,9,CABARITA,375,Other
3131,"112 CAIRNLEA DRIVE, CAIRNLEA",-37.76025238,144.78999346,4.0,3.0,2,$1560_pw,Townhouse,June 2010,3023,2010,6,CAIRNLEA,1560,House
3320,"24 ALIZA AVENUE, CALIFORNIA GULLY",-36.722933,144.271314,4.0,2.0,2,$310_pw,none,January 2010,3556,2010,1,GULLY,310,Other
3324,"2/10 PEARCE STREET, CALIFORNIA GULLY",-36.730891,144.26618,3.0,1.0,1,$180_per_week,House,April 2010,3556,2010,4,GULLY,180,House
3530,"1/3 HALLEY AVENUE, CAMBERWELL",-37.846282,145.069709,3.0,2.0,2,$470_pw,none,July 2010,3124,2010,7,CAMBERWELL,470,Other
3531,"1/3 HALLEY AVENUE, CAMBERWELL",-37.846282,145.069709,3.0,2.0,2,$525_pw,none,May 2010,3124,2010,5,CAMBERWELL,525,Other
3648,"4 SEYMOUR GROVE, CAMBERWELL",-37.835861,145.060622,5.0,3.0,3,$900_p.w.,none,August 2010,3124,2010,8,CAMBERWELL,900,Other
3649,"4 SEYMOUR GROVE, CAMBERWELL",-37.835861,145.060622,5.0,3.0,3,$1000_p.w.,none,August 2010,3124,2010,8,CAMBERWELL,1000,Other
3650,"4 SEYMOUR GROVE, CAMBERWELL",-37.835861,145.060622,5.0,3.0,3,$1100_p.w.,none,August 2010,3124,2010,8,CAMBERWELL,1100,Other
3685,"2/68 BRINSLEY ROAD, CAMBERWELL",-37.831576,145.067995,2.0,1.0,1,$370_pw,none,March 2010,3124,2010,3,CAMBERWELL,370,Other
3690,"252 HIGHFIELD ROAD, CAMBERWELL",-37.848314,145.082571,3.0,2.0,3,$680_per_week,House,November 2010,3124,2010,11,CAMBERWELL,680,House
3738,"6/24 ALLAMBEE AVENUE, CAMBERWELL",-37.835011,145.07699,2.0,1.0,1,$420_per_week,none,September 2010,3124,2010,9,CAMBERWELL,420,Other
3739,"6/24 ALLAMBEE AVENUE, CAMBERWELL",-37.835011,145.07699,2.0,1.0,1,$420_per_week,none,January 2010,3124,2010,1,CAMBERWELL,420,Other
3773,"8 MOORHOUSE STREET, CAMBERWELL",-37.826854,145.067539,4.0,3.0,3,$1200_pw,Available Now,July 2010,3124,2010,7,CAMBERWELL,1200,Other
3848,"2/233 HIGHFIELD ROAD, CAMBERWELL",-37.8466,145.082064,3.0,2.0,1,$600_per_week,none,September 2010,3124,2010,9,CAMBERWELL,600,Other
3883,"41 CHRISTOWEL STREET, CAMBERWELL",-37.83778,145.067185,4.0,2.0,3,$950_pw,none,April 2010,3124,2010,4,CAMBERWELL,950,Other
3889,"43 BELLETT STREET, CAMBERWELL",-37.835812,145.066418,3.0,2.0,3,$650_pw,none,May 2010,3124,2010,5,CAMBERWELL,650,Other
3922,"18 NETHERWAY STREET, CAMBERWELL",-37.842058,145.08912,3.0,2.0,1,$450,House,December 2010,3124,2010,12,CAMBERWELL,450,House
4073,"16/700 RIVERSDALE ROAD, CAMBERWELL",-37.83425,145.074497,3.0,1.0,1,$450_pw,House,October 2010,3124,2010,10,CAMBERWELL,450,House
4074,"16/700 RIVERSDALE ROAD, CAMBERWELL",-37.83425,145.074497,3.0,1.0,1,$480_per_week,House,October 2010,3124,2010,10,CAMBERWELL,480,House
4104,"62A CHRISTOWEL STREET, CAMBERWELL",-37.839021,145.066556,3.0,1.0,1,$575_per_week,House,October 2010,3124,2010,10,CAMBERWELL,575,House
4105,"62A CHRISTOWEL STREET, CAMBERWELL",-37.839021,145.066556,3.0,1.0,1,$575_per_week,House,September 2010,3124,2010,9,CAMBERWELL,575,House
4114,"1/31 HIGH ROAD, CAMBERWELL",-37.842785,145.057707,3.0,2.0,2,$520_pw,House,December 2010,3124,2010,12,CAMBERWELL,520,House
4115,"1/31 HIGH ROAD, CAMBERWELL",-37.842785,145.057707,3.0,2.0,2,$520_pw,House,March 2010,3124,2010,3,CAMBERWELL,520,House
4196,"10A JUDD STREET, CAMBERWELL",-37.836455,145.064137,2.0,1.0,1,$480,Rental_residential,October 2010,3124,2010,10,CAMBERWELL,480,Other
4261,"1/911 TOORAK ROAD, CAMBERWELL",-37.845911,145.057483,4.0,3.0,2,$985,Townhouse,November 2010,3124,2010,11,CAMBERWELL,985,House
4272,"39 LYNDEN STREET, CAMBERWELL",-37.840895,145.086331,6.0,2.0,2,$800,Rental_residential,May 2010,3124,2010,5,CAMBERWELL,800,Other
4273,"39 LYNDEN STREET, CAMBERWELL",-37.840895,145.086331,6.0,2.0,2,$800_pw,Rental_residential,February 2010,3124,2010,2,CAMBERWELL,800,Other
4353,"3/17 GARDEN ROAD, CAMBERWELL",-37.843659,145.091424,2.0,1.0,1,$300,Rental_residential,July 2010,3124,2010,7,CAMBERWELL,300,Other
4406,"2/28 ALLAMBEE AVENUE, CAMBERWELL",-37.835228,145.077317,2.0,1.0,1,$360_pw,Rental_residential,September 2010,3124,2010,9,CAMBERWELL,360,Other
36,"500 FLINDERS STREET, MELBOURNE",-37.820019,144.957827,1.0,1.0,0,$230_pw,Available Now,March 2010,3000,2010,3,MELBOURNE,230,Other
109,"1711/668 BOURKE STREET, MELBOURNE",-37.816897,144.953675,3.0,2.0,2,$660_pw,Available Now,April 2010,3000,2010,4,MELBOURNE,660,Other
211,"909/565 FLINDERS STREET, MELBOURNE",-37.821127,144.955764,2.0,2.0,1,$2470,none,September 2010,3000,2010,9,MELBOURNE,2470,Other
276,"603/8 EXPLORATION LANE, MELBOURNE",-37.8092558,144.9683848,2.0,2.0,0,$480,Available Now,October 2010,3000,2010,10,MELBOURNE,480,Other
311,"1110/22-24 JANE BELL LANE, MELBOURNE",-37.81022,144.966265,1.0,1.0,1,$400_pw,none,October 2010,3000,2010,10,MELBOURNE,400,Other
333,"124/546 FLINDERS STREET, MELBOURNE",-37.820521,144.956143,1.0,1.0,0,$240_p.w.,none,November 2010,3000,2010,11,MELBOURNE,240,Other
334,"124/546 FLINDERS STREET, MELBOURNE",-37.820521,144.956143,1.0,1.0,0,$250_pw,none,November 2010,3000,2010,11,MELBOURNE,250,Other
354,"3305/483 SWANSTON STREET, MELBOURNE",-37.807218,144.962336,2.0,1.0,1,$550_pw,none,October 2010,3000,2010,10,MELBOURNE,550,Other
443,"1403/225 ELIZABETH STREET, MELBOURNE",-37.813122,144.962367,2.0,1.0,0,$500_pw,none,August 2010,3000,2010,8,MELBOURNE,500,Other
444,"1403/225 ELIZABETH STREET, MELBOURNE",-37.813122,144.962367,2.0,1.0,0,$540_pw,none,June 2010,3000,2010,6,MELBOURNE,540,Other
608,"2402/250 ELIZABETH STREET, MELBOURNE",-37.812679,144.962733,2.0,1.0,1,$600,Available Now,October 2010,3000,2010,10,MELBOURNE,600,Other
642,"605/455 ELIZABETH STREET, MELBOURNE",-37.808429,144.960206,2.0,1.0,0,$450_pw,none,June 2010,3000,2010,6,MELBOURNE,450,Other
656,"705/422 COLLINS STREET, MELBOURNE",-37.817217,144.96034,2.0,1.0,0,$450_pw,Available Now,March 2010,3000,2010,3,MELBOURNE,450,Other
657,"705/422 COLLINS STREET, MELBOURNE",-37.817217,144.96034,2.0,1.0,0,$400_Weekly,Available Now,March 2010,3000,2010,3,MELBOURNE,400,Other
734,"250 ELIZABETH STREET, MELBOURNE",-37.81278992,144.96253967,1.0,1.0,1,$480_Weekly,Available Now,December 2010,3000,2010,12,MELBOURNE,480,Other
735,"250 ELIZABETH STREET, MELBOURNE",-37.81278992,144.96253967,1.0,1.0,1,$470,Available Now,September 2010,3000,2010,9,MELBOURNE,470,Other
736,"250 ELIZABETH STREET, MELBOURNE",-37.81278992,144.96253967,1.0,1.0,1,$500_p.w.,Available Now,September 2010,3000,2010,9,MELBOURNE,500,Other
737,"250 ELIZABETH STREET, MELBOURNE",-37.81278992,144.96253967,1.0,1.0,1,$410_per_week,Available Now,July 2010,3000,2010,7,MELBOURNE,410,Other
738,"250 ELIZABETH STREET, MELBOURNE",-37.81278992,144.96253967,1.0,1.0,1,$420_per_week,Available Now,July 2010,3000,2010,7,MELBOURNE,420,Other
739,"250 ELIZABETH STREET, MELBOURNE",-37.81278992,144.96253967,1.0,1.0,1,$545_per_week,Available Now,July 2010,3000,2010,7,MELBOURNE,545,Other
740,"250 ELIZABETH STREET, MELBOURNE",-37.81278992,144.96253967,1.0,1.0,1,$400_per_week,Available Now,June 2010,3000,2010,6,MELBOURNE,400,Other
741,"250 ELIZABETH STREET, MELBOURNE",-37.81278992,144.96253967,1.0,1.0,1,$530_per_week,Available Now,June 2010,3000,2010,6,MELBOURNE,530,Other
742,"250 ELIZABETH STREET, MELBOURNE",-37.81278992,144.96253967,1.0,1.0,1,$400_pw,Available Now,May 2010,3000,2010,5,MELBOURNE,400,Other
743,"250 ELIZABETH STREET, MELBOURNE",-37.81278992,144.96253967,1.0,1.0,1,$420_pw,Available Now,May 2010,3000,2010,5,MELBOURNE,420,Other
744,"250 ELIZABETH STREET, MELBOURNE",-37.81278992,144.96253967,1.0,1.0,1,$475_pw,Available Now,April 2010,3000,2010,4,MELBOURNE,475,Other
745,"250 ELIZABETH STREET, MELBOURNE",-37.81278992,144.96253967,1.0,1.0,1,$525_pw,Available Now,April 2010,3000,2010,4,MELBOURNE,525,Other
746,"250 ELIZABETH STREET, MELBOURNE",-37.81278992,144.96253967,1.0,1.0,1,$500_pw,Available Now,February 2010,3000,2010,2,MELBOURNE,500,Other
747,"250 ELIZABETH STREET, MELBOURNE",-37.81278992,144.96253967,1.0,1.0,1,$530_pw,Available Now,February 2010,3000,2010,2,MELBOURNE,530,Other
748,"250 ELIZABETH STREET, MELBOURNE",-37.81278992,144.96253967,1.0,1.0,1,$520_pw,Available Now,February 2010,3000,2010,2,MELBOURNE,520,Other
749,"250 ELIZABETH STREET, MELBOURNE",-37.81278992,144.96253967,1.0,1.0,1,$420_pw,Available Now,January 2010,3000,2010,1,MELBOURNE,420,Other
750,"250 ELIZABETH STREET, MELBOURNE",-37.81278992,144.96253967,1.0,1.0,1,$525_pw,Available Now,January 2010,3000,2010,1,MELBOURNE,525,Other
751,"250 ELIZABETH STREET, MELBOURNE",-37.81278992,144.96253967,1.0,1.0,1,$520_pw,Available Now,January 2010,3000,2010,1,MELBOURNE,520,Other
752,"250 ELIZABETH STREET, MELBOURNE",-37.81278992,144.96253967,1.0,1.0,1,$410_pw,Available Now,January 2010,3000,2010,1,MELBOURNE,410,Other
753,"250 ELIZABETH STREET, MELBOURNE",-37.81278992,144.96253967,1.0,1.0,1,$400_pw,Available Now,January 2010,3000,2010,1,MELBOURNE,400,Other
794,"603/25-33 WILLS STREET, MELBOURNE",-37.810743,144.956997,1.0,1.0,0,$390,Available Now,November 2010,3000,2010,11,MELBOURNE,390,Other
795,"603/25-33 WILLS STREET, MELBOURNE",-37.810743,144.956997,1.0,1.0,0,$400,Available Now,November 2010,3000,2010,11,MELBOURNE,400,Other
796,"603/25-33 WILLS STREET, MELBOURNE",-37.810743,144.956997,1.0,1.0,0,$400,Available Now,October 2010,3000,2010,10,MELBOURNE,400,Other
806,"6B/131 LONSDALE STREET, MELBOURNE",-37.810713,144.968409,1.0,1.0,0,$350,none,July 2010,3000,2010,7,MELBOURNE,350,Other
879,"200 SPENCER STREET, MELBOURNE",-37.81613541,144.95289612,2.0,2.0,1,$400_pw,none,April 2010,3000,2010,4,MELBOURNE,400,Other
880,"200 SPENCER STREET, MELBOURNE",-37.81613541,144.95289612,2.0,2.0,1,$450_pw,none,February 2010,3000,2010,2,MELBOURNE,450,Other
913,"812/29-31 MARKET STREET, MELBOURNE",-37.818652,144.960479,2.0,2.0,0,$550_pw,Available Now,November 2010,3000,2010,11,MELBOURNE,550,Other
1095,"2803/483 SWANSTON STREET, MELBOURNE",-37.807218,144.962336,2.0,1.0,0,$550_pw,none,February 2010,3000,2010,2,MELBOURNE,550,Other
1181,"1108/68 LA TROBE STREET, MELBOURNE",-37.809552,144.9617995,2.0,1.0,1,$500_per_week,none,November 2010,3000,2010,11,MELBOURNE,500,Other
1414,"10/17 QUEENS ROAD, MELBOURNE",-37.818427,144.9621,1.0,1.0,1,$360_per_week,none,July 2010,3000,2010,7,MELBOURNE,360,Other
1629,"3 WENTWORTH ROAD, MELTON SOUTH",-37.713127,144.568503,3.0,1.0,5,$220_per_week,House,January 2010,3338,2010,1,SOUTH,220,House
1679,"2 WILSON ROAD, MELTON SOUTH",-37.708944,144.57278,3.0,1.0,2,$240_Weekly,House,June 2010,3338,2010,6,SOUTH,240,House
1876,"11 LINCOLN WAY, MELTON WEST",-37.672746,144.558418,4.0,2.0,3,$265,House,September 2010,3337,2010,9,WEST,265,House
1929,"1 STATON CRESCENT, MELTON WEST",-37.681347,144.541885,4.0,2.0,4,$335_p.w.,House,September 2010,3337,2010,9,WEST,335,House
1930,"1 STATON CRESCENT, MELTON WEST",-37.681347,144.541885,4.0,2.0,4,$320,House,September 2010,3337,2010,9,WEST,320,House
2077,"1 JOAN STREET, MELTON",-37.687138,144.574592,3.0,1.0,4,$210_per_week,House,February 2010,3337,2010,2,MELTON,210,House
2078,"1 JOAN STREET, MELTON",-37.687138,144.574592,3.0,1.0,4,$210_per_week,House,January 2010,3337,2010,1,MELTON,210,House
2112,"9 WESTMILL VISTA, MELTON",-37.686721,144.555458,2.0,1.0,1,$230_per_week,House,January 2010,3337,2010,1,MELTON,230,House
2177,"5 ESSEX DRIVE, MELTON",-37.679341,144.586785,3.0,1.0,1,$250_per_week,Rental_residential,January 2010,3337,2010,1,MELTON,250,Other
2189,"32 LAKEWOOD BOULEVARD, MELTON",-37.690675,144.587912,3.0,2.0,2,$300_p.w.,House,May 2010,3337,2010,5,MELTON,300,House
2226,"80 LAKEWOOD BOULEVARD, MELTON",-37.6887863,144.588889,3.0,2.0,2,$260_per_week,House,July 2010,3337,2010,7,MELTON,260,House
2259,"27 MARINA DRIVE, MELTON",-37.677741,144.582131,3.0,1.0,1,$245_p.w.,House,May 2010,3337,2010,5,MELTON,245,House
2459,"8 HUDSON PLACE, MELTON",-37.678256,144.584394,3.0,1.0,2,$270_per_week,House,January 2010,3337,2010,1,MELTON,270,House
2489,"43 HENRY STREET, MELTON",-37.686111,144.58076,3.0,1.0,1,$255_per_week,House,August 2010,3337,2010,8,MELTON,255,House
2577,"56 BARRIES ROAD, MELTON",-37.688408,144.575932,3.0,2.0,1,$220_per_week,House,February 2010,3337,2010,2,MELTON,220,House
2578,"56 BARRIES ROAD, MELTON",-37.688408,144.575932,3.0,2.0,1,$220_per_week,House,January 2010,3337,2010,1,MELTON,220,House
2590,"3 CARINA DRIVE, MELTON",-37.682315,144.5689481,3.0,1.0,1,$235_p.w.,Available Now,July 2010,3337,2010,7,MELTON,235,Other
2781,"506 HIGH STREET, MELTON",-37.683826,144.569264,3.0,1.0,1,$240_per_week,House,December 2010,3337,2010,12,MELTON,240,House
2798,"23 PLOVER STREET, MELTON",-37.677741,144.573378,3.0,2.0,2,$210_Weekly,none,February 2010,3337,2010,2,MELTON,210,Other
2799,"23 PLOVER STREET, MELTON",-37.677741,144.573378,3.0,2.0,2,$210_pw,none,January 2010,3337,2010,1,MELTON,210,Other
2833,"21 QUAIL CRESCENT, MELTON",-37.679384,144.572241,4.0,1.0,1,$255_per_week,House,December 2010,3337,2010,12,MELTON,255,House
2853,"8 FALCON DRIVE, MELTON",-37.674332,144.575417,3.0,1.0,3,$210_pw,none,June 2010,3337,2010,6,MELTON,210,Other
2925,"13 JOAN STREET, MELTON",-37.68609,144.574467,3.0,1.0,2,$240_per_week,House,February 2010,3337,2010,2,MELTON,240,House
2950,"9/20-24 PALMERSTON STREET, MELTON",-37.688049,144.584038,3.0,1.0,1,$290_p.w.,Rental_residential,December 2010,3337,2010,12,MELTON,290,Other
3018,"49 TERN COURT, MELTON",-37.676632,144.571136,3.0,1.0,2,$250_per_week,House,January 2010,3337,2010,1,MELTON,250,House
3034,"495 BOGGY CREEK ROAD, MELWOOD",-37.746807,147.500503,3.0,1.0,3,$240_Weekly,none,July 2010,3875,2010,7,MELWOOD,240,Other
3035,"495 BOGGY CREEK ROAD, MELWOOD",-37.746807,147.500503,3.0,1.0,3,$190_Weekly,none,June 2010,3875,2010,6,MELWOOD,190,Other
3107,"29B SWANSTON STREET, MENTONE",-37.978348,145.065913,3.0,1.0,1,$470_pw,Available Now,November 2010,3194,2010,11,MENTONE,470,Other
3108,"29B SWANSTON STREET, MENTONE",-37.978348,145.065913,3.0,1.0,1,$470,Available Now,October 2010,3194,2010,10,MENTONE,470,Other
3109,"29B SWANSTON STREET, MENTONE",-37.978348,145.065913,3.0,1.0,1,$485_pw,Available Now,October 2010,3194,2010,10,MENTONE,485,Other
3110,"29B SWANSTON STREET, MENTONE",-37.978348,145.065913,3.0,1.0,1,$460_per_week,Available Now,April 2010,3194,2010,4,MENTONE,460,Other
3111,"29B SWANSTON STREET, MENTONE",-37.978348,145.065913,3.0,1.0,1,$420_per_week,Available Now,January 2010,3194,2010,1,MENTONE,420,Other
3223,"4/28 OLIVE GROVE, MENTONE",-37.984026,145.079586,2.0,1.0,1,$400_per_week,Rental_residential,July 2010,3194,2010,7,MENTONE,400,Other
3224,"4/28 OLIVE GROVE, MENTONE",-37.984026,145.079586,2.0,1.0,1,$450_per_week,Rental_residential,June 2010,3194,2010,6,MENTONE,450,Other
3225,"4/28 OLIVE GROVE, MENTONE",-37.984026,145.079586,2.0,1.0,1,$475_per_week,Rental_residential,June 2010,3194,2010,6,MENTONE,475,Other
3235,"1/7 PALERMO STREET, MENTONE",-37.990339,145.066493,2.0,1.0,1,$350_pw,Rental_residential,July 2010,3194,2010,7,MENTONE,350,Other
3263,"2/133 NEPEAN HIGHWAY, MENTONE",-37.981954,145.072334,3.0,1.0,1,$320_pw,none,March 2010,3194,2010,3,MENTONE,320,Other
3323,"14/70 BEACH ROAD, MENTONE",-37.988562,145.059898,2.0,1.0,1,$270_pw,Available Now,August 2010,3194,2010,8,MENTONE,270,Other
3324,"14/70 BEACH ROAD, MENTONE",-37.988562,145.059898,2.0,1.0,1,$270_pw,Available Now,July 2010,3194,2010,7,MENTONE,270,Other
3344,"5/14 VENICE STREET, MENTONE",-37.986091,145.061693,1.0,1.0,0,$250_per_week,none,October 2010,3194,2010,10,MENTONE,250,Other
3456,"1/56 BALCOMBE ROAD, MENTONE",-37.981442,145.067602,4.0,2.0,2,$495_per_week,Rental_residential,April 2010,3194,2010,4,MENTONE,495,Other
3498,"157 LOWER DANDENONG ROAD, MENTONE",-37.98388,145.088201,3.0,1.0,3,$340_pw,House,May 2010,3194,2010,5,MENTONE,340,House
3563,"8 / 45 VENICE STREET, MENTONE",-37.985708,145.06118,2.0,1.0,1,$295_per_week,none,October 2010,3194,2010,10,MENTONE,295,Other
3589,"162 BALCOMBE ROAD, MENTONE",-37.980724,145.061653,3.0,1.0,2,$480_pw,none,October 2010,3194,2010,10,MENTONE,480,Other
3590,"162 BALCOMBE ROAD, MENTONE",-37.980724,145.061653,3.0,1.0,2,$480_pw,none,May 2010,3194,2010,5,MENTONE,480,Other
3612,"5/84 LATROBE STREET, MENTONE",-37.974858,145.062925,1.0,1.0,1,$250_per_week,none,July 2010,3194,2010,7,MENTONE,250,Other
3623,"5/61 MILAN STREET, MENTONE",-37.982911,145.06015,2.0,1.0,1,$350,Rental_residential,December 2010,3194,2010,12,MENTONE,350,Other
3683,"5/5 STATION STREET, MENTONE",-37.98222351,145.06625366,1.0,1.0,1,$250_pw,Rental_residential,April 2010,3194,2010,4,MENTONE,250,Other
3698,"15/173 BALCOMBE ROAD, MENTONE",-37.98028,145.055356,1.0,1.0,1,$250,none,October 2010,3194,2010,10,MENTONE,250,Other
3699,"15/173 BALCOMBE ROAD, MENTONE",-37.98028,145.055356,1.0,1.0,1,$250_pw,none,March 2010,3194,2010,3,MENTONE,250,Other
3728,"18/30 MENTONE PARADE, MENTONE",-37.990008,145.065064,1.0,1.0,1,$250_pw,Rental_residential,March 2010,3194,2010,3,MENTONE,250,Other
3827,"11/30 SWANSTON STREET, MENTONE",-37.980014,145.065599,1.0,1.0,1,$220_per_week,Rental_residential,March 2010,3194,2010,3,MENTONE,220,Other
3886,"10/30 SWANSTON STREET, MENTONE",-37.978423,145.066382,1.0,1.0,1,$230_per_week,Rental_residential,May 2010,3194,2010,5,MENTONE,230,Other
3945,"4/41 PATTY STREET, MENTONE",-37.9773015,145.058474,3.0,1.0,1,$435_per_week,Rental_residential,April 2010,3194,2010,4,MENTONE,435,Other
4095,"7 TEAGUE AVENUE, MENTONE",-37.978533,145.063247,4.0,3.0,4,$475_pw,House,September 2010,3194,2010,9,MENTONE,475,House
4096,"7 TEAGUE AVENUE, MENTONE",-37.978533,145.063247,4.0,3.0,4,$600_pw,House,September 2010,3194,2010,9,MENTONE,600,House
4116,"15/6 ANDERSON COURT, MENTONE",-37.978794,145.060429,1.0,1.0,1,$245_pw,Rental_residential,December 2010,3194,2010,12,MENTONE,245,Other
4117,"15/6 ANDERSON COURT, MENTONE",-37.978794,145.060429,1.0,1.0,1,$250,Rental_residential,December 2010,3194,2010,12,MENTONE,250,Other
4118,"15/6 ANDERSON COURT, MENTONE",-37.978794,145.060429,1.0,1.0,1,$250_per_week,Rental_residential,March 2010,3194,2010,3,MENTONE,250,Other
4267,"21 OLD MENZIES CREEK ROAD, MENZIES CREEK",-37.927259,145.386538,3.0,1.0,2,$310_pw,House,September 2010,3159,2010,9,CREEK,310,House
4329,"31 MENZIES ROAD, MENZIES CREEK",-37.921961,145.411728,3.0,1.0,2,$280_p.w.,House,June 2010,3159,2010,6,CREEK,280,House
4336,"14 BLACKHILL ROAD, MENZIES CREEK",-37.913803,145.398344,4.0,2.0,4,$350,House,October 2010,3159,2010,10,CREEK,350,House
4369,"125C SEVENTH STREET, MERBEIN SOUTH",-34.2045981,142.0387241,4.0,2.0,2,$270_pw,House,September 2010,3505,2010,9,SOUTH,270,House
4372,"216 SHEOAK AVENUE, MERBEIN SOUTH",-34.243444,142.063989,3.0,1.0,2,$155_per_week,House,April 2010,3505,2010,4,SOUTH,155,House
4467,"94 CHAFFEY STREET, MERBEIN",-34.1677452,142.0692196,3.0,1.0,2,$220_per_week,House,August 2010,3505,2010,8,MERBEIN,220,House
4605,"32 LINCOLN STREET MERLYNSTON, MERLYNSTON",-37.7214266,144.9614409,3.0,2.0,0,$1216_p.w.,House,January 2010,3058,2010,1,MERLYNSTON,1216,House
4661,"11 GREIG DRIVE, MERNDA",-37.589777,145.099407,4.0,2.0,2,$480,none,October 2010,3754,2010,10,MERNDA,480,Other
4695,"33 SUNNYBRAE DRIVE, MERNDA",-37.609549,145.083906,4.0,2.0,2,$320_p.w.,House,April 2010,3754,2010,4,MERNDA,320,House
4743,"10 HOPKINS STREET, MERNDA",-37.61316,145.094706,3.0,2.0,2,$320_p.w.,House,July 2010,3754,2010,7,MERNDA,320,House
4744,"10 HOPKINS STREET, MERNDA",-37.61316,145.094706,3.0,2.0,2,$330_per_week,House,May 2010,3754,2010,5,MERNDA,330,House
4766,"3 GELLIBRAND WALK, MERNDA",-37.613174,145.093796,3.0,1.0,2,$320_per_week,Townhouse,October 2010,3754,2010,10,MERNDA,320,House
4919,"60 PALMERS HILL ROAD, MERRICKS BEACH",-38.396368,145.101955,4.0,2.0,2,$1200_Weekly,none,April 2010,3926,2010,4,BEACH,1200,Other
4996,"178 WAVERLEY AVENUE, MERRIGUM",-36.36638,145.131589,3.0,1.0,2,$160,House,December 2010,3618,2010,12,MERRIGUM,160,House
4997,"178 WAVERLEY AVENUE, MERRIGUM",-36.36638,145.131589,3.0,1.0,2,$160_per_week,House,July 2010,3618,2010,7,MERRIGUM,160,House
4998,"178 WAVERLEY AVENUE, MERRIGUM",-36.36638,145.131589,3.0,1.0,2,$160_per_week,House,June 2010,3618,2010,6,MERRIGUM,160,House
4999,"178 WAVERLEY AVENUE, MERRIGUM",-36.36638,145.131589,3.0,1.0,2,$160_per_week,House,March 2010,3618,2010,3,MERRIGUM,160,House
5002,"380 ANDREWS ROAD, MERRIGUM",-36.37244,145.117317,3.0,1.0,1,$150_per_week,House,June 2010,3618,2010,6,MERRIGUM,150,House
5003,"665 BYRNESIDE RD, MERRIGUM",-36.3898353,145.1319465,3.0,2.0,3,$180_per_week,none,January 2010,3618,2010,1,MERRIGUM,180,Other
5342,"1670 HEATHCOTE-REDESDALE ROAD, MIA MIA",-37.0007095,144.5707348,3.0,2.0,0,$240_pw,House,January 2010,3444,2010,1,MIA,240,House
5446,"211 RICHARDSON STREET, MIDDLE PARK",-37.849191,144.96162,3.0,2.0,0,$850_per_week,none,January 2010,3206,2010,1,PARK,850,Other
5463,"6/28 PATTERSON STREET, MIDDLE PARK",-37.854557,144.964909,2.0,2.0,1,$320_pw,Rental_residential,July 2010,3206,2010,7,PARK,320,Other
5522,"64/189 BEACONSFIELD PARADE, MIDDLE PARK",-37.851526,144.956867,1.0,1.0,1,$375_pw,none,January 2010,3206,2010,1,PARK,375,Other
5532,"5/28 PATTERSON STREET, MIDDLE PARK",-37.854557,144.964909,1.0,1.0,1,$270_pw,Rental_residential,May 2010,3206,2010,5,PARK,270,Other
5540,"20 NIMMO STREET, MIDDLE PARK",-37.849433,144.962482,3.0,1.0,0,$525_per_week,House,November 2010,3206,2010,11,PARK,525,House
5546,"112 NEVILLE STREET, MIDDLE PARK",-37.850954,144.962638,3.0,2.0,0,$430_pw,Townhouse,February 2010,3206,2010,2,PARK,430,House
5554,"209 ASHWORTH STREET, MIDDLE PARK",-37.854827,144.964899,2.0,1.0,1,$495,Townhouse,October 2010,3206,2010,10,PARK,495,House
5555,"209 ASHWORTH STREET, MIDDLE PARK",-37.854827,144.964899,2.0,1.0,1,$495_pw,Townhouse,June 2010,3206,2010,6,PARK,495,House
5556,"209 ASHWORTH STREET, MIDDLE PARK",-37.854827,144.964899,2.0,1.0,1,$500_pw,Townhouse,June 2010,3206,2010,6,PARK,500,House
5571,"172 CANTERBURY ROAD, MIDDLE PARK",-37.853158,144.969079,2.0,1.0,0,$395_per_week,House,March 2010,3206,2010,3,PARK,395,House
5650,"141 RICHARDSON STREET, MIDDLE PARK",-37.847393,144.958163,3.0,1.0,3,$680_pw,House,March 2010,3206,2010,3,PARK,680,House
5651,"141 RICHARDSON STREET, MIDDLE PARK",-37.847393,144.958163,3.0,1.0,3,$720_pw,House,March 2010,3206,2010,3,PARK,720,House
5652,"141 RICHARDSON STREET, MIDDLE PARK",-37.847393,144.958163,3.0,1.0,3,$720_pw,House,February 2010,3206,2010,2,PARK,720,House
5671,"23 NIMMO STREET, MIDDLE PARK",-37.849595,144.963,3.0,2.0,1,$1250_pw,Rental_residential,May 2010,3206,2010,5,PARK,1250,Other
5673,"70 HAMBLETON STREET, MIDDLE PARK",-37.846848,144.959062,3.0,2.0,0,$775_per_week,Rental_residential,February 2010,3206,2010,2,PARK,775,Other
5682,"9/200 BEACONSFIELD PARADE, MIDDLE PARK",-37.851917,144.957617,2.0,1.0,1,$330_per_week,Rental_residential,February 2010,3206,2010,2,PARK,330,Other
5687,"1/61 CANTERBURY ROAD, MIDDLE PARK",-37.847396,144.962504,2.0,1.0,0,$330,Rental_residential,December 2010,3206,2010,12,PARK,330,Other
5688,"1/61 CANTERBURY ROAD, MIDDLE PARK",-37.847396,144.962504,2.0,1.0,0,$375_pw,Rental_residential,November 2010,3206,2010,11,PARK,375,Other
5715,"94/195 BEACONSFIELD PARADE, MIDDLE PARK",-37.851704,144.957316,1.0,1.0,1,$365_per_week,Unit,June 2010,3206,2010,6,PARK,365,Apartment
5730,"3/227 PAGE STREET, MIDDLE PARK",-37.851964,144.964015,1.0,1.0,1,$275_per_week,Unit,July 2010,3206,2010,7,PARK,275,Apartment
5766,"250 RICHARDSON STREET, MIDDLE PARK",-37.849735,144.961712,2.0,1.0,0,$665_pw,House,August 2010,3206,2010,8,PARK,665,House
5767,"250 RICHARDSON STREET, MIDDLE PARK",-37.849735,144.961712,2.0,1.0,0,$665_pw,House,July 2010,3206,2010,7,PARK,665,House
5768,"250 RICHARDSON STREET, MIDDLE PARK",-37.849735,144.961712,2.0,1.0,0,$680_pw,House,July 2010,3206,2010,7,PARK,680,House
5781,"23 WRIGHT STREET, MIDDLE PARK",-37.84669,144.96075,3.0,3.0,1,$470_pw,none,November 2010,3206,2010,11,PARK,470,Other
5802,"84 NEVILLE STREET, MIDDLE PARK",-37.84998,144.960921,2.0,1.0,0,$570,none,December 2010,3206,2010,12,PARK,570,Other
5831,"158 NEVILLE STREET, MIDDLE PARK",-37.852742,144.965721,2.0,1.0,0,$500,Rental_residential,January 2010,3206,2010,1,PARK,500,Other
5855,"204 RICHARDSON STREET, MIDDLE PARK",-37.848215,144.958765,2.0,1.0,1,$690_pw,Rental_residential,January 2010,3206,2010,1,PARK,690,Other
5862,"133 ASHWORTH STREET, MIDDLE PARK",-37.851168,144.957581,3.0,2.0,1,$760_per_week,Rental_residential,February 2010,3206,2010,2,PARK,760,Other
5884,"42 PARK ROAD, MIDDLE PARK",-37.853968,144.966267,2.0,1.0,1,$565_pw,Rental_residential,December 2010,3206,2010,12,PARK,565,Other
5885,"42 PARK ROAD, MIDDLE PARK",-37.853968,144.966267,2.0,1.0,1,$565_pw,Rental_residential,November 2010,3206,2010,11,PARK,565,Other
5922,"3/225 BEACONSFIELD PARADE, MIDDLE PARK",-37.85359,144.960535,2.0,2.0,1,$550_per_week,none,July 2010,3206,2010,7,PARK,550,Other
5923,"3/225 BEACONSFIELD PARADE, MIDDLE PARK",-37.85359,144.960535,2.0,2.0,1,$550_per_week,none,June 2010,3206,2010,6,PARK,550,Other
5924,"3/225 BEACONSFIELD PARADE, MIDDLE PARK",-37.85359,144.960535,2.0,2.0,1,$595_per_week,none,May 2010,3206,2010,5,PARK,595,Other
5980,"6/109 CANTERBURY ROAD, MIDDLE PARK",-37.850255,144.965376,2.0,2.0,2,$525_pw,Rental_residential,March 2010,3206,2010,3,PARK,525,Other
5983,"25/109 NIMMO STREET, MIDDLE PARK",-37.852473,144.960602,1.0,1.0,0,$355_per_week,none,August 2010,3206,2010,8,PARK,355,Other
6006,"6/307 RICHARDSON STREET, MIDDLE PARK",-37.852239,144.966849,1.0,1.0,1,$395_per_week,Rental_residential,June 2010,3206,2010,6,PARK,395,Other
6121,"4/72 PATTERSON STREET, MIDDLE PARK",-37.85546112,144.96662903,1.0,1.0,1,$270_per_week,Rental_residential,June 2010,3206,2010,6,PARK,270,Other
6122,"4/72 PATTERSON STREET, MIDDLE PARK",-37.85546112,144.96662903,1.0,1.0,1,$270_per_week,Rental_residential,May 2010,3206,2010,5,PARK,270,Other
6136,"3/109 NIMMO STREET, MIDDLE PARK",-37.852473,144.960602,2.0,1.0,0,$420_pw,Available Now,May 2010,3206,2010,5,PARK,420,Other
6162,"3/51 NIMMO STREET, MIDDLE PARK",-37.850501,144.962039,2.0,1.0,1,$430_per_week,none,March 2010,3206,2010,3,PARK,430,Other
6190,"11/28 PARK ROAD, MIDDLE PARK",-37.853567,144.965505,1.0,1.0,1,$325_per_week,Rental_residential,January 2010,3206,2010,1,PARK,325,Other
6203,"10/72 PATTERSON STREET, MIDDLE PARK",-37.855462,144.966635,1.0,1.0,1,$300_pw,none,November 2010,3206,2010,11,PARK,300,Other
6242,"201 ASHWORTH STREET, MIDDLE PARK",-37.854728,144.964601,3.0,1.0,0,$620_pw,Townhouse,April 2010,3206,2010,4,PARK,620,House
6252,"10 ERSKINE STREET, MIDDLE PARK",-37.847135,144.958428,3.0,1.0,1,$720_pw,House,January 2010,3206,2010,1,PARK,720,House
6261,"98 HAROLD STREET, MIDDLE PARK",-37.851294,144.958635,2.0,1.0,0,$615_per_week,House,October 2010,3206,2010,10,PARK,615,House
6287,"12/225 BEACONSFIELD PARADE, MIDDLE PARK",-37.85359,144.960535,2.0,2.0,1,$495_pw,Rental_residential,March 2010,3206,2010,3,PARK,495,Other
6311,"3/41 PARK ROAD, MIDDLE PARK",-37.853422,144.966241,2.0,2.0,2,$600_pw,Rental_residential,February 2010,3206,2010,2,PARK,600,Other
6340,"230 RICHARDSON STREET, MIDDLE PARK",-37.848858,144.960031,2.0,1.0,0,$820_pw,Rental_residential,October 2010,3206,2010,10,PARK,820,Other
6347,"5/187 BEACONSFIELD PARADE, MIDDLE PARK",-37.851255,144.956318,1.0,1.0,1,$395_per_week,none,March 2010,3206,2010,3,PARK,395,Other
6439,"86 HERBERT STREET, MIDDLE PARK",-37.846125,144.960391,4.0,2.0,0,$1200_per_week,House,August 2010,3206,2010,8,PARK,1200,House
6478,"129 NEVILLE STREET, MIDDLE PARK",-37.851477,144.964237,3.0,2.0,1,$675_pw,House,July 2010,3206,2010,7,PARK,675,House
6490,"301 RICHARDSON STREET, MIDDLE PARK",-37.852055,144.966626,3.0,2.0,1,$950_pw,House,January 2010,3206,2010,1,PARK,950,House
6524,"368 DANKS STREET, MIDDLE PARK",-37.852826,144.961684,2.0,1.0,0,$560_per_week,House,April 2010,3206,2010,4,PARK,560,House
6547,"3 WRIGHT STREET, MIDDLE PARK",-37.846193,144.961173,2.0,1.0,1,$395_pw,House,June 2010,3206,2010,6,PARK,395,House
6577,"85A CARTER STREET, MIDDLE PARK",-37.84694,144.961375,2.0,1.0,0,$435,House,October 2010,3206,2010,10,PARK,435,House
6639,"421 MILAWA-BOBINAWARRAH ROAD, MILAWA",-36.4773873,146.4266275,4.0,2.0,2,$300_per_week,Residential,October 2010,3678,2010,10,MILAWA,300,Other
6653,"5/7 MILAWA- BOBINAWARRAH ROAD, MILAWA",-36.4759144,146.4268577,2.0,1.0,2,$200_per_week,none,October 2010,3678,2010,10,MILAWA,200,Other
6654,"5/7 MILAWA- BOBINAWARRAH ROAD, MILAWA",-36.4759144,146.4268577,2.0,1.0,2,$200_per_week,none,November 2010,3678,2010,11,MILAWA,200,Other
6670,"4A THIRTEENTH STREET, MILDURA EAST",-34.200116,142.163296,1.0,1.0,0,$120_pw,none,July 2010,3500,2010,7,EAST,120,Other
6672,"4 THIRTEENTH STREET, MILDURA EAST",-34.200116,142.163296,3.0,1.0,2,$190,House,September 2010,3500,2010,9,EAST,190,House
6673,"4 THIRTEENTH STREET, MILDURA EAST",-34.200116,142.163296,3.0,1.0,2,$190_pw,House,July 2010,3500,2010,7,EAST,190,House
6676,"76 SAN MATEO AVENUE, MILDURA EAST",-34.190319,142.166762,3.0,1.0,2,$245_p.w.,House,August 2010,3500,2010,8,EAST,245,House
6681,"187 WHITECLIFF AVENUE, MILDURA SOUTH",-34.241984,142.071341,4.0,2.0,2,$290_pw,House,November 2010,3500,2010,11,SOUTH,290,House
6691,"4 SEBASTIAN COURT, MILDURA WEST",-34.1923564,142.1354569,3.0,1.0,2,$240_p.w.,House,December 2010,3500,2010,12,WEST,240,House
6707,"32 JUDE AVENUE, MILDURA WEST",-34.177624,142.147733,3.0,1.0,2,$210_pw,House,October 2010,3500,2010,10,WEST,210,House
6752,"3 MATOTEK COURT, MILDURA",-34.203513,142.138114,3.0,2.0,2,$270_per_week,House,September 2010,3500,2010,9,MILDURA,270,House
6753,"3 MATOTEK COURT, MILDURA",-34.203513,142.138114,3.0,2.0,2,$270_per_week,House,August 2010,3500,2010,8,MILDURA,270,House
6807,"1/32 PLANTATION STREET, MILDURA",-34.203585,142.136346,2.0,1.0,2,$200_per_week,House,July 2010,3500,2010,7,MILDURA,200,House
6854,"11 MATOTEK COURT, MILDURA",-34.203588,142.138517,4.0,2.0,2,$270_per_week,House,November 2010,3500,2010,11,MILDURA,270,House
6855,"11 MATOTEK COURT, MILDURA",-34.203588,142.138517,4.0,2.0,2,$250_per_week,House,November 2010,3500,2010,11,MILDURA,250,House
6886,"4/2 CAMERON AVENUE, MILDURA",-34.182067,142.150982,2.0,1.0,1,$140_pw,Unit,January 2010,3500,2010,1,MILDURA,140,Apartment
6932,"14 TARELLA COURT, MILDURA",-34.168144,142.151057,3.0,1.0,4,$215_Weekly,Rental_residential,May 2010,3500,2010,5,MILDURA,215,Other
7022,"176 WALNUT AVENUE, MILDURA",-34.186143,142.151655,3.0,2.0,1,$270_per_week,none,July 2010,3500,2010,7,MILDURA,270,Other
7023,"176 WALNUT AVENUE, MILDURA",-34.186143,142.151655,3.0,2.0,1,$260_per_week,none,March 2010,3500,2010,3,MILDURA,260,Other
7040,"4/124 THIRTEENTH STREET, MILDURA",-34.192858,142.154618,2.0,1.0,2,$140_per_week,Rental_residential,May 2010,3500,2010,5,MILDURA,140,Other
7048,"108 LEMON AVENUE, MILDURA",-34.190139,142.163171,2.0,1.0,2,$205_pw,House,November 2010,3500,2010,11,MILDURA,205,House
7095,"2/3 EILEEN STREET, MILDURA",-34.206123,142.138747,2.0,1.0,1,$135,none,April 2010,3500,2010,4,MILDURA,135,Other
7096,"2/3 EILEEN STREET, MILDURA",-34.206123,142.138747,2.0,1.0,1,$135_per_week,none,March 2010,3500,2010,3,MILDURA,135,Other
7188,"4 PLANT COURT, MILDURA",-34.204522,142.137103,3.0,2.0,2,$270_pw,none,April 2010,3500,2010,4,MILDURA,270,Other
7199,"12/280 TENTH STREET, MILDURA",-34.17703,142.146402,2.0,1.0,1,$175_per_week,Rental_residential,October 2010,3500,2010,10,MILDURA,175,Other
7230,"9 MARY AVENUE, MILDURA",-34.199547,142.150833,3.0,2.0,1,$220_per_week,House,August 2010,3500,2010,8,MILDURA,220,House
7248,"138 LEMON AVENUE, MILDURA",-34.191289,142.161779,3.0,1.0,3,$210_per_week,House,September 2010,3500,2010,9,MILDURA,210,House
7344,"134 ORANGE AVENUE, MILDURA",-34.190324,142.160935,3.0,2.0,2,$185_per_week,none,September 2010,3500,2010,9,MILDURA,185,Other
7346,"4/529 WALNUT AVENUE, MILDURA",-34.206973,142.125127,3.0,2.0,2,$280_per_week,House,July 2010,3500,2010,7,MILDURA,280,House
7664,"4/225 WOODHAM AVENUE, MILDURA",-34.193944,142.153472,2.0,1.0,1,$140,House,April 2010,3500,2010,4,MILDURA,140,House
7665,"4/225 WOODHAM AVENUE, MILDURA",-34.193944,142.153472,2.0,1.0,1,$145_per_week,House,March 2010,3500,2010,3,MILDURA,145,House
7689,"15/257 NINTH STREET, MILDURA",-34.175816,142.147684,3.0,1.0,2,$215_per_week,Townhouse,August 2010,3500,2010,8,MILDURA,215,House
7844,"3/43 OLIVE AVENUE, MILDURA",-34.181349,142.158548,2.0,1.0,1,$225,House,July 2010,3500,2010,7,MILDURA,225,House
7845,"3/43 OLIVE AVENUE, MILDURA",-34.181349,142.158548,2.0,1.0,1,$225_per_week,House,April 2010,3500,2010,4,MILDURA,225,House
7952,"3 WANERA WAY, MILDURA",-34.169908,142.15599,4.0,1.0,2,$290_per_week,House,May 2010,3500,2010,5,MILDURA,290,House
8018,"3/471 WALNUT AVENUE, MILDURA",-34.204117,142.12893,3.0,1.0,1,$175_Weekly,House,December 2010,3500,2010,12,MILDURA,175,House
8023,"53 MAGNOLIA AVENUE, MILDURA",-34.188759,142.166144,4.0,2.0,2,$180_pw,House,December 2010,3500,2010,12,MILDURA,180,House
8066,"19/313 EIGHTH STREET, MILDURA",-34.172404,142.14619,2.0,1.0,1,$200_pw,Townhouse,February 2010,3500,2010,2,MILDURA,200,House
8086,"20 WALNUT AVENUE, MILDURA",-34.179726,142.159426,3.0,2.0,2,$180,House,May 2010,3500,2010,5,MILDURA,180,House
8156,"1/265 TWELFTH STREET, MILDURA",-34.180731,142.142929,2.0,2.0,1,$210_pw,Rental_residential,June 2010,3500,2010,6,MILDURA,210,Other
8275,"2/5 JOHN MONASH BOULEVARD, MILDURA",-34.20825,142.125652,3.0,2.0,2,$270_per_week,Townhouse,January 2010,3500,2010,1,MILDURA,270,House
8334,"76 MAGNOLIA AVENUE, MILDURA",-34.189603,142.165831,4.0,2.0,2,$170,House,December 2010,3500,2010,12,MILDURA,170,House
8335,"76 MAGNOLIA AVENUE, MILDURA",-34.189603,142.165831,4.0,2.0,2,$170_per_week,House,November 2010,3500,2010,11,MILDURA,170,House
8345,"1 HOMEBUSH COURT, MILDURA",-34.193428,142.135766,2.0,1.0,1,$200_per_week,none,July 2010,3500,2010,7,MILDURA,200,Other
8382,"2/482 WALNUT AVENUE, MILDURA",-34.205697,142.128552,2.0,1.0,2,$220_per_week,none,October 2010,3500,2010,10,MILDURA,220,Other
8431,"259 WADE AVENUE, MILDURA",-34.197034,142.152382,4.0,2.0,2,$250,House,December 2010,3500,2010,12,MILDURA,250,House
8432,"259 WADE AVENUE, MILDURA",-34.197034,142.152382,4.0,2.0,2,$260_per_week,House,February 2010,3500,2010,2,MILDURA,260,House
8472,"306 DEAKIN AVENUE, MILDURA",-34.1987346,142.1464103,3.0,1.0,1,$220_pw,Rental_residential,May 2010,3500,2010,5,MILDURA,220,Other
8530,"2/367 DEAKIN AVENUE, MILDURA",-34.201056,142.142727,2.0,1.0,1,$160_per_week,none,July 2010,3500,2010,7,MILDURA,160,Other
8645,"4 BURNETT COURT, MILL PARK",-37.659915,145.062071,3.0,2.0,1,$310_pw,none,April 2010,3082,2010,4,PARK,310,Other
8646,"4 BURNETT COURT, MILL PARK",-37.659915,145.062071,3.0,2.0,1,$320_Weekly,none,March 2010,3082,2010,3,PARK,320,Other
8708,"5 MELROSE PLACE, MILL PARK",-37.675923,145.059505,4.0,1.0,3,$360_p.w.,none,September 2010,3082,2010,9,PARK,360,Other
8788,"6/1 MORANG DRIVE, MILL PARK",-37.661425,145.053371,3.0,2.0,1,$340_per_week,Townhouse,October 2010,3082,2010,10,PARK,340,House
8810,"1/2 BELBIN COURT, MILL PARK",-37.660624,145.040083,3.0,1.0,2,$300_per_week,none,December 2010,3082,2010,12,PARK,300,Other
8868,"7 POSEIDON CLOSE, MILL PARK",-37.672673,145.063251,6.0,3.0,2,$375_per_week,House,December 2010,3082,2010,12,PARK,375,House
8945,"7 CONIFER CLOSE, MILL PARK",-37.674342,145.053191,3.0,2.0,2,$350_per_week,House,December 2010,3082,2010,12,PARK,350,House
9046,"235 BETULA AVENUE, MILL PARK",-37.675571,145.058318,3.0,1.0,2,$350_per_week,House,December 2010,3082,2010,12,PARK,350,House
9054,"41 ESTER DRIVE, MILL PARK",-37.65631,145.041829,3.0,2.0,2,$360_Weekly,House,January 2010,3082,2010,1,PARK,360,House
9278,"5 CARBON CRESCENT, MILL PARK",-37.662395,145.0382,3.0,2.0,2,$370_p.w.,House,August 2010,3082,2010,8,PARK,370,House
9279,"78 CENTENARY DRIVE, MILL PARK",-37.658322,145.068755,3.0,2.0,2,$310,House,November 2010,3082,2010,11,PARK,310,House
9280,"78 CENTENARY DRIVE, MILL PARK",-37.658322,145.068755,3.0,2.0,2,$310_pw,House,October 2010,3082,2010,10,PARK,310,House
9370,"23 LAMINA AVENUE, MILL PARK",-37.654674,145.049738,3.0,2.0,2,$310_p.w.,House,December 2010,3082,2010,12,PARK,310,House
9388,"9 STREETON CIRCUIT, MILL PARK",-37.669458,145.069124,3.0,2.0,4,$370_per_week,House,June 2010,3082,2010,6,PARK,370,House
9389,"9 STREETON CIRCUIT, MILL PARK",-37.669458,145.069124,3.0,2.0,4,$360_p.w.,House,June 2010,3082,2010,6,PARK,360,House
9405,"112 WOOLNOUGH DRIVE, MILL PARK",-37.660259,145.038176,2.0,1.0,2,$275,Unit,December 2010,3082,2010,12,PARK,275,Apartment
9538,"7 DORRINGTON COURT, MILL PARK",-37.652223,145.042695,3.0,2.0,0,$300_pw,House,May 2010,3082,2010,5,PARK,300,House
9716,"5 LILLIS COURT, MILLGROVE",-37.746086,145.65827,3.0,2.0,1,$240_pw,House,October 2010,3799,2010,10,MILLGROVE,240,House
9781,"9 PAMELA COURT, MILLGROVE",-37.75045,145.660813,2.0,1.0,1,$195_pw,House,September 2010,3799,2010,9,MILLGROVE,195,House
9796,"21 PATRICK STREET, MILLGROVE",-37.746795,145.661912,3.0,1.0,3,$235_pw,House,August 2010,3799,2010,8,MILLGROVE,235,House
68,"5/5 WANDANA DRIVE, WANDANA HEIGHTS",-38.171721,144.308536,1.0,1.0,1,$150_per_week,House,November 2010,3216,2010,11,HEIGHTS,150,House
118,"47B SUNDERLAND ROAD, WANDANA HEIGHTS",-38.176249,144.30285,3.0,2.0,1,$370_pw,Townhouse,February 2010,3216,2010,2,HEIGHTS,370,House
183,"12 MCEVOYS LANE, WANDILIGONG",-36.766944,146.980435,4.0,1.0,0,$310,House,November 2010,3744,2010,11,WANDILIGONG,310,House
208,"14 WILLIAMS ROAD, WANDILIGONG",-36.775848,146.984132,3.0,1.0,0,$250_per_week,none,July 2010,3744,2010,7,WANDILIGONG,250,Other
314,"12 PARK STREET, WANDIN NORTH",-37.783346,145.430466,3.0,1.0,1,$320_p.w.,House,June 2010,3139,2010,6,NORTH,320,House
415,"1/86 STAMPS LANE, WANGARATTA NORTH",-36.33286,146.342758,3.0,1.0,0,$210,House,July 2010,3677,2010,7,NORTH,210,House
436,"277 WARBY RANGE ROAD, WANGARATTA SOUTH",-36.357612,146.255309,4.0,2.0,1,$270_per_week,House,April 2010,3678,2010,4,SOUTH,270,House
574,"2/125 APPIN STREET, WANGARATTA",-36.3453943,146.3003718,3.0,2.0,2,$310_per_week,House,December 2010,3677,2010,12,WANGARATTA,310,House
605,"4/61 TEMPLETON STREET, WANGARATTA",-36.35156,146.319742,2.0,1.0,1,$170_per_week,Unit,April 2010,3677,2010,4,WANGARATTA,170,Apartment
685,"1/155 PHILLIPSON STREET, WANGARATTA",-36.343379,146.30708,2.0,1.0,1,$155_per_week,Unit,August 2010,3677,2010,8,WANGARATTA,155,Apartment
752,"24 MURDOCH ROAD, WANGARATTA",-36.364522,146.323735,3.0,1.0,1,$260_per_week,House,July 2010,3677,2010,7,WANGARATTA,260,House
818,"55A MURPHY STREET, WANGARATTA",-36.355529,146.325929,3.0,1.0,1,$185_per_week,Unit,January 2010,3677,2010,1,WANGARATTA,185,Apartment
825,"1/7 ST COLUMBS DRIVE, WANGARATTA",-36.367326,146.324893,2.0,1.0,2,$190_per_week,Unit,December 2010,3677,2010,12,WANGARATTA,190,Apartment
901,"8/81 VINCENT ROAD, WANGARATTA",-36.365043,146.312173,1.0,1.0,1,$125,House,June 2010,3677,2010,6,WANGARATTA,125,House
1149,"5 GAYER AVENUE, WANGARATTA",-36.364904,146.324966,3.0,1.0,1,$210_per_week,House,November 2010,3677,2010,11,WANGARATTA,210,House
1300,"3 TODD STREET, WANGARATTA",-36.38141,146.323048,3.0,2.0,2,$270_pw,none,September 2010,3677,2010,9,WANGARATTA,270,Other
1301,"3 TODD STREET, WANGARATTA",-36.38141,146.323048,3.0,2.0,2,$270_pw,none,July 2010,3677,2010,7,WANGARATTA,270,Other
1302,"3 TODD STREET, WANGARATTA",-36.38141,146.323048,3.0,2.0,2,$270_pw,none,January 2010,3677,2010,1,WANGARATTA,270,Other
1319,"7/36 OVENS STREET, WANGARATTA",-36.356681,146.321379,1.0,1.0,1,$180_per_week,Rental_residential,September 2010,3677,2010,9,WANGARATTA,180,Other
1348,"1/40 FRANKLIN STREET, WANGARATTA",-36.347032,146.294163,2.0,1.0,1,$155_per_week,none,February 2010,3677,2010,2,WANGARATTA,155,Other
1360,"93 SWAN STREET, WANGARATTA",-36.351421,146.31032,3.0,1.0,1,$230_per_week,House,August 2010,3677,2010,8,WANGARATTA,230,House
1561,"2/24 LOGAN DRIVE, WANGARATTA",-36.334626,146.305907,3.0,2.0,1,$290_per_week,none,June 2010,3677,2010,6,WANGARATTA,290,Other
1652,"14 MATLOCK ROAD, WANTIRNA SOUTH",-37.858779,145.251664,3.0,1.0,2,$320_per_week,none,September 2010,3152,2010,9,SOUTH,320,Other
1856,"16 BILLARA CLOSE, WANTIRNA SOUTH",-37.855691,145.248282,3.0,1.0,0,$330_per_week,House,September 2010,3152,2010,9,SOUTH,330,House
1872,"13/19 SOVEREIGN PLACE, WANTIRNA SOUTH",-37.872,145.231572,3.0,1.0,2,$350_pw,Townhouse,April 2010,3152,2010,4,SOUTH,350,House
2073,"3 APLIN PLACE, WANTIRNA SOUTH",-37.885394,145.22238,4.0,2.0,2,$485_per_week,none,March 2010,3152,2010,3,SOUTH,485,Other
2133,"30 CLARENCE ROAD, WANTIRNA SOUTH",-37.842176,145.223839,3.0,1.0,2,$280_pw,House,September 2010,3152,2010,9,SOUTH,280,House
2387,"85 BARMAH DRIVE, WANTIRNA",-37.8570683,145.2192873,4.0,2.0,5,$370,House,December 2010,3152,2010,12,WANTIRNA,370,House
2388,"85 BARMAH DRIVE, WANTIRNA",-37.8570683,145.2192873,4.0,2.0,5,$350_p.w.,House,June 2010,3152,2010,6,WANTIRNA,350,House
2449,"9 BENTLEY STREET, WANTIRNA",-37.848573,145.235073,4.0,1.0,2,$340_p.w.,House,June 2010,3152,2010,6,WANTIRNA,340,House
2518,"1/743 BORONIA ROAD, WANTIRNA",-37.846836,145.22323,3.0,1.0,1,$350_per_week,Townhouse,November 2010,3152,2010,11,WANTIRNA,350,House
2648,"43 STOKES ROAD, WANTIRNA",-37.850696,145.235466,4.0,2.0,2,$360_p.w.,House,February 2010,3152,2010,2,WANTIRNA,360,House
2668,"2/265 WANTIRNA ROAD, WANTIRNA",-37.8405456,145.227586,2.0,1.0,1,$300_per_week,none,September 2010,3152,2010,9,WANTIRNA,300,Other
2852,"33 BRISBANE HILL ROAD, WARBURTON",-37.748594,145.693617,4.0,2.0,0,$260,Rental_residential,December 2010,3799,2010,12,WARBURTON,260,Other
2880,"12 LA LA AVENUE, WARBURTON",-37.75611116,145.69785359,3.0,1.0,2,$285_pw,House,April 2010,3799,2010,4,WARBURTON,285,House
2899,"2 DEVON STREET, WARBURTON",-37.748734,145.676417,3.0,1.0,2,$265_pw,House,April 2010,3799,2010,4,WARBURTON,265,House
3026,"10 ILUKA STREET, WARNEET",-38.221492,145.31233,3.0,2.0,1,$290_Weekly,House,August 2010,3980,2010,8,WARNEET,290,House
3029,"12 RUTHERFORD PARADE, WARNEET",-38.227077,145.308408,4.0,2.0,4,$380_p.w.,House,November 2010,3980,2010,11,WARNEET,380,House
3030,"5 GNOORNONG ROAD, WARNEET",-38.220563,145.314044,2.0,1.0,2,$265_p.w.,House,August 2010,3980,2010,8,WARNEET,265,House
3031,"4 BANKS STREET, WARNEET",-38.225006,145.307268,3.0,2.0,3,$320_per_week,House,March 2010,3980,2010,3,WARNEET,320,House
3080,"104 SCOTT STREET, WARRACKNABEAL",-36.250564,142.394758,1.0,1.0,0,$8320,none,August 2010,3393,2010,8,WARRACKNABEAL,8320,Other
3089,"15 CLIFFORD STREET, WARRACKNABEAL",-36.243659,142.396096,3.0,1.0,1,$140_per_week,House,March 2010,3393,2010,3,WARRACKNABEAL,140,House
3395,"79 CLIFFORD STREET, WARRAGUL",-38.15659,145.93904,2.0,1.0,1,$230_per_week,none,June 2010,3820,2010,6,WARRAGUL,230,Other
3562,"63 NORTH ROAD, WARRAGUL",-38.159412,145.949167,3.0,2.0,2,$230_per_week,House,May 2010,3820,2010,5,WARRAGUL,230,House
3603,"6 HILLANDALE ROAD, WARRAGUL",-38.14386,145.937337,4.0,2.0,1,$250_per_week,House,October 2010,3820,2010,10,WARRAGUL,250,House
3966,"86 NORTH ROAD, WARRAGUL",-38.16123,145.94923,3.0,1.0,3,$250_per_week,House,May 2010,3820,2010,5,WARRAGUL,250,House
4031,"24 SINCLAIR STREET, WARRAGUL",-38.149351,145.937788,2.0,1.0,1,$220_per_week,none,September 2010,3820,2010,9,WARRAGUL,220,Other
4060,"19 MOUNT COLE ROAD, WARRAK",-37.261463,143.150143,2.0,1.0,1,$150_per_week,House,May 2010,3377,2010,5,WARRAK,150,House
4146,"280 HEIDELBERG-WARRANDYTE ROAD, WARRANDYTE",-37.74962365,145.18960945,2.0,2.0,2,$310_pw,Rental_residential,June 2010,3113,2010,6,WARRANDYTE,310,Other
4150,"2/12 HOUGHTON ROAD, WARRANDYTE",-37.746542,145.203235,1.0,1.0,1,$210_pw,Rental_residential,April 2010,3113,2010,4,WARRANDYTE,210,Other
4243,"6 PENSHURST PLACE, WARRANWOOD",-37.770081,145.25229,3.0,2.0,1,$360_per_week,Rental_residential,June 2010,3134,2010,6,WARRANWOOD,360,Other
4317,"3 BROOKFIELD PLACE, WARRANWOOD",-37.780734,145.255366,4.0,2.0,2,$450_per_week,Rental_residential,December 2010,3134,2010,12,WARRANWOOD,450,Other
4327,"14 PENSHURST PLACE, WARRANWOOD",-37.77029,145.253046,4.0,2.0,2,$410_pw,Rental_residential,July 2010,3134,2010,7,WARRANWOOD,410,Other
4461,"1 GEORGE AVE, WARRNAMBOOL EAST",-38.386499,142.515493,4.0,2.0,2,$430_p.w.,House,December 2010,3280,2010,12,EAST,430,House
4463,"58 SIMPSON STREET, WARRNAMBOOL EAST",-38.387961,142.51157,2.0,1.0,1,$300_p.w.,House,December 2010,3280,2010,12,EAST,300,House
4464,"1 GEORGE AVENUE, WARRNAMBOOL EAST",-38.386499,142.515493,4.0,2.0,2,$430_pw,House,December 2010,3280,2010,12,EAST,430,House
4663,"1/11 HOTHAM STREET, WARRNAMBOOL",-38.388294,142.490912,4.0,2.0,1,$380_per_week,House,June 2010,3280,2010,6,WARRNAMBOOL,380,House
4740,"5/44 WELLINGTON STREET, WARRNAMBOOL",-38.38445,142.46981,3.0,1.0,1,$290,Rental_residential,November 2010,3280,2010,11,WARRNAMBOOL,290,Other
4814,"11 RONGOA DRIVE, WARRNAMBOOL",-38.361178,142.456885,2.0,1.0,1,$250,none,December 2010,3280,2010,12,WARRNAMBOOL,250,Other
4859,"292 KOROIT STREET, WARRNAMBOOL",-38.377855,142.471313,2.0,1.0,1,$235_p.w.,House,June 2010,3280,2010,6,WARRNAMBOOL,235,House
4860,"292 KOROIT STREET, WARRNAMBOOL",-38.377855,142.471313,2.0,1.0,1,$235,House,May 2010,3280,2010,5,WARRNAMBOOL,235,House
5259,"28 DERBY STREET, WARRNAMBOOL",-38.384295,142.505131,4.0,2.0,2,$350_p.w.,none,July 2010,3280,2010,7,WARRNAMBOOL,350,Other
5272,"90 KOROIT STREET, WARRNAMBOOL",-38.384717,142.486584,3.0,1.0,1,$350_p.w.,House,February 2010,3280,2010,2,WARRNAMBOOL,350,House
5404,"14 FOSTER STREET, WARRNAMBOOL",-38.389678,142.491798,2.0,1.0,2,$390_Weekly,House,October 2010,3280,2010,10,WARRNAMBOOL,390,House
5490,"2 AEGEAN STREET, WATERFORD",-27.687726,153.127441,3.0,1.0,2,$300,House,July 2010,3862,2010,7,WATERFORD,300,House
5600,"13 JUBILEE BOULEVARD, WATERWAYS",-38.016403198242,145.123321533203,3.0,2.0,2,$490_per_week,Rental_residential,October 2010,3195,2010,10,WATERWAYS,490,Other
5606,"19 LAKE KING CIRCLE, WATERWAYS",-38.013303,145.135533,4.0,2.0,2,$680,House,January 2010,3195,2010,1,WATERWAYS,680,House
5635,"1 ARCOTS COURT, WATERWAYS",-38.015943,145.1293065,3.0,2.0,2,$440_per_week,Townhouse,November 2010,3195,2010,11,WATERWAYS,440,House
5636,"1 ARCOTS COURT, WATERWAYS",-38.015943,145.1293065,3.0,2.0,2,$440_per_week,Townhouse,October 2010,3195,2010,10,WATERWAYS,440,House
5637,"1 ARCOTS COURT, WATERWAYS",-38.015943,145.1293065,3.0,2.0,2,$440_per_week,Townhouse,September 2010,3195,2010,9,WATERWAYS,440,House
5666,"11 CHOPARD AVENUE, WATERWAYS",-38.013457,145.139149,5.0,2.0,2,$520_per_week,none,October 2010,3195,2010,10,WATERWAYS,520,Other
5693,"2 JUBILEE BOULEVARD, WATERWAYS",-38.012499,145.138336,4.0,2.0,2,$650_per_week,House,December 2010,3195,2010,12,WATERWAYS,650,House
5737,"18 DRESDEN DRIVE, WATERWAYS",-38.013821,145.139492,3.0,2.0,1,$410,Townhouse,October 2010,3195,2010,10,WATERWAYS,410,House
5738,"18 DRESDEN DRIVE, WATERWAYS",-38.013821,145.139492,3.0,2.0,1,$430,Townhouse,January 2010,3195,2010,1,WATERWAYS,430,House
5760,"3 BULOKE LANE, WATERWAYS",-38.008051,145.110473,5.0,5.0,2,$695,House,January 2010,3195,2010,1,WATERWAYS,695,House
22,"1395 MIDLAND HIGHWAY, GHERINGHAP",-38.070043,144.225308,6.0,2.0,2,$350_p.w.,House,July 2010,3331,2010,7,GHERINGHAP,350,House
54,"15 OLYMPIC STREET, GIRGARRE",-36.395412,144.978842,3.0,1.0,2,$170_per_week,House,November 2010,3624,2010,11,GIRGARRE,170,House
55,"15 OLYMPIC STREET, GIRGARRE",-36.395412,144.978842,3.0,1.0,2,$170_per_week,House,May 2010,3624,2010,5,GIRGARRE,170,House
56,"15 OLYMPIC STREET, GIRGARRE",-36.395412,144.978842,3.0,1.0,2,$170_per_week,House,January 2010,3624,2010,1,GIRGARRE,170,House
112,"16 CHURCH STREET, GIRGARRE",-36.395475,144.97784,3.0,1.0,0,$160_per_week,House,July 2010,3624,2010,7,GIRGARRE,160,House
122,"36 CHURCH STREET, GIRGARRE",-36.394073,144.979398,3.0,1.0,1,$150_per_week,House,January 2010,3624,2010,1,GIRGARRE,150,House
127,"202 MASON ROAD, GIRGARRE",-36.41176,145.009394,3.0,1.0,0,$170_per_week,House,December 2010,3624,2010,12,GIRGARRE,170,House
128,"202 MASON ROAD, GIRGARRE",-36.41176,145.009394,3.0,1.0,0,$170_per_week,House,November 2010,3624,2010,11,GIRGARRE,170,House
129,"202 MASON ROAD, GIRGARRE",-36.41176,145.009394,3.0,1.0,0,$170_per_week,House,October 2010,3624,2010,10,GIRGARRE,170,House
130,"WINTER RD, GIRGARRE",-36.398629,144.963562,2.0,1.0,1,$120_per_week,none,November 2010,3624,2010,11,GIRGARRE,120,Other
131,"14 CHURCH STREET, GIRGARRE",-36.39566,144.977851,3.0,1.0,1,$165_per_week,House,May 2010,3624,2010,5,GIRGARRE,165,House
132,"14 CHURCH STREET, GIRGARRE",-36.39566,144.977851,3.0,1.0,1,$165_per_week,House,April 2010,3624,2010,4,GIRGARRE,165,House
134,"891 WINTER ROAD, GIRGARRE",-36.399255,144.933878,4.0,1.0,2,$200_per_week,House,April 2010,3624,2010,4,GIRGARRE,200,House
135,"891 WINTER ROAD, GIRGARRE",-36.399255,144.933878,4.0,1.0,2,$200_per_week,House,March 2010,3624,2010,3,GIRGARRE,200,House
136,"870 WINTER ROAD, GIRGARRE",-36.398299,144.936446,3.0,1.0,1,$150_pw,House,February 2010,3624,2010,2,GIRGARRE,150,House
161,"79 BERRIE ROAD, GISBORNE SOUTH",-37.548655,144.646863,3.0,1.0,0,$250_pw,none,March 2010,3437,2010,3,SOUTH,250,Other
338,"7/36 STEPHEN STREET, GISBORNE",-37.488495,144.584698,3.0,1.0,1,$280_p.w.,House,February 2010,3437,2010,2,GISBORNE,280,House
421,"16 SKYLINE DRIVE, GISBORNE",-37.476858,144.583041,3.0,2.0,3,$450_p.w.,House,March 2010,3437,2010,3,GISBORNE,450,House
490,"52 FERSFIELD ROAD, GISBORNE",-37.497024,144.597629,3.0,2.0,2,$280_pw,House,July 2010,3437,2010,7,GISBORNE,280,House
575,"44 BURNLEIGH DRIVE, GLADSTONE PARK",-37.692938,144.892083,4.0,1.0,1,$300_per_week,none,November 2010,3043,2010,11,PARK,300,Other
576,"44 BURNLEIGH DRIVE, GLADSTONE PARK",-37.692938,144.892083,4.0,1.0,1,$300_per_week,none,October 2010,3043,2010,10,PARK,300,Other
651,"15 PAYNE STREET, GLADSTONE PARK",-37.686422,144.885033,4.0,2.0,1,$420_per_week,House,September 2010,3043,2010,9,PARK,420,House
751,"10 SHANE COURT, GLADSTONE PARK",-37.696301,144.897288,3.0,1.0,1,$280,none,November 2010,3043,2010,11,PARK,280,Other
752,"10 SHANE COURT, GLADSTONE PARK",-37.696301,144.897288,3.0,1.0,1,$300_p.w.,none,September 2010,3043,2010,9,PARK,300,Other
805,"1 BRAEMAR CLOSE, GLADSTONE PARK",-37.684531,144.887128,3.0,2.0,2,$360_per_week,House,May 2010,3043,2010,5,PARK,360,House
892,"11 COSDOWN CLOSE, GLADSTONE PARK",-37.691604,144.894571,3.0,1.0,3,$350_pw,House,December 2010,3043,2010,12,PARK,350,House
893,"11 COSDOWN CLOSE, GLADSTONE PARK",-37.691604,144.894571,3.0,1.0,3,$350_per_week,House,October 2010,3043,2010,10,PARK,350,House
906,"0 ELLIS TRACK, GLADYSDALE",-37.823809,145.66613,1.0,1.0,1,$200_pw,House,December 2010,3797,2010,12,GLADYSDALE,200,House
907,"0 ELLIS TRACK, GLADYSDALE",-37.823809,145.66613,1.0,1.0,1,$200,House,May 2010,3797,2010,5,GLADYSDALE,200,House
994,"7 / 21 ROYAL AVENUE, GLEN HUNTLY",-37.892399,145.04199,2.0,1.0,1,$350_pw,none,June 2010,3163,2010,6,HUNTLY,350,Other
1041,"8/5 BEVERLEY STREET, GLEN HUNTLY",-37.892141,145.038928,2.0,1.0,1,$335_pw,none,June 2010,3163,2010,6,HUNTLY,335,Other
1084,"6/8 WARATAH AVENUE, GLEN HUNTLY",-37.892039,145.043672,2.0,1.0,1,$350_pw,Rental_residential,October 2010,3163,2010,10,HUNTLY,350,Other
1236,"7/123 GRANGE ROAD, GLEN HUNTLY",-37.890364,145.044944,1.0,1.0,2,$235_pw,Rental_residential,September 2010,3163,2010,9,HUNTLY,235,Other
1257,"5/12 MAROONA ROAD, GLEN HUNTLY",-37.888887,145.04761,2.0,1.0,1,$295,none,July 2010,3163,2010,7,HUNTLY,295,Other
1450,"2/125 GRANGE ROAD, GLEN HUNTLY",-37.890391,145.04483,1.0,1.0,1,$260_pw,Unit,July 2010,3163,2010,7,HUNTLY,260,Apartment
1484,"3/15 MACKAY AVENUE, GLEN HUNTLY",-37.897025,145.044063,2.0,1.0,1,$350,Rental_residential,June 2010,3163,2010,6,HUNTLY,350,Other
1580,"2 / 34 DOROTHY AVENUE, GLEN HUNTLY",-37.896693,145.040225,2.0,1.0,1,$375_per_week,none,November 2010,3163,2010,11,HUNTLY,375,Other
1640,"12B ROTHSCHILD STREET, GLEN HUNTLY",-37.890955,145.039186,4.0,2.0,2,$680_pw,Townhouse,August 2010,3163,2010,8,HUNTLY,680,House
1763,"3/125 GRANGE ROAD, GLEN HUNTLY",-37.890391,145.04483,1.0,1.0,1,$215,none,March 2010,3163,2010,3,HUNTLY,215,Other
1773,"16/1083-1089 GLEN HUNTLY ROAD, GLEN HUNTLY",-37.888579,145.039075,1.0,1.0,1,$320_pw,none,June 2010,3163,2010,6,HUNTLY,320,Other
1810,"8/12 ROSEBERRY GROVE, GLEN HUNTLY",-37.888037,145.039832,2.0,1.0,1,$330_pw,none,September 2010,3163,2010,9,HUNTLY,330,Other
1866,"3/115 NEERIM ROAD, GLEN HUNTLY",-37.886764,145.042038,2.0,1.0,1,$380_pw,Rental_residential,August 2010,3163,2010,8,HUNTLY,380,Other
1867,"3/115 NEERIM ROAD, GLEN HUNTLY",-37.886764,145.042038,2.0,1.0,1,$380_pw,Rental_residential,January 2010,3163,2010,1,HUNTLY,380,Other
1902,"3/16 WATTLE AVENUE, GLEN HUNTLY",-37.894674,145.044421,2.0,1.0,1,$385_pw,none,December 2010,3163,2010,12,HUNTLY,385,Other
1957,"6 GARDINER PARADE, GLEN IRIS",-37.854336,145.066162,5.0,2.0,2,$840_per_week,none,August 2010,3146,2010,8,IRIS,840,Other
2038,"1/32 BELMONT AVENUE NORTH, GLEN IRIS",-37.854998,145.049143,2.0,1.0,1,$350,none,January 2010,3146,2010,1,IRIS,350,Other
2073,"5/1583 MALVERN ROAD, GLEN IRIS",-37.854028,145.050258,2.0,1.0,1,$330_pw,none,January 2010,3146,2010,1,IRIS,330,Other
2074,"5/1583 MALVERN ROAD, GLEN IRIS",-37.854028,145.050258,2.0,1.0,1,$340_pw,none,January 2010,3146,2010,1,IRIS,340,Other
2173,"3/23 GARDINER PARADE, GLEN IRIS",-37.853793,145.063743,2.0,1.0,1,$330_pw,none,March 2010,3146,2010,3,IRIS,330,Other
2174,"3/23 GARDINER PARADE, GLEN IRIS",-37.853793,145.063743,2.0,1.0,1,$350_pw,none,February 2010,3146,2010,2,IRIS,350,Other
2175,"3/23 GARDINER PARADE, GLEN IRIS",-37.853793,145.063743,2.0,1.0,1,$350,none,January 2010,3146,2010,1,IRIS,350,Other
2322,"5/304 TOORONGA ROAD, GLEN IRIS",-37.851826,145.042624,2.0,1.0,1,$380_pw,Available Now,June 2010,3146,2010,6,IRIS,380,Other
2323,"5/304 TOORONGA ROAD, GLEN IRIS",-37.851826,145.042624,2.0,1.0,1,$370_pw,Available Now,May 2010,3146,2010,5,IRIS,370,Other
2509,"48 ESSEX STREET, GLEN IRIS",-37.862581,145.059403,2.0,2.0,1,$290_Weekly,Townhouse,November 2010,3146,2010,11,IRIS,290,House
2510,"48 ESSEX STREET, GLEN IRIS",-37.862581,145.059403,2.0,2.0,1,$290_Weekly,Townhouse,October 2010,3146,2010,10,IRIS,290,House
2659,"1/8 MILLS STREET, GLEN IRIS",-37.849971,145.082756,2.0,1.0,1,$380,House,April 2010,3146,2010,4,IRIS,380,House
2718,"6/39 SCOTT GROVE, GLEN IRIS",-37.854941,145.05019,1.0,1.0,1,$295,none,December 2010,3146,2010,12,IRIS,295,Other
2768,"5/68 ERICA AVENUE, GLEN IRIS",-37.859557,145.0482,2.0,1.0,1,$290_per_week,Rental_residential,November 2010,3146,2010,11,IRIS,290,Other
2785,"2/1512 MALVERN ROAD, GLEN IRIS",-37.854217,145.049013,2.0,1.0,1,$340,Rental_residential,August 2010,3146,2010,8,IRIS,340,Other
2793,"12/6 CRESWICK STREET, GLEN IRIS",-37.85272,145.044121,2.0,1.0,1,$400_pw,Available Now,February 2010,3146,2010,2,IRIS,400,Other
2837,"1/21 OSBORNE AVENUE, GLEN IRIS",-37.856233,145.046584,3.0,3.0,1,$480,Townhouse,January 2010,3146,2010,1,IRIS,480,House
2883,"3/12 BELMONT AVENUE, GLEN IRIS",-37.857628,145.048333,1.0,1.0,1,$265_pw,Rental_residential,May 2010,3146,2010,5,IRIS,265,Other
2931,"3/201 BURKE ROAD, GLEN IRIS",-37.860752,145.050842,1.0,1.0,1,$320_pw,none,September 2010,3146,2010,9,IRIS,320,Other
3033,"8/46 SCOTT GROVE, GLEN IRIS",-37.85461426,145.050354,2.0,1.0,1,$340_pw,none,September 2010,3146,2010,9,IRIS,340,Other
3040,"9/42 EDGAR STREET, GLEN IRIS",-37.85319,145.046022,1.0,1.0,1,$230_pw,none,May 2010,3146,2010,5,IRIS,230,Other
3074,"1/19 MAVERSTON STREET, GLEN IRIS",-37.851759,145.079557,2.0,1.0,3,$299_per_week,none,May 2010,3146,2010,5,IRIS,299,Other
3075,"1/19 MAVERSTON STREET, GLEN IRIS",-37.851759,145.079557,2.0,1.0,3,$299_per_week,none,April 2010,3146,2010,4,IRIS,299,Other
3120,"29 SINCLAIR AVENUE, GLEN IRIS",-37.850362,145.051434,3.0,2.0,1,$415_pw,House,February 2010,3146,2010,2,IRIS,415,House
3201,"3/10 NASH STREET, GLEN IRIS",-37.8559227,145.04878235,2.0,1.0,1,$345_-_$1495_pw,Rental_residential,February 2010,3146,2010,2,IRIS,1495,Other
3202,"3/10 NASH STREET, GLEN IRIS",-37.8559227,145.04878235,2.0,1.0,1,$345_pw,Rental_residential,January 2010,3146,2010,1,IRIS,345,Other
3241,"6/1395 HIGH STREET, GLEN IRIS",-37.858198,145.042741,2.0,1.0,1,$320_pw,Rental_residential,February 2010,3146,2010,2,IRIS,320,Other
3242,"6/1395 HIGH STREET, GLEN IRIS",-37.858198,145.042741,2.0,1.0,1,$330_p.w.,Rental_residential,February 2010,3146,2010,2,IRIS,330,Other
3295,"7/24 BRIXTON RISE, GLEN IRIS",-37.858843,145.059634,1.0,1.0,1,$260_-_$1127_pw,Rental_residential,August 2010,3146,2010,8,IRIS,1127,Other
3380,"32 ALBION ROAD, GLEN IRIS",-37.864257,145.066096,4.0,2.0,2,$1100_per_week,House,January 2010,3146,2010,1,IRIS,1100,House
3387,"2/13 BELMONT AVENUE, GLEN IRIS",-37.857169,145.047543,2.0,1.0,1,$325_pw,none,April 2010,3146,2010,4,IRIS,325,Other
3392,"4/39 OSBORNE AVENUE, GLEN IRIS",-37.854684,145.046887,1.0,1.0,1,$280_pw,Rental_residential,May 2010,3146,2010,5,IRIS,280,Other
3405,"11/11 BELMONT AVENUE, GLEN IRIS",-37.85782,145.04799,1.0,1.0,1,$230_per_week,Rental_residential,August 2010,3146,2010,8,IRIS,230,Other
3434,"55A MAITLAND STREET, GLEN IRIS",-37.854229,145.042819,2.0,1.0,2,$420_per_week,House,October 2010,3146,2010,10,IRIS,420,House
3559,"32/1495 MALVERN ROAD, GLEN IRIS",-37.853323,145.044333,3.0,2.0,1,$550_per_week,none,August 2010,3146,2010,8,IRIS,550,Other
3577,"4/4 MAVERSTON STREET, GLEN IRIS",-37.851673,145.077802,2.0,1.0,1,$340_per_week,Rental_residential,April 2010,3146,2010,4,IRIS,340,Other
3596,"7/6 CRESWICK STREET, GLEN IRIS",-37.85272,145.044121,2.0,1.0,1,$325,Available Now,November 2010,3146,2010,11,IRIS,325,Other
3651,"15 WEBB STREET, GLEN IRIS",-37.848619,145.067073,3.0,1.0,2,$399_per_week,none,March 2010,3146,2010,3,IRIS,399,Other
3709,"1 / 28 QUEENS PARADE, GLEN IRIS",-37.85246,145.092056,3.0,1.0,1,$330_per_week,Unit,November 2010,3146,2010,11,IRIS,330,Apartment
3830,"3/13 ALFRED ROAD, GLEN IRIS",-37.851255,145.090112,3.0,2.0,1,$530,Townhouse,December 2010,3146,2010,12,IRIS,530,House
3878,"9A LITHGOW STREET, GLEN IRIS",-37.850125,145.081979,2.0,1.0,1,$450_pw,House,June 2010,3146,2010,6,IRIS,450,House
3906,"9/6 OSBORNE AVENUE, GLEN IRIS",-37.8578,145.046737,2.0,1.0,1,$320_per_week,Rental_residential,March 2010,3146,2010,3,IRIS,320,Other
3916,"3/48 MAITLAND STREET, GLEN IRIS",-37.857508,145.042175,3.0,1.0,1,$370,Available Now,September 2010,3146,2010,9,IRIS,370,Other
3925,"4/1483 HIGH STREET, GLEN IRIS",-37.859516,145.053788,2.0,1.0,1,$430,none,July 2010,3146,2010,7,IRIS,430,Other
4017,"2/1 WOLSELEY AVENUE, GLEN WAVERLEY",-37.879047,145.173949,4.0,2.0,2,$550,Townhouse,February 2010,3150,2010,2,WAVERLEY,550,House
4119,"13 THOMPSON STREET, GLEN WAVERLEY",-37.867436,145.170246,3.0,1.0,2,$365_pw,none,August 2010,3150,2010,8,WAVERLEY,365,Other
4120,"13 THOMPSON STREET, GLEN WAVERLEY",-37.867436,145.170246,3.0,1.0,2,$330_per_week,none,July 2010,3150,2010,7,WAVERLEY,330,Other
4129,"13 WOODLEA DRIVE, GLEN WAVERLEY",-37.90147,145.157313,3.0,1.0,1,$365_per_week,House,November 2010,3150,2010,11,WAVERLEY,365,House
4130,"13 WOODLEA DRIVE, GLEN WAVERLEY",-37.90147,145.157313,3.0,1.0,1,$375_per_week,House,October 2010,3150,2010,10,WAVERLEY,375,House
4141,"46 WESTLANDS ROAD, GLEN WAVERLEY",-37.873788,145.178888,4.0,1.0,2,$380_pw,none,February 2010,3150,2010,2,WAVERLEY,380,Other
4240,"2/318 BLACKBURN ROAD, GLEN WAVERLEY",-37.880084,145.146916,2.0,1.0,1,$280_p.w.,none,July 2010,3150,2010,7,WAVERLEY,280,Other
4406,"7/60 AVENDON BOULEVARD, GLEN WAVERLEY",-37.881058,145.151602,3.0,2.0,0,$410_pw,none,April 2010,3150,2010,4,WAVERLEY,410,Other
4423,"3 PLYMOUTH STREET, GLEN WAVERLEY",-37.863354,145.174359,3.0,1.0,2,$350,House,October 2010,3150,2010,10,WAVERLEY,350,House
4469,"18 BRIGHTON STREET, GLEN WAVERLEY",-37.872417,145.174158,3.0,1.0,1,$345_pw,House,March 2010,3150,2010,3,WAVERLEY,345,House
4470,"18 BRIGHTON STREET, GLEN WAVERLEY",-37.872417,145.174158,3.0,1.0,1,$370_pw,House,February 2010,3150,2010,2,WAVERLEY,370,House
4556,"2/19 MARTIN PLACE, GLEN WAVERLEY",-37.868465,145.163152,2.0,1.0,1,$330,Unit,May 2010,3150,2010,5,WAVERLEY,330,Apartment
4658,"1/19 HUNTER STREET, GLEN WAVERLEY",-37.874613,145.150297,3.0,2.0,0,$400,none,October 2010,3150,2010,10,WAVERLEY,400,Other
4659,"1/19 HUNTER STREET, GLEN WAVERLEY",-37.874613,145.150297,3.0,2.0,0,$400_p.w.,none,September 2010,3150,2010,9,WAVERLEY,400,Other
4660,"1/19 HUNTER STREET, GLEN WAVERLEY",-37.874613,145.150297,3.0,2.0,0,$370_pw,none,August 2010,3150,2010,8,WAVERLEY,370,Other
4661,"1/19 HUNTER STREET, GLEN WAVERLEY",-37.874613,145.150297,3.0,2.0,0,$370_pw,none,June 2010,3150,2010,6,WAVERLEY,370,Other
4662,"1/19 HUNTER STREET, GLEN WAVERLEY",-37.874613,145.150297,3.0,2.0,0,$370_p.w.,none,March 2010,3150,2010,3,WAVERLEY,370,Other
4804,"1/7 KALONGA COURT, GLEN WAVERLEY",-37.893094,145.164516,3.0,1.0,2,$370_per_week,House,December 2010,3150,2010,12,WAVERLEY,370,House
4915,"52 CALLAGHAN AVENUE, GLEN WAVERLEY",-37.894584,145.15412,4.0,2.0,2,$575_Weekly,House,January 2010,3150,2010,1,WAVERLEY,575,House
4981,"10 BELMONT ROAD, GLEN WAVERLEY",-37.861799,145.158415,3.0,1.0,1,$335_Weekly,House,June 2010,3150,2010,6,WAVERLEY,335,House
5017,"4 HIGHVALE ROAD, GLEN WAVERLEY",-37.862198,145.167829,3.0,2.0,2,$365_p.w.,House,April 2010,3150,2010,4,WAVERLEY,365,House
5018,"4 HIGHVALE ROAD, GLEN WAVERLEY",-37.862198,145.167829,3.0,2.0,2,$380_pw,House,April 2010,3150,2010,4,WAVERLEY,380,House
5112,"22 KENNEDY STREET, GLEN WAVERLEY",-37.876475,145.170261,4.0,2.0,1,$430_pw,House,April 2010,3150,2010,4,WAVERLEY,430,House
5156,"4 LARPENT STREET, GLEN WAVERLEY",-37.870663,145.168586,5.0,2.0,2,$360_pw,House,March 2010,3150,2010,3,WAVERLEY,360,House
5334,"695 HIGH STREET ROAD, GLEN WAVERLEY",-37.87274,145.154437,5.0,2.0,1,$430_per_week,House,November 2010,3150,2010,11,WAVERLEY,430,House
5357,"9 GARWAIN PARADE, GLEN WAVERLEY",-37.869928,145.181587,3.0,2.0,1,$365_per_week,House,August 2010,3150,2010,8,WAVERLEY,365,House
5373,"39 CAMBRIDGE DRIVE, GLEN WAVERLEY",-37.891626,145.150224,4.0,2.0,2,$425_p.w.,House,December 2010,3150,2010,12,WAVERLEY,425,House
5390,"3 EASTBOURNE COURT, GLEN WAVERLEY",-37.898747,145.170494,3.0,1.0,1,$320_per_week,House,February 2010,3150,2010,2,WAVERLEY,320,House
5397,"1/1 MARTIN PLACE, GLEN WAVERLEY",-37.8685389,145.1614244,4.0,2.0,2,$330_per_week,Townhouse,February 2010,3150,2010,2,WAVERLEY,330,House
5480,"34 BOGONG AVENUE, GLEN WAVERLEY",-37.881636,145.160218,4.0,2.0,1,$360_per_week,House,January 2010,3150,2010,1,WAVERLEY,360,House
5550,"12 CYPRESS AVENUE, GLEN WAVERLEY",-37.862985,145.151872,3.0,2.0,1,$380_pw,House,August 2010,3150,2010,8,WAVERLEY,380,House
5639,"57 WILSON ROAD, GLEN WAVERLEY",-37.886121,145.173968,5.0,2.0,2,$550_p.w.,House,July 2010,3150,2010,7,WAVERLEY,550,House
5768,"2/22 GARRISSON DRIVE, GLEN WAVERLEY",-37.879004,145.174557,2.0,1.0,1,$310_per_week,none,May 2010,3150,2010,5,WAVERLEY,310,Other
5952,"766 HIGHBURY ROAD, GLEN WAVERLEY",-37.863458,145.179881,4.0,2.0,2,$425_p.w.,House,April 2010,3150,2010,4,WAVERLEY,425,House
6001,"480 SPRINGVALE ROAD, GLEN WAVERLEY",-37.897694,145.163071,4.0,1.0,1,$390_per_week,House,April 2010,3150,2010,4,WAVERLEY,390,House
6140,"3 VINE COURT, GLEN WAVERLEY",-37.883298,145.182509,3.0,2.0,4,$430_p.w.,Rental_residential,September 2010,3150,2010,9,WAVERLEY,430,Other
6260,"1280 'WOODLANDS' COTTAGE, GLENAROUA",-37.111242,144.9502551,2.0,1.0,1,$130_Weekly,House,November 2010,3764,2010,11,GLENAROUA,130,House
50,"9 HARRISON STREET, BENDIGO",-36.750851,144.267259,2.0,1.0,2,$330_per_week,House,September 2010,3550,2010,9,BENDIGO,330,House
51,"9 HARRISON STREET, BENDIGO",-36.750851,144.267259,2.0,1.0,2,$330_per_week,House,June 2010,3550,2010,6,BENDIGO,330,House
126,"59 ARNOLD STREET, BENDIGO",-36.75167,144.285176,2.0,1.0,0,$210_per_week,House,May 2010,3550,2010,5,BENDIGO,210,House
144,"16 CASLEY STREET, BENDIGO",-36.749741,144.262432,3.0,1.0,1,$240_per_week,House,July 2010,3550,2010,7,BENDIGO,240,House
145,"16 CASLEY STREET, BENDIGO",-36.749741,144.262432,3.0,1.0,1,$240_per_week,House,January 2010,3550,2010,1,BENDIGO,240,House
197,"3/9 ACACIA STREET, BENDIGO",-36.755722,144.271259,3.0,2.0,1,$525,none,August 2010,3550,2010,8,BENDIGO,525,Other
198,"3/9 ACACIA STREET, BENDIGO",-36.755722,144.271259,3.0,2.0,1,$510_-_$525,none,January 2010,3550,2010,1,BENDIGO,525,Other
428,"5/734 CENTRE ROAD, BENTLEIGH EAST",-37.921445,145.060025,2.0,1.0,1,$265_Weekly,Rental_residential,May 2010,3165,2010,5,EAST,265,Other
519,"2/41 EAST BOUNDARY ROAD, BENTLEIGH EAST",-37.931576,145.056226,3.0,1.0,1,$360_pw,none,April 2010,3165,2010,4,EAST,360,Other
527,"124A MACKIE ROAD, BENTLEIGH EAST",-37.911294,145.076072,3.0,2.0,1,$430_p.w.,House,December 2010,3165,2010,12,EAST,430,House
756,"607 SOUTH ROAD, BENTLEIGH EAST",-37.934791,145.051289,3.0,1.0,3,$450_pw,House,April 2010,3165,2010,4,EAST,450,House
900,"14 ROWLAND STREET, BENTLEIGH EAST",-37.934546,145.059897,2.0,1.0,1,$350_pw,none,April 2010,3165,2010,4,EAST,350,Other
968,"4 NORVILLE STREET, BENTLEIGH EAST",-37.9336,145.066999,6.0,2.0,3,$600_pw,Available Now,December 2010,3165,2010,12,EAST,600,Other
969,"4 NORVILLE STREET, BENTLEIGH EAST",-37.9336,145.066999,6.0,2.0,3,$950_pw,Available Now,November 2010,3165,2010,11,EAST,950,Other
970,"4 NORVILLE STREET, BENTLEIGH EAST",-37.9336,145.066999,6.0,2.0,3,$999,Available Now,November 2010,3165,2010,11,EAST,999,Other
1005,"12 CARINYA ROAD, BENTLEIGH EAST",-37.921553,145.078111,3.0,1.0,2,$435,Rental_residential,February 2010,3165,2010,2,EAST,435,Other
