,address,latitude,longitude,nbed,nbath,ncar,price,type,historical_dates,postcode,year,month,suburb,weekly_rent,residence_type
53,"49 ADELAIDE STREET, CHEWTON",-37.086142,144.253413,3.0,2.0,2,$350_pw,House,January 2012,3451,2012,1,CHEWTON,350,House
94,"16 STEELE STREET, CHEWTON",-37.0797293,144.248306,3.0,2.0,2,$330_pw,House,July 2012,3451,2012,7,CHEWTON,330,House
112,"114 FRYERS ROAD, CHEWTON",-37.094488,144.2554,2.0,1.0,3,$235_pw,House,January 2012,3451,2012,1,CHEWTON,235,House
128,"173 MAIN ROAD, CHEWTON",-37.080952,144.259378,2.0,1.0,0,$270_pw,House,August 2012,3451,2012,8,CHEWTON,270,House
129,"173 MAIN ROAD, CHEWTON",-37.080952,144.259378,2.0,1.0,0,$270_pw,House,April 2012,3451,2012,4,CHEWTON,270,House
181,"17 PARK STREET, CHILTERN",-36.148025,146.608721,3.0,2.0,0,$190,Rental_residential,May 2012,3683,2012,5,CHILTERN,190,Other
182,"17 PARK STREET, CHILTERN",-36.148025,146.608721,3.0,2.0,0,$190,Rental_residential,April 2012,3683,2012,4,CHILTERN,190,Other
201,"2/20 NICKLESS STREET, CHILTERN",-36.154038,146.602977,2.0,1.0,2,$185_pw,Rental_residential,March 2012,3683,2012,3,CHILTERN,185,Other
209,"3 MARTINS LANE, CHILTERN",-36.1514034,146.6082599,2.0,1.0,1,$210,Townhouse,February 2012,3683,2012,2,CHILTERN,210,House
250,"2/56 ALBERT ROAD, CHILTERN",-36.14908,146.604709,2.0,1.0,1,$175_pw,House,June 2012,3683,2012,6,CHILTERN,175,House
350,"27 SWITCHBACK ROAD, CHIRNSIDE PARK",-37.745383,145.332843,3.0,1.0,1,$370_per_week,House,October 2012,3116,2012,10,PARK,370,House
413,"66 ROSEMAN ROAD, CHIRNSIDE PARK",-37.746928,145.33598,3.0,1.0,1,$300_pw,House,May 2012,3116,2012,5,PARK,300,House
414,"66 ROSEMAN ROAD, CHIRNSIDE PARK",-37.746928,145.33598,3.0,1.0,1,$300_pw,House,April 2012,3116,2012,4,PARK,300,House
426,"53 VICTORIA ROAD, CHIRNSIDE PARK",-37.755744,145.335116,3.0,1.0,1,$295_per_week,none,July 2012,3116,2012,7,PARK,295,Other
431,"25 CLUBPOINT DRIVE, CHIRNSIDE PARK",-37.7526153,145.3270934,3.0,2.0,1,$350_pw,House,February 2012,3116,2012,2,PARK,350,House
492,"55 CHIRNSIDE DRIVE, CHIRNSIDE PARK",-37.754336,145.320414,4.0,2.0,2,$400_pw,House,June 2012,3116,2012,6,PARK,400,House
493,"55 CHIRNSIDE DRIVE, CHIRNSIDE PARK",-37.754336,145.320414,4.0,2.0,2,$400_pw,House,May 2012,3116,2012,5,PARK,400,House
516,"56 MUIR ROAD, CHRISTMAS HILLS",-37.657453,145.338221,2.0,1.0,0,$340_per_week,Rental_residential,May 2012,3775,2012,5,HILLS,340,Other
535,"136 WESTERING ROAD, CHRISTMAS HILLS",-37.681579,145.268052,4.0,2.0,2,$400_per_week,none,July 2012,3775,2012,7,HILLS,400,Other
536,"136 WESTERING ROAD, CHRISTMAS HILLS",-37.681579,145.268052,4.0,2.0,2,$400_per_week,none,May 2012,3775,2012,5,HILLS,400,Other
537,"1251 SKYLINE ROAD, CHRISTMAS HILLS",-37.626424,145.352993,4.0,2.0,2,$600_per_week,House,June 2012,3775,2012,6,HILLS,600,House
538,"23 WESTERING ROAD, CHRISTMAS HILLS",-37.673706,145.275099,5.0,2.0,7,$950,House,April 2012,3775,2012,4,HILLS,950,House
539,"23 WESTERING ROAD, CHRISTMAS HILLS",-37.673706,145.275099,5.0,2.0,7,$950,House,February 2012,3775,2012,2,HILLS,950,House
663,"17 AUCHTERLONIE CRESCENT, CHURCHILL",-38.316505,146.414675,3.0,2.0,1,$260_per_week,House,July 2012,3842,2012,7,CHURCHILL,260,House
679,"13 GUNDAROO PLACE, CHURCHILL",-38.320975,146.423926,3.0,1.0,0,$210_pw,House,November 2012,3842,2012,11,CHURCHILL,210,House
706,"38 COOLABAH DRIVE, CHURCHILL",-38.303151,146.416263,3.0,1.0,1,$195_per_week,House,August 2012,3842,2012,8,CHURCHILL,195,House
719,"48 MCDONALD WAY, CHURCHILL",-38.312359,146.412762,3.0,1.0,1,$195_pw,Rental_residential,December 2012,3842,2012,12,CHURCHILL,195,Other
785,"4 CASEY COURT, CLARINDA",-37.942898,145.109007,3.0,1.0,2,$360_per_week,House,April 2012,3169,2012,4,CLARINDA,360,House
812,"UNIT 1/19 ELDER STREET, CLARINDA",-37.928967,145.103913,2.0,1.0,1,$290_pw,Unit,August 2012,3169,2012,8,CLARINDA,290,Apartment
912,"20 CRAWFORD ROAD, CLARINDA",-37.929396,145.101594,2.0,1.0,1,$315_pw,House,July 2012,3169,2012,7,CLARINDA,315,House
913,"20 CRAWFORD ROAD, CLARINDA",-37.929396,145.101594,2.0,1.0,1,$315_per_week,House,June 2012,3169,2012,6,CLARINDA,315,House
914,"20 CRAWFORD ROAD, CLARINDA",-37.929396,145.101594,2.0,1.0,1,$315_per_week,House,April 2012,3169,2012,4,CLARINDA,315,House
1011,"554 HEATHS LANE, CLARKEFIELD",-37.460714,144.804313,3.0,1.0,2,$250_pw,House,February 2012,3430,2012,2,CLARKEFIELD,250,House
1012,"554 HEATHS LANE, CLARKEFIELD",-37.460714,144.804313,3.0,1.0,2,$250_pw,House,January 2012,3430,2012,1,CLARKEFIELD,250,House
1075,"2/29 GLENBROOK AVENUE, CLAYTON NORTH",-37.908932,145.123434,4.0,3.0,1,$570_per_week,House,July 2012,3168,2012,7,NORTH,570,House
1081,"650 BLACKBURN ROAD, CLAYTON NORTH",-37.9037544,145.1426657,3.0,1.0,2,$310_Weekly,none,November 2012,3168,2012,11,NORTH,310,Other
1158,"1/31 BEVAN AVENUE, CLAYTON SOUTH",-37.934415,145.128568,3.0,1.0,1,$350_per_week,House,August 2012,3169,2012,8,SOUTH,350,House
1159,"1/31 BEVAN AVENUE, CLAYTON SOUTH",-37.934415,145.128568,3.0,1.0,1,$350_per_week,House,July 2012,3169,2012,7,SOUTH,350,House
1221,"12 BOTANIC DRIVE, CLAYTON SOUTH",-37.939354,145.13641,3.0,2.0,2,$450,none,November 2012,3169,2012,11,SOUTH,450,Other
1246,"3 GLENN COURT, CLAYTON SOUTH",-37.955304,145.136471,3.0,1.0,2,$365,House,November 2012,3169,2012,11,SOUTH,365,House
1553,"5C TENNYSON AVENUE, CLAYTON SOUTH",-37.9333826,145.1302077,3.0,2.0,1,$409_per_week,Townhouse,April 2012,3169,2012,4,SOUTH,409,House
1562,"3/44 OAKES AVENUE, CLAYTON SOUTH",-37.935969,145.133936,2.0,1.0,1,$260_p.w.,House,September 2012,3169,2012,9,SOUTH,260,House
1563,"3/44 OAKES AVENUE, CLAYTON SOUTH",-37.935969,145.133936,2.0,1.0,1,$260_p.w.,House,August 2012,3169,2012,8,SOUTH,260,House
1598,"13 SPRING VALLEY DRIVE, CLAYTON SOUTH",-37.947671,145.137097,3.0,2.0,2,$350,House,March 2012,3169,2012,3,SOUTH,350,House
1653,"4/15 OAKES AVENUE, CLAYTON SOUTH",-37.935135,145.129653,3.0,2.0,1,$370_pw,House,April 2012,3169,2012,4,SOUTH,370,House
1654,"4/15 OAKES AVENUE, CLAYTON SOUTH",-37.935135,145.129653,3.0,2.0,1,$370_p.w.,House,March 2012,3169,2012,3,SOUTH,370,House
1675,"10 EVERGREEN BOULEVARD, CLAYTON SOUTH",-37.93957,145.137404,3.0,2.0,2,$460,House,December 2012,3169,2012,12,SOUTH,460,House
1699,"A202/59 AUTUMN TERRACE, CLAYTON SOUTH",-37.9391661,145.1385972,1.0,1.0,1,$300_p.w.,Rental_residential,July 2012,3169,2012,7,SOUTH,300,Other
1712,"10 WARRAWEENA ROAD, CLAYTON SOUTH",-37.941496,145.11352,3.0,1.0,2,$380,House,August 2012,3169,2012,8,SOUTH,380,House
1713,"10 WARRAWEENA ROAD, CLAYTON SOUTH",-37.941496,145.11352,3.0,1.0,2,$350,House,May 2012,3169,2012,5,SOUTH,350,House
1732,"UNIT 11/38 WORDSWORTH AVENUE, CLAYTON SOUTH",-37.939192,145.132069,2.0,1.0,1,$300_per_week,Unit,July 2012,3169,2012,7,SOUTH,300,Apartment
1781,"4/31 MILTON AVENUE, CLAYTON SOUTH",-37.93671799,145.13082886,2.0,1.0,1,$270_Weekly,Unit,June 2012,3169,2012,6,SOUTH,270,Apartment
1782,"4/31 MILTON AVENUE, CLAYTON SOUTH",-37.93671799,145.13082886,2.0,1.0,1,$270_p.w.,Unit,May 2012,3169,2012,5,SOUTH,270,Apartment
1787,"1/60 OAKES AVENUE, CLAYTON SOUTH",-37.93713,145.136159,3.0,2.0,2,$280_p.w.,Townhouse,January 2012,3169,2012,1,SOUTH,280,House
1835,"2/52 BEDDOE AVENUE, CLAYTON",-37.911613,145.128216,3.0,3.0,1,$480_p.w.,Townhouse,June 2012,3168,2012,6,CLAYTON,480,House
1870,"6/58 KANOOKA GROVE, CLAYTON",-37.92192,145.125966,2.0,1.0,1,$350_p.w.,Townhouse,August 2012,3168,2012,8,CLAYTON,350,House
1871,"6/58 KANOOKA GROVE, CLAYTON",-37.92192,145.125966,2.0,1.0,1,$350_pw,Townhouse,July 2012,3168,2012,7,CLAYTON,350,House
1941,"30/2 GREENFIELD DRIVE, CLAYTON",-37.923181,145.128623,2.0,1.0,1,$390,Unit,October 2012,3168,2012,10,CLAYTON,390,Apartment
1999,"1266 CENTRE ROAD, CLAYTON",-37.9278306,145.1130031,2.0,1.0,2,$300_per_week,House,May 2012,3168,2012,5,CLAYTON,300,House
2000,"1266 CENTRE ROAD, CLAYTON",-37.9278306,145.1130031,2.0,1.0,2,$310_per_week,House,May 2012,3168,2012,5,CLAYTON,310,House
2001,"1266 CENTRE ROAD, CLAYTON",-37.9278306,145.1130031,2.0,1.0,2,$310_Weekly,House,March 2012,3168,2012,3,CLAYTON,310,House
2002,"1266 CENTRE ROAD, CLAYTON",-37.9278306,145.1130031,2.0,1.0,2,$310_per_week,House,February 2012,3168,2012,2,CLAYTON,310,House
2014,"UNIT 3/10 DENNIS STREET, CLAYTON",-37.9181978,145.1365816,2.0,1.0,1,$290_per_week,Unit,June 2012,3168,2012,6,CLAYTON,290,Apartment
2084,"33 ALICE STREET, CLAYTON",-37.917622,145.115287,4.0,2.0,1,$400_per_week,House,January 2012,3168,2012,1,CLAYTON,400,House
2109,"UNIT 2/20 BETTINA STREET, CLAYTON",-37.919178,145.137236,4.0,1.0,2,$500_Weekly,Townhouse,February 2012,3168,2012,2,CLAYTON,500,House
2144,"UNIT 1/5-7 THOMAS STREET, CLAYTON",-37.926088,145.12026,2.0,1.0,1,$330_per_week,Unit,July 2012,3168,2012,7,CLAYTON,330,Apartment
2149,"2/10 RENVER ROAD, CLAYTON",-37.918093,145.14382,3.0,2.0,1,$450_p.w.,Unit,July 2012,3168,2012,7,CLAYTON,450,Apartment
2150,"2/10 RENVER ROAD, CLAYTON",-37.918093,145.14382,3.0,2.0,1,$450_per_week,Unit,June 2012,3168,2012,6,CLAYTON,450,Apartment
2207,"UNIT 6/1927 DANDENONG ROAD, CLAYTON",-37.911756,145.123934,2.0,1.0,1,$300_per_week,Unit,April 2012,3168,2012,4,CLAYTON,300,Apartment
2208,"UNIT 6/1927 DANDENONG ROAD, CLAYTON",-37.911756,145.123934,2.0,1.0,1,$320_Weekly,Unit,March 2012,3168,2012,3,CLAYTON,320,Apartment
2209,"UNIT 6/1927 DANDENONG ROAD, CLAYTON",-37.911756,145.123934,2.0,1.0,1,$320_pw,Unit,February 2012,3168,2012,2,CLAYTON,320,Apartment
2231,"3/6 OLIVE STREET, CLAYTON",-37.930011,145.119843,2.0,1.0,2,$350_per_week,Unit,July 2012,3168,2012,7,CLAYTON,350,Apartment
2282,"6/13-15 ARNOTT STREET, CLAYTON",-37.917233,145.134413,3.0,1.0,1,$420_Weekly,Townhouse,February 2012,3168,2012,2,CLAYTON,420,House
2283,"6/13-15 ARNOTT STREET, CLAYTON",-37.917233,145.134413,3.0,1.0,1,$440_pw,Townhouse,January 2012,3168,2012,1,CLAYTON,440,House
2302,"2/54 PANORAMA STREET, CLAYTON",-37.921554,145.129661,3.0,2.0,2,$445_Weekly,Townhouse,March 2012,3168,2012,3,CLAYTON,445,House
2303,"2/54 PANORAMA STREET, CLAYTON",-37.921554,145.129661,3.0,2.0,2,$450_pw,Townhouse,March 2012,3168,2012,3,CLAYTON,450,House
2415,"16 WELLINGTON ROAD, CLAYTON",-37.915481,145.130845,1.0,2.0,0,$135_Weekly,House,May 2012,3168,2012,5,CLAYTON,135,House
2416,"16 WELLINGTON ROAD, CLAYTON",-37.915481,145.130845,1.0,2.0,0,$135_pw,House,April 2012,3168,2012,4,CLAYTON,135,House
2417,"16 WELLINGTON ROAD, CLAYTON",-37.915481,145.130845,1.0,2.0,0,$600_Weekly,House,April 2012,3168,2012,4,CLAYTON,600,House
2418,"16 WELLINGTON ROAD, CLAYTON",-37.915481,145.130845,1.0,2.0,0,$600_pw,House,March 2012,3168,2012,3,CLAYTON,600,House
2428,"5/645 BLACKBURN ROAD, CLAYTON",-37.917981,145.139598,1.0,1.0,1,$230_p.w.,Unit,June 2012,3168,2012,6,CLAYTON,230,Apartment
2449,"43 HARLINGTON STREET, CLAYTON",-37.923241,145.110846,3.0,1.0,1,$310_per_week,House,March 2012,3168,2012,3,CLAYTON,310,House
2450,"43 HARLINGTON STREET, CLAYTON",-37.923241,145.110846,3.0,1.0,1,$330_Weekly,House,March 2012,3168,2012,3,CLAYTON,330,House
2451,"43 HARLINGTON STREET, CLAYTON",-37.923241,145.110846,3.0,1.0,1,$350_pw,House,February 2012,3168,2012,2,CLAYTON,350,House
2452,"43 HARLINGTON STREET, CLAYTON",-37.923241,145.110846,3.0,1.0,1,$375_per_week,House,January 2012,3168,2012,1,CLAYTON,375,House
2573,"UNIT 1/40 ALICE STREET, CLAYTON",-37.9180741,145.1159047,2.0,1.0,2,$340_per_week,Unit,May 2012,3168,2012,5,CLAYTON,340,Apartment
2574,"UNIT 1/40 ALICE STREET, CLAYTON",-37.9180741,145.1159047,2.0,1.0,2,$350_per_week,Unit,May 2012,3168,2012,5,CLAYTON,350,Apartment
2575,"UNIT 1/40 ALICE STREET, CLAYTON",-37.9180741,145.1159047,2.0,1.0,2,$350_pw,Unit,March 2012,3168,2012,3,CLAYTON,350,Apartment
2584,"25 STOCKDALE AVENUE, CLAYTON",-37.90903,145.125797,3.0,1.0,2,$330_Weekly,House,November 2012,3168,2012,11,CLAYTON,330,House
2633,"2/1 EVA STREET, CLAYTON",-37.920577,145.113735,4.0,2.0,1,$580_pw,House,November 2012,3168,2012,11,CLAYTON,580,House
2634,"2/1 EVA STREET, CLAYTON",-37.920577,145.113735,4.0,2.0,1,$580_pw,House,October 2012,3168,2012,10,CLAYTON,580,House
2635,"2/1 EVA STREET, CLAYTON",-37.920577,145.113735,4.0,2.0,1,$620_per_week,House,September 2012,3168,2012,9,CLAYTON,620,House
2636,"2/1 EVA STREET, CLAYTON",-37.920577,145.113735,4.0,2.0,1,$600_pw,House,September 2012,3168,2012,9,CLAYTON,600,House
2637,"2/1 EVA STREET, CLAYTON",-37.920577,145.113735,4.0,2.0,1,$620_pw,House,August 2012,3168,2012,8,CLAYTON,620,House
2670,"UNIT 4/6 ARNOTT STREET, CLAYTON",-37.916706,145.135221,1.0,1.0,1,$330_Weekly,Unit,August 2012,3168,2012,8,CLAYTON,330,Apartment
2679,"1/67 MADELEINE ROAD, CLAYTON",-37.919718,145.118887,2.0,1.0,1,$310_per_week,none,November 2012,3168,2012,11,CLAYTON,310,Other
2680,"1/67 MADELEINE ROAD, CLAYTON",-37.919718,145.118887,2.0,1.0,1,$310_per_week,none,October 2012,3168,2012,10,CLAYTON,310,Other
2780,"6/10 HILLTOP AVENUE, CLAYTON",-37.905826,145.127234,2.0,1.0,1,$320_per_week,none,September 2012,3168,2012,9,CLAYTON,320,Other
2797,"4/22 WRIGHT STREET, CLAYTON",-37.922062,145.124729,2.0,1.0,1,$280_Weekly,House,January 2012,3168,2012,1,CLAYTON,280,House
2798,"4/22 WRIGHT STREET, CLAYTON",-37.922062,145.124729,2.0,1.0,1,$290_pw,House,January 2012,3168,2012,1,CLAYTON,290,House
2849,"1/56 PANORAMA STREET, CLAYTON",-37.921779,145.129744,1.0,1.0,1,$250_pw,Available Now,January 2012,3168,2012,1,CLAYTON,250,Other
2874,"9/34 WELLINGTON ROAD, CLAYTON",-37.915995,145.133951,1.0,1.0,1,$215,none,March 2012,3168,2012,3,CLAYTON,215,Other
2875,"9/34 WELLINGTON ROAD, CLAYTON",-37.915995,145.133951,1.0,1.0,1,$215,none,February 2012,3168,2012,2,CLAYTON,215,Other
2876,"9/34 WELLINGTON ROAD, CLAYTON",-37.915995,145.133951,1.0,1.0,1,$230,none,February 2012,3168,2012,2,CLAYTON,230,Other
2877,"9/34 WELLINGTON ROAD, CLAYTON",-37.915995,145.133951,1.0,1.0,1,$240,none,January 2012,3168,2012,1,CLAYTON,240,Other
2903,"9 SHADY MEWS, CLAYTON",-37.922424,145.12782,2.0,1.0,2,$365_per_week,Rental_residential,November 2012,3168,2012,11,CLAYTON,365,Other
2904,"9 SHADY MEWS, CLAYTON",-37.922424,145.12782,2.0,1.0,2,$365_pw,Rental_residential,October 2012,3168,2012,10,CLAYTON,365,Other
2905,"9 SHADY MEWS, CLAYTON",-37.922424,145.12782,2.0,1.0,2,$370_per_week,Rental_residential,March 2012,3168,2012,3,CLAYTON,370,Other
2912,"24 PRINCE CHARLES STREET, CLAYTON",-37.923408,145.114968,4.0,1.0,1,$450_Weekly,House,February 2012,3168,2012,2,CLAYTON,450,House
2913,"24 PRINCE CHARLES STREET, CLAYTON",-37.923408,145.114968,4.0,1.0,1,$450_pw,House,January 2012,3168,2012,1,CLAYTON,450,House
2952,"42 STOCKDALE AVENUE, CLAYTON",-37.910502,145.126035,4.0,2.0,1,$295_per_week,House,June 2012,3168,2012,6,CLAYTON,295,House
2980,"6/1-3 ARNOTT STREET, CLAYTON",-37.916516,145.134721,3.0,1.0,1,$400_pw,none,September 2012,3168,2012,9,CLAYTON,400,Other
2981,"6/1-3 ARNOTT STREET, CLAYTON",-37.916516,145.134721,3.0,1.0,1,$420_pw,none,August 2012,3168,2012,8,CLAYTON,420,Other
2982,"6/1-3 ARNOTT STREET, CLAYTON",-37.916516,145.134721,3.0,1.0,1,$420_pw,none,July 2012,3168,2012,7,CLAYTON,420,Other
3040,"3/320 HAUGHTON ROAD, CLAYTON",-37.919046,145.111712,2.0,1.0,2,$350_per_week,Available Now,August 2012,3168,2012,8,CLAYTON,350,Other
3041,"3/320 HAUGHTON ROAD, CLAYTON",-37.919046,145.111712,2.0,1.0,2,$350_per_week,Available Now,July 2012,3168,2012,7,CLAYTON,350,Other
3042,"3/320 HAUGHTON ROAD, CLAYTON",-37.919046,145.111712,2.0,1.0,2,$350_per_week,Available Now,June 2012,3168,2012,6,CLAYTON,350,Other
3055,"2B HOURIGAN AVENUE, CLAYTON",-37.917265,145.121913,3.0,2.0,2,$430_Weekly,Townhouse,January 2012,3168,2012,1,CLAYTON,430,House
3088,"3/52 BEDDOE AVENUE, CLAYTON",-37.911613,145.128216,4.0,4.0,2,$620_pw,Townhouse,June 2012,3168,2012,6,CLAYTON,620,House
3164,"1/1440 NORTH ROAD, CLAYTON",-37.913904,145.118858,3.0,1.0,1,$480_pw,Townhouse,November 2012,3168,2012,11,CLAYTON,480,House
3185,"1/70 EDINBURGH STREET, CLAYTON",-37.916705,145.117864,3.0,1.0,2,$400,House,February 2012,3168,2012,2,CLAYTON,400,House
3186,"1/70 EDINBURGH STREET, CLAYTON",-37.916705,145.117864,3.0,1.0,2,$370_pw,House,January 2012,3168,2012,1,CLAYTON,370,House
3234,"6 BANKSIA STREET, CLAYTON",-37.914523,145.119282,3.0,1.0,2,$385_per_week,none,March 2012,3168,2012,3,CLAYTON,385,Other
3417,"9 PRINCE CHARLES STREET, CLAYTON",-37.921871,145.114627,3.0,1.0,2,$330_per_week,House,September 2012,3168,2012,9,CLAYTON,330,House
3418,"9 PRINCE CHARLES STREET, CLAYTON",-37.921871,145.114627,3.0,1.0,2,$340_pw,House,August 2012,3168,2012,8,CLAYTON,340,House
3441,"16 BRUSHBOX COURT, CLAYTON",-37.92314,145.129478,2.0,1.0,2,$365_per_week,Townhouse,July 2012,3168,2012,7,CLAYTON,365,House
3442,"16 BRUSHBOX COURT, CLAYTON",-37.92314,145.129478,2.0,1.0,2,$385_per_week,Townhouse,June 2012,3168,2012,6,CLAYTON,385,House
3443,"16 BRUSHBOX COURT, CLAYTON",-37.92314,145.129478,2.0,1.0,2,$385_per_week,Townhouse,May 2012,3168,2012,5,CLAYTON,385,House
3444,"16 BRUSHBOX COURT, CLAYTON",-37.92314,145.129478,2.0,1.0,2,$385_per_week,Townhouse,February 2012,3168,2012,2,CLAYTON,385,House
3492,"3/7 MARY STREET, CLAYTON",-37.922061,145.12127,2.0,2.0,2,$395_pw,Townhouse,April 2012,3168,2012,4,CLAYTON,395,House
3500,"2/53 ALICE STREET, CLAYTON",-37.917891,145.117465,3.0,2.0,2,$410_per_week,Townhouse,August 2012,3168,2012,8,CLAYTON,410,House
3501,"2/53 ALICE STREET, CLAYTON",-37.917891,145.117465,3.0,2.0,2,$410_per_week,Townhouse,July 2012,3168,2012,7,CLAYTON,410,House
3610,"1/25 HOURIGAN AVENUE, CLAYTON",-37.917441,145.12482,3.0,2.0,1,$400_Weekly,Townhouse,February 2012,3168,2012,2,CLAYTON,400,House
3841,"1/17 BEDDOE AVENUE, CLAYTON",-37.90863,145.128127,3.0,2.0,1,$495_pw,Townhouse,March 2012,3168,2012,3,CLAYTON,495,House
3842,"1/17 BEDDOE AVENUE, CLAYTON",-37.90863,145.128127,3.0,2.0,1,$510_pw,Townhouse,February 2012,3168,2012,2,CLAYTON,510,House
3843,"1/17 BEDDOE AVENUE, CLAYTON",-37.90863,145.128127,3.0,2.0,1,$510_pw,Townhouse,January 2012,3168,2012,1,CLAYTON,510,House
3945,"6 VICTOR ROAD, CLEMATIS",-37.929987,145.420214,2.0,1.0,1,$300_per_week,none,July 2012,3782,2012,7,CLEMATIS,300,Other
3951,"278 BELGRAVE GEMBROOK ROAD, CLEMATIS",-37.928421,145.421523,4.0,2.0,2,$390_pw,House,October 2012,3782,2012,10,CLEMATIS,390,House
3962,"260 BELGRAVE GEMBROOK ROAD, CLEMATIS",-37.9292827,145.4253821,4.0,2.0,5,$400_per_week,House,April 2012,3782,2012,4,CLEMATIS,400,House
3963,"260 BELGRAVE GEMBROOK ROAD, CLEMATIS",-37.9292827,145.4253821,4.0,2.0,5,$400_per_week,House,March 2012,3782,2012,3,CLEMATIS,400,House
3964,"260 BELGRAVE GEMBROOK ROAD, CLEMATIS",-37.9292827,145.4253821,4.0,2.0,5,$450_per_week,House,March 2012,3782,2012,3,CLEMATIS,450,House
3987,"260A BELLBIRD ROAD, CLIFTON CREEK",-37.721096,147.703205,3.0,1.0,0,$255_per_week,House,January 2012,3875,2012,1,CREEK,255,House
4012,"29 FENWICK STREET, CLIFTON HILL",-37.789226,144.999862,2.0,1.0,0,$450_per_week,none,November 2012,3068,2012,11,HILL,450,Other
4057,"6/32 THE ESPLANADE, CLIFTON HILL",-37.787185,145.005992,2.0,1.0,1,$335_p.w.,Rental_residential,February 2012,3068,2012,2,HILL,335,Other
4084,"8/32 DWYER STREET, CLIFTON HILL",-37.787239,145.002994,1.0,1.0,1,$300_per_week,none,August 2012,3068,2012,8,HILL,300,Other
4140,"32 NOONE STREET, CLIFTON HILL",-37.793155,144.990768,3.0,2.0,1,$750_pw,House,March 2012,3068,2012,3,HILL,750,House
4244,"128 NOONE ST, CLIFTON HILL",-37.793754,144.996451,2.0,1.0,0,$465_p.w.,Rental_residential,February 2012,3068,2012,2,HILL,465,Other
4249,"128 NOONE STREET, CLIFTON HILL",-37.793818,144.996434,2.0,1.0,0,$465_pw,none,February 2012,3068,2012,2,HILL,465,Other
4271,"3/165 NOONE STREET, CLIFTON HILL",-37.7943443,145.0001585,2.0,2.0,1,$490_pw,Rental_residential,October 2012,3068,2012,10,HILL,490,Other
4272,"3/165 NOONE STREET, CLIFTON HILL",-37.7943443,145.0001585,2.0,2.0,1,$490_pw,Rental_residential,September 2012,3068,2012,9,HILL,490,Other
4280,"2/3 BARRIES PLACE, CLIFTON HILL",-37.7945179,144.9987711,1.0,1.0,1,$350_pw,none,May 2012,3068,2012,5,HILL,350,Other
4299,"144 GOLD STREET, CLIFTON HILL",-37.793178,144.990398,2.0,1.0,0,$525_pw,Rental_residential,July 2012,3068,2012,7,HILL,525,Other
4362,"29 YAMBLA STREET, CLIFTON HILL",-37.791802,145.000849,3.0,1.0,0,$525_per_week,House,August 2012,3068,2012,8,HILL,525,House
4376,"10/9 SOUTH TERRACE, CLIFTON HILL",-37.79235,144.99226,1.0,1.0,1,$300_p.w.,Flat,October 2012,3068,2012,10,HILL,300,Apartment
4415,"1 YAMBLA STREET, CLIFTON HILL",-37.792736,145.000619,2.0,1.0,1,$490_pw,none,October 2012,3068,2012,10,HILL,490,Other
4421,"4/1 BARRIES PLACE, CLIFTON HILL",-37.7945179,144.9987711,1.0,1.0,1,$360_pw,none,June 2012,3068,2012,6,HILL,360,Other
4428,"40 O GRADY STREET, CLIFTON HILL",-37.786837,144.998903,3.0,1.0,2,$735_pw,Rental_residential,September 2012,3068,2012,9,HILL,735,Other
4482,"15 COUNCIL STREET, CLIFTON HILL",-37.792726,144.986822,3.0,2.0,2,$675_pw,House,August 2012,3068,2012,8,HILL,675,House
4514,"57 CLIFFORD PLACE, CLIFTON HILL",-37.791503,145.001466,3.0,2.0,1,$685_pw,Townhouse,November 2012,3068,2012,11,HILL,685,House
4523,"152 GOLD STREET, CLIFTON HILL",-37.792994,144.990414,2.0,1.0,1,$550_pw,Rental_residential,November 2012,3068,2012,11,HILL,550,Other
4556,"135A NOONE STREET, CLIFTON HILL",-37.7942689,144.9984992,1.0,1.0,0,$450_per_week,House,June 2012,3068,2012,6,HILL,450,House
4562,"11/56 JOHN STREET, CLIFTON HILL",-37.789298,144.995897,2.0,2.0,1,$400_per_week,none,April 2012,3068,2012,4,HILL,400,Other
4600,"30 WRIGHT STREET, CLIFTON HILL",-37.78906,145.00174,2.0,1.0,1,$540_pw,Rental_residential,February 2012,3068,2012,2,HILL,540,Other
4716,"23 AITKEN STREET, CLIFTON HILL",-37.791383,145.000129,2.0,1.0,0,$420,Rental_residential,October 2012,3068,2012,10,HILL,420,Other
4723,"5/56 JOHN STREET, CLIFTON HILL",-37.78723145,144.99583435,1.0,1.0,1,$350_per_week,none,August 2012,3068,2012,8,HILL,350,Other
4751,"3 CLIFTON AVENUE, CLIFTON HILL",-37.792302,144.997499,3.0,1.0,0,$720_pw,House,July 2012,3068,2012,7,HILL,720,House
4759,"6 RUTLAND STREET, CLIFTON HILL",-37.794625,144.996207,2.0,1.0,1,$510,House,April 2012,3068,2012,4,HILL,510,House
4798,"5/60 FENWICK STREET, CLIFTON HILL",-37.786721,144.999896,2.0,1.0,1,$400_pw,Rental_residential,February 2012,3068,2012,2,HILL,400,Other
4805,"3/268 ALEXANDRA PARADE EAST, CLIFTON HILL",-37.7951063,144.9997451,1.0,1.0,1,$350_pw,none,January 2012,3068,2012,1,HILL,350,Other
4812,"1/211 GOLD STREET, CLIFTON HILL",-37.791306,144.990222,2.0,1.0,1,$400_per_week,none,August 2012,3068,2012,8,HILL,400,Other
4892,"4 COOLABAH WAY, CLIFTON SPRINGS",-38.148568,144.576425,4.0,2.0,3,$290_Weekly,none,April 2012,3222,2012,4,SPRINGS,290,Other
4965,"4 RYANS ROAD, CLONBINANE",-37.301373,145.067139,3.0,1.0,1,$220_Weekly,House,March 2012,3658,2012,3,CLONBINANE,220,House
4966,"4 RYANS ROAD, CLONBINANE",-37.301373,145.067139,3.0,1.0,1,$220_Weekly,House,April 2012,3658,2012,4,CLONBINANE,220,House
4994,"6 HANNAH STREET, CLUNES",-37.295479,143.78396,2.0,1.0,0,$205_per_week,Rental_residential,May 2012,3370,2012,5,CLUNES,205,Other
5014,"27A BECKWITH STREET, CLUNES",-37.299866,143.781619,3.0,1.0,1,$250_pw,House,June 2012,3370,2012,6,CLUNES,250,House
5054,"10 ALBERT STREET, CLUNES",-37.287198,143.78807,3.0,2.0,1,$230,House,November 2012,3370,2012,11,CLUNES,230,House
5104,"15 BECKWITH STREET, CLUNES",-37.298842,143.78253,3.0,1.0,2,$190_per_week,House,August 2012,3370,2012,8,CLUNES,190,House
5366,"2110 BALLARTO ROAD, CLYDE",-38.1434798,145.4038337,3.0,1.0,4,$300_pw,House,July 2012,3978,2012,7,CLYDE,300,House
5392,"12 BALLARTO ROAD, CLYDE",-38.13434,145.329343,4.0,2.0,4,$505,House,July 2012,3978,2012,7,CLYDE,505,House
5418,"110 CLYDE FIVE WAYS ROAD, CLYDE",-38.1595057,145.3188431,4.0,3.0,3,$450_per_week,House,November 2012,3978,2012,11,CLYDE,450,House
5419,"110 CLYDE FIVE WAYS ROAD, CLYDE",-38.1595057,145.3188431,4.0,3.0,3,$470_per_week,House,May 2012,3978,2012,5,CLYDE,470,House
5595,"2/86 CURDIE STREET, COBDEN",-38.327394,143.071066,2.0,1.0,1,$185_per_week,House,February 2012,3266,2012,2,COBDEN,185,House
5596,"2/86 CURDIE STREET, COBDEN",-38.327394,143.071066,2.0,1.0,1,$185_per_week,House,January 2012,3266,2012,1,COBDEN,185,House
5611,"74 WALKER STREET, COBDEN",-38.32536,143.080733,2.0,1.0,1,$185_per_week,House,September 2012,3266,2012,9,COBDEN,185,House
5641,"22 PARROTT STREET, COBDEN",-38.32951,143.076719,4.0,1.0,3,$230_per_week,House,October 2012,3266,2012,10,COBDEN,230,House
5651,"78 SILVESTER STREET, COBDEN",-38.326388,143.070045,3.0,1.0,2,$230_per_week,House,May 2012,3266,2012,5,COBDEN,230,House
5652,"78 SILVESTER STREET, COBDEN",-38.326388,143.070045,3.0,1.0,2,$250_per_week,House,March 2012,3266,2012,3,COBDEN,250,House
5736,"397 MCINTYRE ROAD, COBRAM EAST",-35.981858,145.675956,3.0,1.0,0,$150_per_week,House,May 2012,3644,2012,5,EAST,150,House
5771,"1/6 THOMPSON AVE, COBRAM",-35.9158,145.653804,2.0,1.0,1,$140_p.w.,House,March 2012,3644,2012,3,COBRAM,140,House
6035,"54 LIVINGSTONE STREET, COBURG NORTH",-37.7243911,144.9808818,2.0,1.0,2,$300_per_week,Available Now,November 2012,3058,2012,11,NORTH,300,Other
6139,"9 RONALD STREET, COBURG NORTH",-37.730771,144.980626,3.0,1.0,0,$300_p.w.,Rental_residential,February 2012,3058,2012,2,NORTH,300,Other
6202,"2 BELGRAVE STREET, COBURG",-37.742793,144.974864,3.0,1.0,1,$420_pw,none,February 2012,3058,2012,2,COBURG,420,Other
6219,"2/64 VICTORIA STREET, COBURG",-37.742205,144.958461,2.0,1.0,1,$300_per_week,none,April 2012,3058,2012,4,COBURG,300,Other
6272,"104A/1 MANNA GUM COURT, COBURG",-37.737353,144.976093,1.0,1.0,1,$330_per_week,Rental_residential,December 2012,3058,2012,12,COBURG,330,Other
6287,"11/51 STOCKADE AVENUE, COBURG",-37.7383322,144.9702595,5.0,4.0,1,$700_Weekly,none,October 2012,3058,2012,10,COBURG,700,Other
6354,"3/95 HARDING STREET, COBURG",-37.745848,144.975359,2.0,1.0,1,$330_pw,none,September 2012,3058,2012,9,COBURG,330,Other
6358,"101B/41-43 STOCKADE AVENUE, COBURG",-37.7370199,144.9707254,3.0,1.0,2,$430_per_week,none,August 2012,3058,2012,8,COBURG,430,Other
6359,"101B/41-43 STOCKADE AVENUE, COBURG",-37.7370199,144.9707254,3.0,1.0,2,$430,none,July 2012,3058,2012,7,COBURG,430,Other
6380,"8/144 NICHOLSON STREET, COBURG",-37.745665,144.978198,2.0,1.0,1,$340_pw,none,February 2012,3058,2012,2,COBURG,340,Other
6413,"177 URQUHART STREET, COBURG",-37.741016,144.975769,3.0,2.0,1,$475_pw,House,March 2012,3058,2012,3,COBURG,475,House
6430,"5 CARRON STREET, COBURG",-37.751754,144.963576,2.0,1.0,0,$350_pw,Rental_residential,December 2012,3058,2012,12,COBURG,350,Other
6439,"27 KELSON STREET, COBURG",-37.741122,144.955288,2.0,1.0,0,$310_pw,Rental_residential,April 2012,3058,2012,4,COBURG,310,Other
6483,"56 ROSE STREET, COBURG",-37.743155,144.947356,3.0,1.0,2,$400_pw,Rental_residential,February 2012,3058,2012,2,COBURG,400,Other
6523,"53 NICHOLSON STREET, COBURG",-37.753605,144.975761,2.0,1.0,1,$350_pw,none,August 2012,3058,2012,8,COBURG,350,Other
6624,"14A HARDWICK STREET, COBURG",-37.749445,144.968678,2.0,1.0,0,$415_pw,House,April 2012,3058,2012,4,COBURG,415,House
6654,"21/14 BELL STREET, COBURG",-37.7424804,144.9771819,2.0,1.0,1,$320_per_week,Rental_residential,October 2012,3058,2012,10,COBURG,320,Other
6717,"207/37-41 MUNRO STREET, COBURG",-37.744967,144.963371,2.0,1.0,1,$350_pw,Rental_residential,November 2012,3058,2012,11,COBURG,350,Other
6718,"207/37-41 MUNRO STREET, COBURG",-37.744967,144.963371,2.0,1.0,1,$350_pw,Rental_residential,August 2012,3058,2012,8,COBURG,350,Other
6719,"207/37-41 MUNRO STREET, COBURG",-37.744967,144.963371,2.0,1.0,1,$390_pw,Rental_residential,June 2012,3058,2012,6,COBURG,390,Other
6731,"2/17-18 CHAMP STREET, COBURG",-37.735876,144.967325,2.0,1.0,2,$330,Rental_residential,February 2012,3058,2012,2,COBURG,330,Other
6802,"13 COLLINS STREET, COBURG",-37.737022,144.954334,3.0,1.0,2,$395_per_week,Rental_residential,November 2012,3058,2012,11,COBURG,395,Other
6803,"13 COLLINS STREET, COBURG",-37.737022,144.954334,3.0,1.0,2,$395_per_week,Rental_residential,October 2012,3058,2012,10,COBURG,395,Other
6842,"114 SHAFTSBURY STREET, COBURG",-37.745519,144.955825,3.0,2.0,1,$550_per_week,none,December 2012,3058,2012,12,COBURG,550,Other
6873,"4/36 THE GROVE, COBURG",-37.751916,144.969914,2.0,1.0,1,$385_per_week,Townhouse,October 2012,3058,2012,10,COBURG,385,House
7039,"42 JAMIESON STREET, COBURG",-37.744647,144.951898,2.0,1.0,1,$370_pw,House,May 2012,3058,2012,5,COBURG,370,House
7056,"69 CAMPBELL STREET, COBURG",-37.753608,144.969821,2.0,2.0,1,$470_pw,Rental_residential,December 2012,3058,2012,12,COBURG,470,Other
7189,"31 RODDA STREET, COBURG",-37.743612,144.970075,2.0,1.0,1,$365_pw,none,May 2012,3058,2012,5,COBURG,365,Other
7199,"5 / 197 THE AVENUE, COBURG",-37.753771,144.97906,4.0,2.0,1,$500_per_week,none,March 2012,3058,2012,3,COBURG,500,Other
7209,"92A RENNIE STREET, COBURG",-37.751411,144.973948,3.0,1.0,1,$340_per_week,House,January 2012,3058,2012,1,COBURG,340,House
7226,"20/5 INDUSTRY LANE, COBURG",-37.7370286,144.9695513,2.0,1.0,1,$370_per_week,Townhouse,May 2012,3058,2012,5,COBURG,370,House
7309,"7/9 THE GROVE, COBURG",-37.751302,144.966562,2.0,1.0,1,$330_pw,none,February 2012,3058,2012,2,COBURG,330,Other
7334,"246 REYNARD STREET, COBURG",-37.74662,144.949666,4.0,1.0,3,$460,House,February 2012,3058,2012,2,COBURG,460,House
7335,"246 REYNARD STREET, COBURG",-37.74662,144.949666,4.0,1.0,3,$460,House,January 2012,3058,2012,1,COBURG,460,House
7351,"35 BAKERS ROAD, COBURG",-37.7274333,144.9624865,3.0,1.0,1,$450_pw,Available Now,April 2012,3058,2012,4,COBURG,450,Other
7352,"35 BAKERS ROAD, COBURG",-37.7274333,144.9624865,3.0,1.0,1,$330_pw,Available Now,February 2012,3058,2012,2,COBURG,330,Other
7353,"35 BAKERS ROAD, COBURG",-37.7274333,144.9624865,3.0,1.0,1,$330_pw,Available Now,January 2012,3058,2012,1,COBURG,330,Other
7360,"102A/1 MANNA GUM COURT, COBURG",-37.737353,144.976093,1.0,1.0,1,$335_per_week,Available Now,February 2012,3058,2012,2,COBURG,335,Other
7460,"214/19 PENTRIDGE BOULEVARD, COBURG",-37.738903,144.970583,1.0,1.0,1,$290_pw,Unit,August 2012,3058,2012,8,COBURG,290,Apartment
7511,"43 BELGRAVE STREET, COBURG",-37.745555,144.974835,3.0,1.0,2,$400_per_week,House,December 2012,3058,2012,12,COBURG,400,House
7602,"508/14-20 NICHOLSON STREET, COBURG",-37.755441,144.975716,1.0,1.0,1,$310_per_week,Rental_residential,August 2012,3058,2012,8,COBURG,310,Other
7603,"508/14-20 NICHOLSON STREET, COBURG",-37.755441,144.975716,1.0,1.0,1,$325,Rental_residential,June 2012,3058,2012,6,COBURG,325,Other
7619,"5/144 NICHOLSON STREET, COBURG",-37.745681,144.977713,2.0,1.0,1,$280_pw,none,May 2012,3058,2012,5,COBURG,280,Other
7650,"7 FISCHER STREET, COBURG",-37.735594,144.953568,3.0,1.0,1,$480_per_week,House,February 2012,3058,2012,2,COBURG,480,House
7724,"5/17-18 CHAMP STREET, COBURG",-37.735876,144.967325,1.0,1.0,1,$310,Rental_residential,April 2012,3058,2012,4,COBURG,310,Other
7738,"28 LINDA STREET, COBURG",-37.750645,144.960192,3.0,1.0,2,$520_per_week,Available Now,May 2012,3058,2012,5,COBURG,520,Other
7814,"3/170 GORDON STREET, COBURG",-37.742134,144.94979,2.0,1.0,1,$350_pw,none,March 2012,3058,2012,3,COBURG,350,Other
7901,"1/22 CHAMBERS STREET, COBURG",-37.748545,144.968059,2.0,1.0,1,$290_pw,Rental_residential,July 2012,3058,2012,7,COBURG,290,Other
7921,"18/2 ALICE STREET, COBURG",-37.743803,144.957178,2.0,1.0,1,$290_Weekly,none,August 2012,3058,2012,8,COBURG,290,Other
7967,"13 MAYFIELD STREET, COBURG",-37.743452,144.960753,3.0,1.0,2,$480_per_week,none,March 2012,3058,2012,3,COBURG,480,Other
8045,"2 BELGRAVE AVENUE, COCKATOO",-37.92732,145.495818,4.0,2.0,6,$380_pw,Rental_residential,September 2012,3781,2012,9,COCKATOO,380,Other
8061,"22 GLEN ROAD, COCKATOO",-37.937274,145.486381,2.0,1.0,0,$290_per_week,House,March 2012,3781,2012,3,COCKATOO,290,House
8085,"18 DEVON AVENUE, COCKATOO",-37.933329,145.495013,3.0,1.0,2,$310_pw,House,November 2012,3781,2012,11,COCKATOO,310,House
8112,"18 CARAWA STREET, COCKATOO",-37.926109,145.49772,3.0,2.0,1,$295_per_week,Rental_residential,September 2012,3781,2012,9,COCKATOO,295,Other
8127,"290 PATERNOSTER ROAD, COCKATOO",-37.960651,145.495412,3.0,1.0,2,$600_pw,House,April 2012,3781,2012,4,COCKATOO,600,House
8159,"80 RAINY HILL ROAD, COCKATOO",-37.91618,145.516997,3.0,1.0,0,$550_per_week,Rental_residential,May 2012,3781,2012,5,COCKATOO,550,Other
75,"111 CHANNEL STREET, COHUNA",-35.805715,144.215196,3.0,2.0,2,$200_pw,House,October 2012,3568,2012,10,COHUNA,200,House
76,"94 CHANNEL STREET, COHUNA",-35.804436,144.214723,2.0,1.0,1,$140_pw,House,June 2012,3568,2012,6,COHUNA,140,House
77,"94 CHANNEL STREET, COHUNA",-35.804436,144.214723,2.0,1.0,1,$140_pw,House,May 2012,3568,2012,5,COHUNA,140,House
88,"1949 GISBORNE ROAD, COIMADAI",-37.579675,144.460298,3.0,1.0,0,$200_Weekly,none,July 2012,3340,2012,7,COIMADAI,200,Other
101,"34 MURRAY STREET, COLAC EAST",-38.339894,143.590167,3.0,1.0,1,$195_pw,House,February 2012,3250,2012,2,EAST,195,House
104,"114 MARRINER STREET, COLAC EAST",-38.328298,143.62072,3.0,2.0,2,$360_pw,House,December 2012,3250,2012,12,EAST,360,House
105,"125 TRIGGS ROAD, COLAC EAST",-38.3289993,143.6301787,3.0,2.0,2,$270_pw,House,September 2012,3250,2012,9,EAST,270,House
106,"34 MURRAY EAST STREET, COLAC EAST",-38.338567,143.596163,3.0,1.0,1,$195_pw,House,April 2012,3250,2012,4,EAST,195,House
136,"1/27 DOWLING STREET, COLAC",-38.351997,143.582613,3.0,1.0,1,$270_pw,none,June 2012,3250,2012,6,COLAC,270,Other
153,"1/42A MANIFOLD STREET, COLAC",-38.33727,143.58236,2.0,1.0,1,$250_pw,none,December 2012,3250,2012,12,COLAC,250,Other
168,"5A MARKS STREET, COLAC",-38.338987,143.575414,1.0,1.0,1,$160_pw,none,November 2012,3250,2012,11,COLAC,160,Other
174,"78 MURRAY STREET, COLAC",-38.3396915,143.5883928,2.0,1.0,1,$270_per_week,House,September 2012,3250,2012,9,COLAC,270,House
217,"22 CHURCH STREET, COLAC",-38.335155,143.599279,3.0,1.0,1,$260_per_week,House,May 2012,3250,2012,5,COLAC,260,House
232,"15 QUAMBY AVENUE, COLAC",-38.333898,143.595916,3.0,2.0,1,$230_per_week,House,March 2012,3250,2012,3,COLAC,230,House
253,"1/7 CAMPBELL STREET, COLAC",-38.34482193,143.58259583,2.0,1.0,1,$210_pw,House,February 2012,3250,2012,2,COLAC,210,House
275,"22 GRAVESEND STREET, COLAC",-38.346357,143.5853,3.0,2.0,1,$195_per_week,none,October 2012,3250,2012,10,COLAC,195,Other
310,"10A WITHAM DRIVE, COLDSTREAM",-37.729977,145.382792,3.0,2.0,2,$380_per_week,House,October 2012,3770,2012,10,COLDSTREAM,380,House
321,"17 NORTH GATEWAY, COLDSTREAM",-37.727807,145.380801,3.0,2.0,1,$415_pw,House,September 2012,3770,2012,9,COLDSTREAM,415,House
352,"39B KILLARA ROAD, COLDSTREAM",-37.7234335,145.4013246,2.0,1.0,2,$350_per_week,House,April 2012,3770,2012,4,COLDSTREAM,350,House
353,"39B KILLARA ROAD, COLDSTREAM",-37.7234335,145.4013246,2.0,1.0,2,$350_pw,House,March 2012,3770,2012,3,COLDSTREAM,350,House
363,"37 INGRAM ROAD, COLDSTREAM",-37.7338,145.399124,4.0,2.0,2,$600_per_week,House,February 2012,3770,2012,2,COLDSTREAM,600,House
364,"37 INGRAM ROAD, COLDSTREAM",-37.7338,145.399124,4.0,2.0,2,$600_per_week,House,January 2012,3770,2012,1,COLDSTREAM,600,House
414,"60 KILLARA ROAD, COLDSTREAM",-37.724734,145.3852,4.0,2.0,1,$420_per_week,House,January 2012,3770,2012,1,COLDSTREAM,420,House
512,"8 JESSICA STREET, COLIGNAN",-34.52679543,142.36634023,3.0,1.0,2,$180_Weekly,none,February 2012,3494,2012,2,COLIGNAN,180,Other
587,"22/15-25 OXFORD STREET, COLLINGWOOD",-37.80752,144.983944,2.0,1.0,2,$460_pw,Rental_residential,October 2012,3066,2012,10,COLLINGWOOD,460,Other
612,"11/115 OXFORD STREET, COLLINGWOOD",-37.802615,144.984783,3.0,2.0,2,$1100_pw,none,October 2012,3066,2012,10,COLLINGWOOD,1100,Other
613,"11/115 OXFORD STREET, COLLINGWOOD",-37.802615,144.984783,3.0,2.0,2,$1000_pw,none,August 2012,3066,2012,8,COLLINGWOOD,1000,Other
664,"305/10 STANLEY STREET, COLLINGWOOD",-37.80182,144.984563,3.0,1.0,1,$620_pw,Rental_residential,January 2012,3066,2012,1,COLLINGWOOD,620,Other
695,"18/34 SMITH STREET, COLLINGWOOD",-37.807413,144.983606,1.0,1.0,1,$420_pw,Rental_residential,November 2012,3066,2012,11,COLLINGWOOD,420,Other
703,"5/15-17 BENDIGO STREET, COLLINGWOOD",-37.796087,144.992632,1.0,1.0,1,$270_pw,Rental_residential,November 2012,3066,2012,11,COLLINGWOOD,270,Other
704,"5/15-17 BENDIGO STREET, COLLINGWOOD",-37.796087,144.992632,1.0,1.0,1,$280_pw,Rental_residential,August 2012,3066,2012,8,COLLINGWOOD,280,Other
751,"14/34 SMITH STREET, COLLINGWOOD",-37.8072953,144.9828207,1.0,1.0,1,$375_pw,Rental_residential,February 2012,3066,2012,2,COLLINGWOOD,375,Other
799,"9/1 PEEL STREET, COLLINGWOOD",-37.805201,144.983757,1.0,1.0,1,$360_pw,Rental_residential,November 2012,3066,2012,11,COLLINGWOOD,360,Other
858,"321 WELLINGTON STREET, COLLINGWOOD",-37.795446,144.987781,2.0,1.0,0,$430_pw,none,September 2012,3066,2012,9,COLLINGWOOD,430,Other
874,"151 JOHNSTON STREET, COLLINGWOOD",-37.799711,144.990002,3.0,1.0,1,$650_pw,Townhouse,September 2012,3066,2012,9,COLLINGWOOD,650,House
875,"151 JOHNSTON STREET, COLLINGWOOD",-37.799711,144.990002,3.0,1.0,1,$650_pw,Townhouse,August 2012,3066,2012,8,COLLINGWOOD,650,House
876,"151 JOHNSTON STREET, COLLINGWOOD",-37.799711,144.990002,3.0,1.0,1,$650_pw,Townhouse,March 2012,3066,2012,3,COLLINGWOOD,650,House
877,"151 JOHNSTON STREET, COLLINGWOOD",-37.799711,144.990002,3.0,1.0,1,$695_pw,Townhouse,February 2012,3066,2012,2,COLLINGWOOD,695,House
1107,"2/17 ALEXANDER STREET, COLLINGWOOD",-37.795758,144.991069,1.0,1.0,1,$250_per_week,none,December 2012,3066,2012,12,COLLINGWOOD,250,Other
1108,"2/17 ALEXANDER STREET, COLLINGWOOD",-37.795758,144.991069,1.0,1.0,1,$260_per_week,none,December 2012,3066,2012,12,COLLINGWOOD,260,Other
1109,"2/17 ALEXANDER STREET, COLLINGWOOD",-37.795758,144.991069,1.0,1.0,1,$260_per_week,none,November 2012,3066,2012,11,COLLINGWOOD,260,Other
1116,"15/15-25 OXFORD STREET, COLLINGWOOD",-37.8076309,144.9840188,2.0,1.0,2,$470_pw,none,November 2012,3066,2012,11,COLLINGWOOD,470,Other
1156,"108/10 STANLEY STREET, COLLINGWOOD",-37.80182,144.984563,2.0,2.0,1,$620_pw,none,February 2012,3066,2012,2,COLLINGWOOD,620,Other
1177,"301/45 VICTORIA PARADE, COLLINGWOOD",-37.8087039,144.9841198,1.0,1.0,1,$375_pw,Rental_residential,May 2012,3066,2012,5,COLLINGWOOD,375,Other
1178,"301/45 VICTORIA PARADE, COLLINGWOOD",-37.8087039,144.9841198,1.0,1.0,1,$399_pw,Rental_residential,February 2012,3066,2012,2,COLLINGWOOD,399,Other
1211,"2 BUDD STREET, COLLINGWOOD",-37.798899,144.986824,3.0,1.0,1,$510_per_week,Unit,September 2012,3066,2012,9,COLLINGWOOD,510,Apartment
1212,"2 BUDD STREET, COLLINGWOOD",-37.798899,144.986824,3.0,1.0,1,$510_per_week,Unit,August 2012,3066,2012,8,COLLINGWOOD,510,Apartment
1241,"8/78 OXFORD STREET, COLLINGWOOD",-37.803368,144.985101,1.0,1.0,1,$390_per_week,Unit,September 2012,3066,2012,9,COLLINGWOOD,390,Apartment
1396,"202/11 HODDLE STREET, COLLINGWOOD",-37.8088988,144.9906795,1.0,1.0,1,$360_pw,Rental_residential,January 2012,3066,2012,1,COLLINGWOOD,360,Other
1402,"9/78 OXFORD STREET, COLLINGWOOD",-37.807815,144.983906,1.0,1.0,1,$420_per_week,Available Now,September 2012,3066,2012,9,COLLINGWOOD,420,Other
1458,"182 EASEY STREET, COLLINGWOOD",-37.79824,144.992589,2.0,1.0,0,$430_per_week,none,July 2012,3066,2012,7,COLLINGWOOD,430,Other
1563,"G01/40 STANLEY STREET, COLLINGWOOD",-37.8021816,144.9853665,1.0,1.0,1,$365,none,February 2012,3066,2012,2,COLLINGWOOD,365,Other
1614,"6/15-25 OXFORD STREET, COLLINGWOOD",-37.807803,144.984175,2.0,1.0,1,$500_pw,none,September 2012,3066,2012,9,COLLINGWOOD,500,Other
1639,"2/9-11 OTTER STREET, COLLINGWOOD",-37.800996,144.985087,2.0,1.0,1,$390_-_$1690_pw,Rental_residential,January 2012,3066,2012,1,COLLINGWOOD,1690,Other
1671,"33 MCLEODS ROAD, CONDAH",-37.949464,141.754979,3.0,1.0,2,$170_per_week,none,October 2012,3303,2012,10,CONDAH,170,Other
1699,"235 KNIGHTS ROAD, CONGUPNA",-36.323892,145.458638,3.0,1.0,1,$250_pw,none,September 2012,3633,2012,9,CONGUPNA,250,Other
1708,"1115 GOULBURN VALLEY HIGHWAY, CONGUPNA",-36.288698,145.425108,4.0,2.0,1,$200_pw,none,October 2012,3633,2012,10,CONGUPNA,200,Other
1710,"3490 SHEPPARTON - KATAMATITE ROAD, CONGUPNA",-36.292248,145.436731,4.0,2.0,2,$400_pw,House,October 2012,3633,2012,10,CONGUPNA,400,House
1919,"112 LONGFORD CRESCENT, COOLAROO",-37.655438,144.929122,3.0,1.0,4,$310_per_week,Rental_residential,August 2012,3048,2012,8,COOLAROO,310,Other
1920,"112 LONGFORD CRESCENT, COOLAROO",-37.655438,144.929122,3.0,1.0,4,$320,Rental_residential,July 2012,3048,2012,7,COOLAROO,320,Other
1956,"7 ALMURTA AVENUE, COOLAROO",-37.659159,144.935219,3.0,1.0,1,$320_Weekly,Rental_residential,August 2012,3048,2012,8,COOLAROO,320,Other
2017,"3/1 BENT STREET, COOMA",-36.241822,149.128946,1.0,1.0,0,$150_pw,none,October 2012,3616,2012,10,COOMA,150,Other
2033,"4 ALLENS ROAD, COOMOORA",-37.334815,144.185877,1.0,1.0,1,$250_per_week,House,October 2012,3461,2012,10,COOMOORA,250,House
2042,"210 DAYLESFORD MALMSBURY ROAD, COOMOORA",-37.325691,144.185619,4.0,1.0,0,$350_per_week,House,November 2012,3461,2012,11,COOMOORA,350,House
2083,"31 RYANS ROAD, COONGULLA",-37.892595,146.785392,3.0,1.0,2,$220_pw,House,March 2012,3860,2012,3,COONGULLA,220,House
2102,"5930 GALLUM ROAD, COORIEMUNGLE",-38.556994,143.1541907,3.0,1.0,1,$195_p.w.,House,September 2012,3268,2012,9,COORIEMUNGLE,195,House
2114,"635 BUNYIP RIVER ROAD, CORA LYNN",-38.138998,145.623274,3.0,1.0,2,$500_pw,none,August 2012,3814,2012,8,LYNN,500,Other
2266,"6/178 MATTHEWS ROAD, CORIO",-38.065074,144.340953,2.0,1.0,2,$240_per_week,Rental_residential,July 2012,3214,2012,7,CORIO,240,Other
2267,"6/178 MATTHEWS ROAD, CORIO",-38.065074,144.340953,2.0,1.0,2,$250_per_week,Rental_residential,June 2012,3214,2012,6,CORIO,250,Other
2318,"59 CLOVERDALE DRIVE, CORIO",-38.067956,144.347957,4.0,2.0,2,$390_Weekly,House,February 2012,3214,2012,2,CORIO,390,House
2319,"59 CLOVERDALE DRIVE, CORIO",-38.067956,144.347957,4.0,2.0,2,$390_Weekly,House,January 2012,3214,2012,1,CORIO,390,House
2348,"16 LODDON STREET, CORIO",-38.073727,144.350715,3.0,1.0,1,$260_p.w.,none,August 2012,3214,2012,8,CORIO,260,Other
2349,"16 LODDON STREET, CORIO",-38.073727,144.350715,3.0,1.0,1,$280_pw,none,May 2012,3214,2012,5,CORIO,280,Other
2378,"7 MINEHAN COURT, CORIO",-38.077977,144.346519,3.0,1.0,1,$280_p.w.,House,December 2012,3214,2012,12,CORIO,280,House
2401,"10 VICKERS COURT, CORIO",-38.067044,144.354752,3.0,1.0,1,$250_p.w.,House,July 2012,3214,2012,7,CORIO,250,House
2402,"10 VICKERS COURT, CORIO",-38.067044,144.354752,3.0,1.0,1,$265_pw,House,July 2012,3214,2012,7,CORIO,265,House
2471,"3 BUCHAN COURT, CORIO",-38.07746,144.355374,3.0,1.0,1,$230_pw,House,January 2012,3214,2012,1,CORIO,230,House
2557,"11 CLUNIES COURT, CORIO",-38.067515,144.341556,3.0,1.0,1,$295_pw,none,February 2012,3214,2012,2,CORIO,295,Other
2592,"12 CARAMUT COURT, CORIO",-38.066684,144.342205,3.0,2.0,2,$220_p.w.,House,April 2012,3214,2012,4,CORIO,220,House
2593,"12 CARAMUT COURT, CORIO",-38.066684,144.342205,3.0,2.0,2,$220_Weekly,House,March 2012,3214,2012,3,CORIO,220,House
2641,"37 CUTTY SARK ROAD, CORONET BAY",-38.438772,145.442029,3.0,1.0,2,$230_pw,House,May 2012,3984,2012,5,BAY,230,House
2642,"37 CUTTY SARK ROAD, CORONET BAY",-38.438772,145.442029,3.0,1.0,2,$230_pw,House,March 2012,3984,2012,3,BAY,230,House
2707,"25 GREENWICH GRANGE, CORONET BAY",-38.433751,145.443706,4.0,2.0,1,$330_pw,House,February 2012,3984,2012,2,BAY,330,House
2728,"29 SEMAPHORE STREET, CORONET BAY",-38.435814,145.442975,2.0,2.0,2,$230_pw,House,January 2012,3984,2012,1,BAY,230,House
2732,"1922 MIDLAND HIGHWAY, COROP",-36.458016,144.795608,2.0,1.0,2,$150_p.w.,House,August 2012,3559,2012,8,COROP,150,House
2734,"1914 MIDLAND HIGHWAY, COROP",-36.4857376,144.7047842,2.0,1.0,0,$170_p.w.,House,June 2012,3559,2012,6,COROP,170,House
2739,"521 CORANGAMITE LAKE ROAD, COROROOKE",-38.289201,143.522132,3.0,1.0,1,$170_pw,none,August 2012,3254,2012,8,COROROOKE,170,Other
2756,"523 CORANGAMITE LAKE ROAD, COROROOKE",-38.2890562,143.5225133,3.0,1.0,2,$170_pw,none,July 2012,3254,2012,7,COROROOKE,170,Other
2777,"124 CORANGAMITE LAKE ROAD, COROROOKE",-38.282141,143.511946,3.0,2.0,2,$235_pw,House,January 2012,3254,2012,1,COROROOKE,235,House
2812,"4 MITCHELL COURT, CORRYONG",-36.194683,147.900324,2.0,1.0,2,$145_per_week,none,August 2012,3707,2012,8,CORRYONG,145,Other
2835,"UNIT 4/154 HARRIS STREET, CORRYONG",-36.198582,147.89388,1.0,1.0,1,$105_per_week,none,October 2012,3707,2012,10,CORRYONG,105,Other
2846,"24 JEPHCOTT AVENUE, CORRYONG",-36.20032,147.900704,4.0,3.0,6,$240_per_week,House,February 2012,3707,2012,2,CORRYONG,240,House
2847,"24 JEPHCOTT AVENUE, CORRYONG",-36.20032,147.900704,4.0,3.0,6,$240_per_week,House,January 2012,3707,2012,1,CORRYONG,240,House
2852,"28 HAMILTON CRESCENT, CORRYONG",-36.195183,147.90018,3.0,1.0,2,$135_per_week,House,September 2012,3707,2012,9,CORRYONG,135,House
2853,"28 HAMILTON CRESCENT, CORRYONG",-36.195183,147.90018,3.0,1.0,2,$135_per_week,House,April 2012,3707,2012,4,CORRYONG,135,House
2878,"64 HARRIS STREET, CORRYONG",-36.195021,147.902679,3.0,1.0,1,$170_p.w.,House,July 2012,3707,2012,7,CORRYONG,170,House
2879,"64 HARRIS STREET, CORRYONG",-36.195021,147.902679,3.0,1.0,1,$170_per_week,House,March 2012,3707,2012,3,CORRYONG,170,House
2885,"805 NALANGIL ROAD, CORUNNUN",-38.276093,143.481628,3.0,1.0,1,$210_per_week,none,January 2012,3249,2012,1,CORUNNUN,210,Other
2905,"65 BARREENONG ROAD, COTTLES BRIDGE",-37.608175,145.212167,2.0,1.0,2,$380_p.w.,House,December 2012,3099,2012,12,BRIDGE,380,House
2907,"10 HILDEBRAND ROAD, COTTLES BRIDGE",-37.602332,145.217868,2.0,1.0,0,$370_Weekly,none,June 2012,3099,2012,6,BRIDGE,370,Other
2908,"10 HILDEBRAND ROAD, COTTLES BRIDGE",-37.602332,145.217868,2.0,1.0,0,$370_-_$400_per_week,none,May 2012,3099,2012,5,BRIDGE,400,Other
2909,"10 HILDEBRAND ROAD, COTTLES BRIDGE",-37.602332,145.217868,2.0,1.0,0,$400_per_week,none,March 2012,3099,2012,3,BRIDGE,400,Other
2910,"10 HILDEBRAND ROAD, COTTLES BRIDGE",-37.602332,145.217868,2.0,1.0,0,$400_-_$450_per_week,none,March 2012,3099,2012,3,BRIDGE,450,Other
2911,"10 HILDEBRAND ROAD, COTTLES BRIDGE",-37.602332,145.217868,2.0,1.0,0,$400_-_$450_per_week,none,February 2012,3099,2012,2,BRIDGE,450,Other
2912,"10 HILDEBRAND ROAD, COTTLES BRIDGE",-37.602332,145.217868,2.0,1.0,0,$400_per_week,none,January 2012,3099,2012,1,BRIDGE,400,Other
2913,"10 HILDEBRAND ROAD, COTTLES BRIDGE",-37.602332,145.217868,2.0,1.0,0,$400_-_$450_per_week,none,January 2012,3099,2012,1,BRIDGE,450,Other
2918,"10 HILDEBRAND RD, COTTLES BRIDGE",-37.602332,145.217868,2.0,1.0,0,$370_Weekly,none,June 2012,3099,2012,6,BRIDGE,370,Other
2959,"10 OUTLOOK DRIVE, COWES",-38.456911,145.205001,4.0,1.0,2,$320_per_week,House,September 2012,3922,2012,9,COWES,320,House
2983,"40 PLOVER STREET, COWES",-38.457503,145.212103,3.0,1.0,2,$240,House,May 2012,3922,2012,5,COWES,240,House
3000,"11 POBBLEBONK PLACE, COWES",-38.4567102,145.2240183,3.0,2.0,2,$365_per_week,House,July 2012,3922,2012,7,COWES,365,House
3001,"11 POBBLEBONK PLACE, COWES",-38.4567102,145.2240183,3.0,2.0,2,$385,House,July 2012,3922,2012,7,COWES,385,House
3045,"5/34-36 JENNER AVENUE, COWES",-38.4551416,145.2467173,2.0,1.0,1,$250,Townhouse,May 2012,3922,2012,5,COWES,250,House
3063,"7 PARKRIDGE CLOSE, COWES",-38.459731,145.256282,3.0,2.0,2,$310_per_week,House,July 2012,3922,2012,7,COWES,310,House
3211,"2 GREVILIA CLOSE, COWES",-38.461625,145.241525,3.0,2.0,2,$280_per_week,House,August 2012,3922,2012,8,COWES,280,House
3212,"2 GREVILIA CLOSE, COWES",-38.461625,145.241525,3.0,2.0,2,$340_per_week,House,May 2012,3922,2012,5,COWES,340,House
3233,"12 KOALA STREET, COWES",-38.455075,145.228525,3.0,1.0,2,$270,House,June 2012,3922,2012,6,COWES,270,House
3332,"71 CHURCH STREET, COWES",-38.452602,145.240046,3.0,1.0,2,$240_per_week,House,August 2012,3922,2012,8,COWES,240,House
3333,"71 CHURCH STREET, COWES",-38.452602,145.240046,3.0,1.0,2,$245,House,July 2012,3922,2012,7,COWES,245,House
3393,"7 POBBLEBONK PLACE, COWES",-38.4567102,145.2240183,3.0,2.0,2,$350_per_week,House,July 2012,3922,2012,7,COWES,350,House
3399,"2/64 JUSTICE ROAD, COWES",-38.4557179,145.2106686,3.0,2.0,2,$270,Townhouse,July 2012,3922,2012,7,COWES,270,House
3456,"54 SCENIC DRIVE, COWES",-38.460778,145.205415,3.0,1.0,2,$250_pw,House,January 2012,3922,2012,1,COWES,250,House
3465,"79 CHAPEL STREET, COWES",-38.450631,145.237243,3.0,1.0,2,$230_per_week,House,October 2012,3922,2012,10,COWES,230,House
3466,"79 CHAPEL STREET, COWES",-38.450631,145.237243,3.0,1.0,2,$265,House,July 2012,3922,2012,7,COWES,265,House
3485,"485 SETTLEMENT ROAD, COWES",-38.456405,145.213572,3.0,1.0,4,$250,House,March 2012,3922,2012,3,COWES,250,House
3535,"556 SETTLEMENT ROAD, COWES",-38.455855,145.206757,3.0,2.0,2,$240_per_week,House,November 2012,3922,2012,11,COWES,240,House
3536,"556 SETTLEMENT ROAD, COWES",-38.455855,145.206757,3.0,2.0,2,$240_pw,House,October 2012,3922,2012,10,COWES,240,House
3537,"556 SETTLEMENT ROAD, COWES",-38.455855,145.206757,3.0,2.0,2,$260,House,September 2012,3922,2012,9,COWES,260,House
3551,"480 TOONGABBIE/COWWARR ROAD, COWWARR",-38.019748,146.653656,3.0,1.0,3,$260,House,April 2012,3857,2012,4,COWWARR,260,House
3571,"5 CRICKET STREET, COWWARR",-38.013297,146.697389,5.0,2.0,0,$240_per_week,House,January 2012,3857,2012,1,COWWARR,240,House
3786,"2 WOODLANDS COURT, CRAIGIEBURN",-37.592569,144.929748,3.0,1.0,2,$320,none,April 2012,3064,2012,4,CRAIGIEBURN,320,Other
3787,"2 WOODLANDS COURT, CRAIGIEBURN",-37.592569,144.929748,3.0,1.0,2,$320_pw,none,March 2012,3064,2012,3,CRAIGIEBURN,320,Other
3879,"20 BOTTLEBRUSH ROAD, CRAIGIEBURN",-37.5740962,144.9137881,4.0,2.0,1,$300_per_week,none,July 2012,3064,2012,7,CRAIGIEBURN,300,Other
3972,"3 EGTON COURT, CRAIGIEBURN",-37.59984,144.932267,3.0,2.0,2,$300_per_week,Rental_residential,December 2012,3064,2012,12,CRAIGIEBURN,300,Other
3973,"3 EGTON COURT, CRAIGIEBURN",-37.59984,144.932267,3.0,2.0,2,$300_per_week,Rental_residential,November 2012,3064,2012,11,CRAIGIEBURN,300,Other
3986,"8 BRECON NOOK, CRAIGIEBURN",-37.608906,144.924308,3.0,1.0,0,$285_Weekly,House,June 2012,3064,2012,6,CRAIGIEBURN,285,House
4010,"274 WATERVIEW BOULEVARD, CRAIGIEBURN",-37.582363,144.907861,4.0,2.0,2,$375_pw,House,December 2012,3064,2012,12,CRAIGIEBURN,375,House
4031,"39 CARLISLE STREET, CRAIGIEBURN",-37.601518,144.937935,3.0,2.0,2,$315_p.w.,House,February 2012,3064,2012,2,CRAIGIEBURN,315,House
4040,"6 LARKWOOD LANE, CRAIGIEBURN",-37.607651,144.919158,3.0,1.0,1,$300_pw,House,January 2012,3064,2012,1,CRAIGIEBURN,300,House
4064,"24/60 CRADLE MOUNTAIN DRIVE, CRAIGIEBURN",-37.5739808,144.9235038,3.0,2.0,2,$320_per_week,Townhouse,December 2012,3064,2012,12,CRAIGIEBURN,320,House
4065,"24/60 CRADLE MOUNTAIN DRIVE, CRAIGIEBURN",-37.5739808,144.9235038,3.0,2.0,2,$340_per_week,Townhouse,December 2012,3064,2012,12,CRAIGIEBURN,340,House
4142,"54 GILLINGHAM CRESCENT, CRAIGIEBURN",-37.604385,144.931673,3.0,1.0,1,$285,House,July 2012,3064,2012,7,CRAIGIEBURN,285,House
4143,"54 GILLINGHAM CRESCENT, CRAIGIEBURN",-37.604385,144.931673,3.0,1.0,1,$295_pw,House,July 2012,3064,2012,7,CRAIGIEBURN,295,House
4153,"26 MOOR PARK DRIVE, CRAIGIEBURN",-37.6083268,144.922029,4.0,2.0,1,$320_per_week,House,July 2012,3064,2012,7,CRAIGIEBURN,320,House
4154,"26 MOOR PARK DRIVE, CRAIGIEBURN",-37.6083268,144.922029,4.0,2.0,1,$350_pw,House,June 2012,3064,2012,6,CRAIGIEBURN,350,House
4257,"33 PRINCES CIRCUIT, CRAIGIEBURN",-37.584038,144.936392,3.0,2.0,2,$365_per_week,House,September 2012,3064,2012,9,CRAIGIEBURN,365,House
4258,"33 PRINCES CIRCUIT, CRAIGIEBURN",-37.584038,144.936392,3.0,2.0,2,$365_Weekly,House,August 2012,3064,2012,8,CRAIGIEBURN,365,House
4396,"28 TRAFALGAR WAY, CRANBOURNE EAST",-38.098296,145.297601,4.0,2.0,2,$310_per_week,House,February 2012,3977,2012,2,EAST,310,House
4411,"22 DAN MORGAN DRIVE, CRANBOURNE EAST",-38.099713,145.318784,4.0,2.0,2,$390_per_week,House,March 2012,3977,2012,3,EAST,390,House
4412,"22 DAN MORGAN DRIVE, CRANBOURNE EAST",-38.099713,145.318784,4.0,2.0,2,$390_p.w.,House,January 2012,3977,2012,1,EAST,390,House
4540,"86 MOUNTAINVIEW BOULEVARD, CRANBOURNE NORTH",-38.081956,145.322394,4.0,2.0,2,$390_pw,House,May 2012,3977,2012,5,NORTH,390,House
4541,"86 MOUNTAINVIEW BOULEVARD, CRANBOURNE NORTH",-38.081956,145.322394,4.0,2.0,2,$400_pw,House,April 2012,3977,2012,4,NORTH,400,House
4542,"86 MOUNTAINVIEW BOULEVARD, CRANBOURNE NORTH",-38.081956,145.322394,4.0,2.0,2,$390_pw,House,April 2012,3977,2012,4,NORTH,390,House
4726,"14 ASPERA PLACE, CRANBOURNE NORTH",-38.0822575,145.2790713,4.0,2.0,2,$375_Weekly,House,March 2012,3977,2012,3,NORTH,375,House
4732,"138 ENDEAVOUR DRIVE, CRANBOURNE NORTH",-38.076849,145.270127,3.0,1.0,2,$270,House,February 2012,3977,2012,2,NORTH,270,House
4746,"14 ASPERA PL, CRANBOURNE NORTH",-38.0822575,145.2790713,4.0,2.0,2,$375_Weekly,House,March 2012,3977,2012,3,NORTH,375,House
4772,"4/20 HUON PARK ROAD, CRANBOURNE NORTH",-38.074527,145.27318,3.0,2.0,2,$315,none,February 2012,3977,2012,2,NORTH,315,Other
4879,"9 LUMINA AVENUE, CRANBOURNE NORTH",-38.073867,145.311814,4.0,2.0,2,$380_per_week,House,January 2012,3977,2012,1,NORTH,380,House
4896,"33 JOSEPHINE AVENUE, CRANBOURNE NORTH",-38.08147,145.2907,3.0,1.0,2,$285,House,February 2012,3977,2012,2,NORTH,285,House
4897,"33 JOSEPHINE AVENUE, CRANBOURNE NORTH",-38.08147,145.2907,3.0,1.0,2,$285,House,January 2012,3977,2012,1,NORTH,285,House
4947,"134 BROWNS ROAD, CRANBOURNE SOUTH",-38.151027,145.251109,5.0,2.0,1,$470_per_week,House,November 2012,3977,2012,11,SOUTH,470,House
4948,"134 BROWNS ROAD, CRANBOURNE SOUTH",-38.151027,145.251109,5.0,2.0,1,$500,House,September 2012,3977,2012,9,SOUTH,500,House
5085,"61 WILLORA CRESCENT, CRANBOURNE WEST",-38.104335,145.25968,3.0,1.0,2,$280_per_week,House,August 2012,3977,2012,8,WEST,280,House
5131,"10 NERRENA RISE, CRANBOURNE WEST",-38.096508,145.259518,3.0,2.0,2,$350_per_week,House,August 2012,3977,2012,8,WEST,350,House
5163,"19 MARNIE DRIVE, CRANBOURNE WEST",-38.102863,145.25812,3.0,1.0,0,$295,Rental_residential,March 2012,3977,2012,3,WEST,295,Other
5170,"28 SCOTT STREET, CRANBOURNE",-38.109806,145.280379,3.0,1.0,2,$240_Weekly,none,November 2012,3977,2012,11,CRANBOURNE,240,Other
5171,"28 SCOTT STREET, CRANBOURNE",-38.109806,145.280379,3.0,1.0,2,$250_Weekly,none,October 2012,3977,2012,10,CRANBOURNE,250,Other
5175,"5 BLAINROE CRESCENT, CRANBOURNE",-38.121289,145.252817,4.0,2.0,2,$380_pw,House,October 2012,3977,2012,10,CRANBOURNE,380,House
5209,"3 HARRY STREET, CRANBOURNE",-38.10985,145.276055,3.0,1.0,1,$300_pw,Rental_residential,June 2012,3977,2012,6,CRANBOURNE,300,Other
5218,"1/311 SOUTH GIPPSLAND HIGHWAY, CRANBOURNE",-38.09213,145.28015,2.0,1.0,1,$230,none,June 2012,3977,2012,6,CRANBOURNE,230,Other
5219,"1/311 SOUTH GIPPSLAND HIGHWAY, CRANBOURNE",-38.09213,145.28015,2.0,1.0,1,$230_pw,none,February 2012,3977,2012,2,CRANBOURNE,230,Other
5266,"27 PEPPERBUSH CIRCUIT, CRANBOURNE",-38.086679,145.281677,4.0,2.0,2,$320,House,March 2012,3977,2012,3,CRANBOURNE,320,House
5279,"39 BELLBRAE CRESCENT, CRANBOURNE",-38.092001,145.260427,3.0,2.0,2,$310_per_week,House,February 2012,3977,2012,2,CRANBOURNE,310,House
5280,"39 BELLBRAE CRESCENT, CRANBOURNE",-38.092001,145.260427,3.0,2.0,2,$310_pw,House,January 2012,3977,2012,1,CRANBOURNE,310,House
5317,"4/205 SLADEN STREET, CRANBOURNE",-38.113304,145.288071,2.0,1.0,1,$210_per_week,none,February 2012,3977,2012,2,CRANBOURNE,210,Other
5318,"4/205 SLADEN STREET, CRANBOURNE",-38.113304,145.288071,2.0,1.0,1,$210_pw,none,January 2012,3977,2012,1,CRANBOURNE,210,Other
5376,"23 LAMONT CRESCENT, CRANBOURNE",-38.099023,145.270836,3.0,1.0,1,$270_per_week,House,July 2012,3977,2012,7,CRANBOURNE,270,House
5377,"23 LAMONT CRESCENT, CRANBOURNE",-38.099023,145.270836,3.0,1.0,1,$270_per_week,House,June 2012,3977,2012,6,CRANBOURNE,270,House
5385,"14 ROBUSTA AVENUE, CRANBOURNE",-38.088643,145.287868,4.0,2.0,2,$345,House,April 2012,3977,2012,4,CRANBOURNE,345,House
5389,"11 GLENBOURNE ROAD, CRANBOURNE",-38.093097,145.271354,3.0,1.0,1,$350_per_week,House,June 2012,3977,2012,6,CRANBOURNE,350,House
5410,"53 HOTHAM STREET, CRANBOURNE",-38.099366,145.290009,3.0,1.0,2,$285_per_week,none,October 2012,3977,2012,10,CRANBOURNE,285,Other
5411,"53 HOTHAM STREET, CRANBOURNE",-38.099366,145.290009,3.0,1.0,2,$285_pw,none,September 2012,3977,2012,9,CRANBOURNE,285,Other
5455,"2/2 LAWSON CLOSE, CRANBOURNE",-38.106181,145.2679944,2.0,1.0,1,$280,Unit,September 2012,3977,2012,9,CRANBOURNE,280,Apartment
5456,"2/2 LAWSON CLOSE, CRANBOURNE",-38.106181,145.2679944,2.0,1.0,1,$290_per_week,Unit,August 2012,3977,2012,8,CRANBOURNE,290,Apartment
5457,"2/2 LAWSON CLOSE, CRANBOURNE",-38.106181,145.2679944,2.0,1.0,1,$240_per_week,Unit,July 2012,3977,2012,7,CRANBOURNE,240,Apartment
5458,"2/2 LAWSON CLOSE, CRANBOURNE",-38.106181,145.2679944,2.0,1.0,1,$240_per_week,Unit,June 2012,3977,2012,6,CRANBOURNE,240,Apartment
5471,"19 JILLIAN STREET, CRANBOURNE",-38.107651,145.274156,3.0,1.0,1,$300_per_week,Rental_residential,September 2012,3977,2012,9,CRANBOURNE,300,Other
5472,"19 JILLIAN STREET, CRANBOURNE",-38.107651,145.274156,3.0,1.0,1,$300_per_week,Rental_residential,August 2012,3977,2012,8,CRANBOURNE,300,Other
5648,"31 ELCAN AVENUE, CRANBOURNE",-38.105439,145.264786,3.0,2.0,2,$340_Weekly,House,March 2012,3977,2012,3,CRANBOURNE,340,House
5649,"31 ELCAN AVENUE, CRANBOURNE",-38.105439,145.264786,3.0,2.0,2,$340_pw,House,February 2012,3977,2012,2,CRANBOURNE,340,House
5715,"36 CHOMLEY STREET, CRANBOURNE",-38.10019,145.270557,3.0,1.0,1,$290_per_week,House,October 2012,3977,2012,10,CRANBOURNE,290,House
5716,"36 CHOMLEY STREET, CRANBOURNE",-38.10019,145.270557,3.0,1.0,1,$290_per_week,House,February 2012,3977,2012,2,CRANBOURNE,290,House
5765,"83 DUFF STREET, CRANBOURNE",-38.101006,145.271437,3.0,1.0,2,$275_per_week,House,November 2012,3977,2012,11,CRANBOURNE,275,House
5801,"4 MCLAREN AVENUE, CRANBOURNE",-38.108197,145.279884,3.0,1.0,4,$290_Weekly,House,December 2012,3977,2012,12,CRANBOURNE,290,House
5802,"4 MCLAREN AVENUE, CRANBOURNE",-38.108197,145.279884,3.0,1.0,4,$300_Weekly,House,December 2012,3977,2012,12,CRANBOURNE,300,House
5803,"4 MCLAREN AVENUE, CRANBOURNE",-38.108197,145.279884,3.0,1.0,4,$290_Weekly,House,November 2012,3977,2012,11,CRANBOURNE,290,House
5804,"4 MCLAREN AVENUE, CRANBOURNE",-38.108197,145.279884,3.0,1.0,4,$300_Weekly,House,November 2012,3977,2012,11,CRANBOURNE,300,House
122,"18 HARWOOD COURT, BURNSIDE HEIGHTS",-37.73689281,144.7488262,3.0,2.0,2,$350,House,October 2012,3023,2012,10,HEIGHTS,350,House
169,"46 MIMOSA WAY, BURNSIDE HEIGHTS",-37.73678504,144.75042793,4.0,2.0,2,$340_per_week,House,January 2012,3023,2012,1,HEIGHTS,340,House
230,"39 GIVERNY CL, BURNSIDE HEIGHTS",-37.725305,144.751652,4.0,2.0,2,$375_Weekly,House,December 2012,3023,2012,12,HEIGHTS,375,House
238,"39 GIVERNY CLOSE, BURNSIDE HEIGHTS",-37.725305,144.751652,4.0,2.0,2,$375_pw,House,December 2012,3023,2012,12,HEIGHTS,375,House
239,"39 GIVERNY CLOSE, BURNSIDE HEIGHTS",-37.725305,144.751652,4.0,2.0,2,$385_pw,House,November 2012,3023,2012,11,HEIGHTS,385,House
240,"39 GIVERNY CLOSE, BURNSIDE HEIGHTS",-37.725305,144.751652,4.0,2.0,2,$390_per_week,House,October 2012,3023,2012,10,HEIGHTS,390,House
248,"1 FLORIDA COURT, BURNSIDE HEIGHTS",-37.735711,144.750294,3.0,2.0,3,$360_pw,House,March 2012,3023,2012,3,HEIGHTS,360,House
249,"1 FLORIDA COURT, BURNSIDE HEIGHTS",-37.735711,144.750294,3.0,2.0,3,$370_per_week,House,February 2012,3023,2012,2,HEIGHTS,370,House
253,"16 HARWOOD COURT, BURNSIDE HEIGHTS",-37.73690666,144.7489709,3.0,2.0,2,$350_per_week,House,February 2012,3023,2012,2,HEIGHTS,350,House
257,"44 WILKINS CRESCENT, BURNSIDE HEIGHTS",-37.73136905,144.75632225,4.0,2.0,2,$350_per_week,House,June 2012,3023,2012,6,HEIGHTS,350,House
375,"34 GIVERNY CLOSE, BURNSIDE HEIGHTS",-37.72495081,144.75187835,4.0,2.0,2,$355_pw,House,September 2012,3023,2012,9,HEIGHTS,355,House
388,"26 MANNY PAUL CIRCUIT, BURNSIDE HEIGHTS",-37.7280734,144.75766204,4.0,2.0,2,$490_per_week,House,April 2012,3023,2012,4,HEIGHTS,490,House
460,"2 MIKAYLA COURT, BURNSIDE HEIGHTS",-37.73296236,144.75608631,3.0,2.0,1,$340_per_week,House,February 2012,3023,2012,2,HEIGHTS,340,House
466,"179 ARBOUR BOULEVARD, BURNSIDE HEIGHTS",-37.74017139,144.75188095,4.0,2.0,2,$380_per_week,House,September 2012,3023,2012,9,HEIGHTS,380,House
473,"48 CUNNINGHAM CHASE, BURNSIDE HEIGHTS",-37.73551891,144.76110285,3.0,2.0,2,$350_per_week,Townhouse,October 2012,3023,2012,10,HEIGHTS,350,House
474,"48 CUNNINGHAM CHASE, BURNSIDE HEIGHTS",-37.73551891,144.76110285,3.0,2.0,2,$380_pw,Townhouse,September 2012,3023,2012,9,HEIGHTS,380,House
564,"14 BARTON ROAD, BURNSIDE HEIGHTS",-37.7262084,144.7576957,4.0,2.0,2,$400_per_week,none,September 2012,3023,2012,9,HEIGHTS,400,Other
614,"5 COOMA PLACE, BURNSIDE HEIGHTS",-37.73630946,144.74950885,4.0,2.0,2,$380_per_week,House,April 2012,3023,2012,4,HEIGHTS,380,House
687,"29 MENZIES DRIVE, BURNSIDE HEIGHTS",-37.728059,144.763555,3.0,2.0,2,$340_pw,none,November 2012,3023,2012,11,HEIGHTS,340,Other
688,"29 MENZIES DRIVE, BURNSIDE HEIGHTS",-37.728059,144.763555,3.0,2.0,2,$350_p.w.,none,November 2012,3023,2012,11,HEIGHTS,350,Other
709,"5 BLAXLAND STREET, BURNSIDE HEIGHTS",-37.732565,144.75958,3.0,2.0,2,$370_per_week,House,November 2012,3023,2012,11,HEIGHTS,370,House
717,"38 BELLEVILLE CLOSE, BURNSIDE HEIGHTS",-37.7254185,144.7535818,3.0,2.0,1,$350,none,August 2012,3023,2012,8,HEIGHTS,350,Other
734,"3 LEE PLACE, BURNSIDE HEIGHTS",-37.727432,144.75635,4.0,2.0,2,$350_Weekly,House,December 2012,3023,2012,12,HEIGHTS,350,House
753,"86 TENTERFIELD DRIVE, BURNSIDE HEIGHTS",-37.73387776,144.75896123,4.0,2.0,2,$440_pw,House,October 2012,3023,2012,10,HEIGHTS,440,House
779,"3 RYANS COURT, BURNSIDE HEIGHTS",-37.73216,144.757394,4.0,2.0,2,$330,none,November 2012,3023,2012,11,HEIGHTS,330,Other
806,"39 BELLEVILLE CLOSE, BURNSIDE HEIGHTS",-37.72506,144.753699,4.0,2.0,2,$340_per_week,none,December 2012,3023,2012,12,HEIGHTS,340,Other
812,"2 TENTERFIELD DRIVE, BURNSIDE HEIGHTS",-37.726737,144.759664,4.0,3.0,0,$520_per_week,House,November 2012,3023,2012,11,HEIGHTS,520,House
841,"7 LAWSON PLACE, BURNSIDE HEIGHTS",-37.73191435,144.76067959,3.0,2.0,2,$350_per_week,House,May 2012,3023,2012,5,HEIGHTS,350,House
842,"7 LAWSON PLACE, BURNSIDE HEIGHTS",-37.73191435,144.76067959,3.0,2.0,2,$350_per_week,House,March 2012,3023,2012,3,HEIGHTS,350,House
857,"14 INVERELL STREET, BURNSIDE HEIGHTS",-37.73392925,144.75780529,3.0,2.0,2,$370_per_week,none,April 2012,3023,2012,4,HEIGHTS,370,Other
906,"14 WILKINS COURT, BURNSIDE HEIGHTS",-37.730888,144.754206,4.0,2.0,2,$380_per_week,House,October 2012,3023,2012,10,HEIGHTS,380,House
933,"12 HARWOOD COURT, BURNSIDE HEIGHTS",-37.736934,144.749293,3.0,2.0,2,$330_p.w.,House,December 2012,3023,2012,12,HEIGHTS,330,House
956,"8 REGENT COURT, BURNSIDE HEIGHTS",-37.72553574,144.7505617,4.0,2.0,2,$370_per_week,House,October 2012,3023,2012,10,HEIGHTS,370,House
1000,"17 SYON COURT, BURNSIDE HEIGHTS",-37.73126016,144.75158056,4.0,2.0,2,$480,House,October 2012,3023,2012,10,HEIGHTS,480,House
1022,"16 PERKINS GROVE, BURNSIDE",-37.754606,144.751083,3.0,2.0,2,$370_per_week,House,June 2012,3023,2012,6,BURNSIDE,370,House
1023,"16 PERKINS GROVE, BURNSIDE",-37.754606,144.751083,3.0,2.0,2,$400_per_week,House,May 2012,3023,2012,5,BURNSIDE,400,House
1024,"16 PERKINS GROVE, BURNSIDE",-37.754606,144.751083,3.0,2.0,2,$320,House,March 2012,3023,2012,3,BURNSIDE,320,House
1145,"19 PILBARA AVENUE, BURNSIDE",-37.748601,144.751932,4.0,2.0,2,$365_pw,House,December 2012,3023,2012,12,BURNSIDE,365,House
1155,"158 WESTWOOD DRIVE, BURNSIDE",-37.757999,144.755823,3.0,1.0,2,$250_per_week,Rental_residential,June 2012,3023,2012,6,BURNSIDE,250,Other
1210,"20 JONATHAN AVENUE, BURWOOD EAST",-37.850043,145.150946,3.0,1.0,1,$395_pw,Rental_residential,August 2012,3151,2012,8,EAST,395,Other
1211,"20 JONATHAN AVENUE, BURWOOD EAST",-37.850043,145.150946,3.0,1.0,1,$430_pw,Rental_residential,March 2012,3151,2012,3,EAST,430,Other
1212,"20 JONATHAN AVENUE, BURWOOD EAST",-37.850043,145.150946,3.0,1.0,1,$430_pw,Rental_residential,February 2012,3151,2012,2,EAST,430,Other
1302,"36 WITCHWOOD CRESCENT, BURWOOD EAST",-37.853952,145.147274,3.0,1.0,1,$390_per_week,House,October 2012,3151,2012,10,EAST,390,House
1303,"36 WITCHWOOD CRESCENT, BURWOOD EAST",-37.853952,145.147274,3.0,1.0,1,$390_per_week,House,September 2012,3151,2012,9,EAST,390,House
1304,"36 WITCHWOOD CRESCENT, BURWOOD EAST",-37.853952,145.147274,3.0,1.0,1,$390_per_week,House,July 2012,3151,2012,7,EAST,390,House
1374,"5 HIGHVIEW GROVE, BURWOOD EAST",-37.852819,145.146102,3.0,1.0,1,$430_pw,House,March 2012,3151,2012,3,EAST,430,House
1375,"5 HIGHVIEW GROVE, BURWOOD EAST",-37.852819,145.146102,3.0,1.0,1,$450_pw,House,February 2012,3151,2012,2,EAST,450,House
1384,"97 BURWOOD HIGHWAY, BURWOOD EAST",-37.850939,145.140001,3.0,1.0,2,$385_pw,House,February 2012,3151,2012,2,EAST,385,House
1403,"6 DOROTHY STREET, BURWOOD EAST",-37.854797,145.143176,3.0,1.0,1,$420_per_week,House,February 2012,3151,2012,2,EAST,420,House
1404,"6 DOROTHY STREET, BURWOOD EAST",-37.854797,145.143176,3.0,1.0,1,$450_per_week,House,January 2012,3151,2012,1,EAST,450,House
1450,"25 DOROTHY STREET, BURWOOD EAST",-37.854663,145.145829,3.0,1.0,1,$430_pw,House,March 2012,3151,2012,3,EAST,430,House
1478,"295 BLACKBURN ROAD, BURWOOD EAST",-37.846728,145.153585,4.0,2.0,2,$470_per_week,House,April 2012,3151,2012,4,EAST,470,House
1479,"295 BLACKBURN ROAD, BURWOOD EAST",-37.846728,145.153585,4.0,2.0,2,$470,House,March 2012,3151,2012,3,EAST,470,House
1520,"15 MOONA STREET, BURWOOD EAST",-37.852733,145.138887,3.0,1.0,2,$380_pw,House,September 2012,3151,2012,9,EAST,380,House
1521,"15 MOONA STREET, BURWOOD EAST",-37.852733,145.138887,3.0,1.0,2,$500_pw,House,January 2012,3151,2012,1,EAST,500,House
1634,"16 HIGHVIEW GROVE, BURWOOD EAST",-37.853441,145.145522,3.0,1.0,2,$430_per_week,none,March 2012,3151,2012,3,EAST,430,Other
1703,"295 BLACKBURN RD, BURWOOD EAST",-37.846768,145.153686,4.0,2.0,2,$470_Weekly,House,April 2012,3151,2012,4,EAST,470,House
1704,"295 BLACKBURN RD, BURWOOD EAST",-37.846768,145.153686,4.0,2.0,2,$470_Weekly,House,March 2012,3151,2012,3,EAST,470,House
1718,"14 PIPPIN AVENUE, BURWOOD EAST",-37.851441,145.150126,4.0,2.0,2,$450_pw,House,June 2012,3151,2012,6,EAST,450,House
1719,"14 PIPPIN AVENUE, BURWOOD EAST",-37.851441,145.150126,4.0,2.0,2,$470_Week,House,May 2012,3151,2012,5,EAST,470,House
1727,"48 ROBINLEE AVENUE, BURWOOD EAST",-37.849451,145.158313,3.0,1.0,2,$410,House,September 2012,3151,2012,9,EAST,410,House
1757,"68A ROSLYN STREET, BURWOOD",-37.845154,145.103348,1.0,1.0,1,$240_per_week,none,May 2012,3125,2012,5,BURWOOD,240,Other
1892,"7 UGANDA STREET, BURWOOD",-37.84442,145.109282,4.0,2.0,1,$390_pw,none,July 2012,3125,2012,7,BURWOOD,390,Other
2113,"2/13 CROMWELL STREET, BURWOOD",-37.851928,145.105213,2.0,1.0,2,$410_pw,none,October 2012,3125,2012,10,BURWOOD,410,Other
2209,"80 PARER STREET, BURWOOD",-37.844473,145.104706,3.0,2.0,2,$425_p.w.,none,December 2012,3125,2012,12,BURWOOD,425,Other
2471,"2A RENOWN STREET, BURWOOD",-37.851639,145.122251,3.0,2.0,1,$410_per_week,House,June 2012,3125,2012,6,BURWOOD,410,House
2472,"2A RENOWN STREET, BURWOOD",-37.851639,145.122251,3.0,2.0,1,$410_per_week,House,May 2012,3125,2012,5,BURWOOD,410,House
2479,"17 STEPHENS STREET, BURWOOD",-37.856717,145.108984,2.0,1.0,2,$335_per_week,House,January 2012,3125,2012,1,BURWOOD,335,House
2489,"11 TIMOR CLOSE, BURWOOD",-37.842939,145.106646,3.0,1.0,1,$450_p.w.,House,May 2012,3125,2012,5,BURWOOD,450,House
2642,"68 ROSLYN STREET, BURWOOD",-37.845165,145.103517,3.0,1.0,1,$400_per_week,Available Now,September 2012,3125,2012,9,BURWOOD,400,Other
2663,"19 KILDARE STREET, BURWOOD",-37.844842,145.108572,3.0,2.0,2,$470,House,April 2012,3125,2012,4,BURWOOD,470,House
2728,"10 HUGHES STREET, BURWOOD",-37.852338,145.107937,5.0,1.0,1,$400_pw,House,July 2012,3125,2012,7,BURWOOD,400,House
2729,"10 HUGHES STREET, BURWOOD",-37.852338,145.107937,5.0,1.0,1,$360_pw,House,July 2012,3125,2012,7,BURWOOD,360,House
2844,"17 LEOPOLD STREET, BURWOOD",-37.859097,145.096193,4.0,2.0,2,$380_pw,House,February 2012,3125,2012,2,BURWOOD,380,House
2954,"94 BRIDGE ROAD, BUSHFIELD, BUSHFIELD",-38.322386,142.495382,3.0,1.0,1,$360_Weekly,Rental,June 2012,3281,2012,6,BUSHFIELD,360,Other
2955,"1/94 BRIDGE ROAD, BUSHFIELD, BUSHFIELD",-38.322386,142.495382,1.0,1.0,0,$250_Weekly,Rental,June 2012,3281,2012,6,BUSHFIELD,250,Other
2956,"12 MCKENZIES ROAD, BUSHFIELD",-38.3235191,142.5072509,2.0,1.0,2,$220_Weekly,none,March 2012,3281,2012,3,BUSHFIELD,220,Other
3031,"12 GWINGANNA PLACE, BUXTON",-37.424625,145.713606,2.0,1.0,3,$270_pw,House,February 2012,3711,2012,2,BUXTON,270,House
3042,"21 GWINGANNA PLACE, BUXTON",-37.424309,145.711813,1.0,1.0,0,$210_p.w.,House,November 2012,3711,2012,11,BUXTON,210,House
3077,"91 SEVENTEENTH STREET, CABARITA",-34.199575,142.085294,3.0,2.0,2,$290_pw,House,July 2012,3505,2012,7,CABARITA,290,House
3093,"72 DYAR AVENUE, CABARITA",-34.2121384,142.0901623,3.0,2.0,2,$380_pw,none,October 2012,3505,2012,10,CABARITA,380,Other
3094,"72 DYAR AVENUE, CABARITA",-34.2121384,142.0901623,3.0,2.0,2,$380_pw,none,September 2012,3505,2012,9,CABARITA,380,Other
3097,"LOT 2 DYAR AVENUE, CABARITA, CABARITA",-34.210173,142.092584,4.0,2.0,4,$425_Weekly,Rental,June 2012,3505,2012,6,CABARITA,425,Other
3098,"5B DICKIES ROAD, CABARITA",-34.19621,142.076813,3.0,1.0,1,$180_per_week,House,February 2012,3505,2012,2,CABARITA,180,House
3099,"5B DICKIES ROAD, CABARITA",-34.19621,142.076813,3.0,1.0,1,$180_pw,House,January 2012,3505,2012,1,CABARITA,180,House
3121,"13 OLD PRINCESS HWY, CABBAGE TREE",-37.698887,148.71838,3.0,1.0,0,$130,House,March 2012,3364,2012,3,TREE,130,House
3307,"165 SOLDIERS, CALDERMEADE",-38.24884,145.563191,4.0,2.0,0,$350_pw,none,April 2012,3984,2012,4,CALDERMEADE,350,Other
3313,"2/15 NELSON STREET, CALIFORNIA GULLY",-36.728849,144.260829,2.0,2.0,1,$260_pw,House,September 2012,3556,2012,9,GULLY,260,House
3350,"2/6 GILL AVENUE, CALIFORNIA GULLY",-36.727549,144.266554,2.0,1.0,1,$170_per_week,House,December 2012,3556,2012,12,GULLY,170,House
3351,"2/6 GILL AVENUE, CALIFORNIA GULLY",-36.727549,144.266554,2.0,1.0,1,$170_per_week,House,November 2012,3556,2012,11,GULLY,170,House
3370,"12 HARRIS STREET, CALIFORNIA GULLY",-36.724604,144.271921,4.0,2.0,2,$330_per_week,House,December 2012,3556,2012,12,GULLY,330,House
3371,"12 HARRIS STREET, CALIFORNIA GULLY",-36.724604,144.271921,4.0,2.0,2,$320_per_week,House,February 2012,3556,2012,2,GULLY,320,House
3372,"12 HARRIS STREET, CALIFORNIA GULLY",-36.724604,144.271921,4.0,2.0,2,$320_per_week,House,January 2012,3556,2012,1,GULLY,320,House
3448,"4/38 BROWN STREET, CALIFORNIA GULLY",-36.729904,144.250383,1.0,1.0,1,$160_pw,Rental_residential,July 2012,3556,2012,7,GULLY,160,Other
3449,"4/38 BROWN STREET, CALIFORNIA GULLY",-36.729904,144.250383,1.0,1.0,1,$150_pw,Rental_residential,January 2012,3556,2012,1,GULLY,150,Other
3540,"2/1076 TOORAK ROAD, CAMBERWELL",-37.847968,145.072698,2.0,1.0,1,$470,House,July 2012,3124,2012,7,CAMBERWELL,470,House
3664,"2/175 HIGHFIELD ROAD, CAMBERWELL",-37.840994,145.083361,3.0,2.0,2,$420_per_week,Rental_residential,October 2012,3124,2012,10,CAMBERWELL,420,Other
3747,"2/35 ACHERON AVENUE, CAMBERWELL",-37.842756,145.066291,2.0,1.0,1,$460_pw,Rental_residential,June 2012,3124,2012,6,CAMBERWELL,460,Other
3772,"8 MOORHOUSE STREET, CAMBERWELL",-37.826854,145.067539,4.0,3.0,3,$1125_-_$4875_pw,Available Now,May 2012,3124,2012,5,CAMBERWELL,4875,Other
3801,"12 KINGFIELD COURT, CAMBERWELL",-37.837978,145.092054,3.0,1.0,2,$650_per_week,House,August 2012,3124,2012,8,CAMBERWELL,650,House
3808,"20 LODGE ROAD, CAMBERWELL",-37.84601,145.078903,4.0,2.0,2,$530_per_week,House,April 2012,3124,2012,4,CAMBERWELL,530,House
3820,"1/22 ALLAMBEE AVENUE, CAMBERWELL",-37.834967,145.073156,2.0,1.0,1,$400_per_week,Rental_residential,May 2012,3124,2012,5,CAMBERWELL,400,Other
3888,"43 BELLETT STREET, CAMBERWELL",-37.835812,145.066418,3.0,2.0,3,$850_pw,none,May 2012,3124,2012,5,CAMBERWELL,850,Other
3896,"2/140 THROUGH ROAD, CAMBERWELL",-37.838391,145.092368,3.0,2.0,2,$650_per_week,House,January 2012,3124,2012,1,CAMBERWELL,650,House
4216,"58 TRAFALGAR ROAD, CAMBERWELL",-37.8341672,145.0631205,3.0,2.0,2,$595_per_week,none,March 2012,3124,2012,3,CAMBERWELL,595,Other
4234,"3 DONNA BUANG STREET, CAMBERWELL",-37.84434,145.064707,4.0,3.0,2,$750_p.w.,none,August 2012,3124,2012,8,CAMBERWELL,750,Other
4258,"1/911 TOORAK ROAD, CAMBERWELL",-37.845911,145.057483,4.0,3.0,2,$900_p.w.,Townhouse,September 2012,3124,2012,9,CAMBERWELL,900,House
4269,"39 LYNDEN STREET, CAMBERWELL",-37.840895,145.086331,6.0,2.0,2,$690_p.w.,Rental_residential,December 2012,3124,2012,12,CAMBERWELL,690,Other
4283,"15 CULLITON ROAD, CAMBERWELL",-37.841962,145.073804,3.0,1.0,1,$500,Rental_residential,January 2012,3124,2012,1,CAMBERWELL,500,Other
4301,"1/126 WATTLE VALLEY ROAD, CAMBERWELL",-37.837583,145.080986,2.0,1.0,1,$370_per_week,none,March 2012,3124,2012,3,CAMBERWELL,370,Other
4302,"1/126 WATTLE VALLEY ROAD, CAMBERWELL",-37.837583,145.080986,2.0,1.0,1,$380_per_week,none,March 2012,3124,2012,3,CAMBERWELL,380,Other
4324,"3/894-896 TOORAK ROAD, CAMBERWELL",-37.84629822,145.05543518,3.0,2.0,1,$550_p.w.,Rental_residential,November 2012,3124,2012,11,CAMBERWELL,550,Other
4350,"3/17 GARDEN ROAD, CAMBERWELL",-37.843659,145.091424,2.0,1.0,1,$340,Rental_residential,April 2012,3124,2012,4,CAMBERWELL,340,Other
4397,"21 FAIRFIELD AVENUE, CAMBERWELL",-37.841358,145.05791,4.0,2.0,2,$1200_per_week,House,July 2012,3124,2012,7,CAMBERWELL,1200,House
4402,"2/28 ALLAMBEE AVENUE, CAMBERWELL",-37.835228,145.077317,2.0,1.0,1,$370_per_week,Rental_residential,February 2012,3124,2012,2,CAMBERWELL,370,Other
4403,"2/28 ALLAMBEE AVENUE, CAMBERWELL",-37.835228,145.077317,2.0,1.0,1,$370_per_week,Rental_residential,January 2012,3124,2012,1,CAMBERWELL,370,Other
4481,"113/1101 TOORAK ROAD, CAMBERWELL",-37.847719,145.075153,2.0,2.0,1,$440_pw,Rental_residential,November 2012,3124,2012,11,CAMBERWELL,440,Other
31,"500 FLINDERS STREET, MELBOURNE",-37.820019,144.957827,1.0,1.0,0,$330_pw,Available Now,October 2012,3000,2012,10,MELBOURNE,330,Other
32,"500 FLINDERS STREET, MELBOURNE",-37.820019,144.957827,1.0,1.0,0,$330_pw,Available Now,January 2012,3000,2012,1,MELBOURNE,330,Other
56,"1304/33 MACKENZIE STREET, MELBOURNE",-37.8074834,144.9668562,2.0,2.0,1,$530_pw,Available Now,November 2012,3000,2012,11,MELBOURNE,530,Other
167,"1214/555 FLINDERS STREET, MELBOURNE",-37.8208706,144.9562331,1.0,1.0,0,$330_per_week,Available Now,January 2012,3000,2012,1,MELBOURNE,330,Other
230,"2703/8 EXPLORATION LANE, MELBOURNE",-37.8092558,144.9683848,2.0,2.0,0,$550_per_week,none,January 2012,3000,2012,1,MELBOURNE,550,Other
284,"904/422 COLLINS STREET, MELBOURNE",-37.817137,144.96012,1.0,1.0,0,$330_pw,Available Now,August 2012,3000,2012,8,MELBOURNE,330,Other
285,"904/422 COLLINS STREET, MELBOURNE",-37.817137,144.96012,1.0,1.0,0,$340_pw,Available Now,July 2012,3000,2012,7,MELBOURNE,340,Other
328,"124/546 FLINDERS STREET, MELBOURNE",-37.820521,144.956143,1.0,1.0,0,$250_per_week,none,September 2012,3000,2012,9,MELBOURNE,250,Other
329,"124/546 FLINDERS STREET, MELBOURNE",-37.820521,144.956143,1.0,1.0,0,$250_p.w.,none,August 2012,3000,2012,8,MELBOURNE,250,Other
352,"3305/483 SWANSTON STREET, MELBOURNE",-37.807218,144.962336,2.0,1.0,1,$570_pw,none,December 2012,3000,2012,12,MELBOURNE,570,Other
353,"3305/483 SWANSTON STREET, MELBOURNE",-37.807218,144.962336,2.0,1.0,1,$610_pw,none,March 2012,3000,2012,3,MELBOURNE,610,Other
375,"2102/25 THERRY STREET, MELBOURNE",-37.8068232,144.9608822,1.0,1.0,0,$480_pw,none,October 2012,3000,2012,10,MELBOURNE,480,Other
394,"3507/200 SPENCER STREET, MELBOURNE",-37.816257,144.953288,2.0,2.0,1,$645,none,July 2012,3000,2012,7,MELBOURNE,645,Other
548,"2404/8 FRANKLIN STREET, MELBOURNE",-37.807318,144.963366,2.0,1.0,0,$540_pw,none,June 2012,3000,2012,6,MELBOURNE,540,Other
639,"605/455 ELIZABETH STREET, MELBOURNE",-37.808429,144.960206,2.0,1.0,0,$470_per_week,none,October 2012,3000,2012,10,MELBOURNE,470,Other
640,"605/455 ELIZABETH STREET, MELBOURNE",-37.808429,144.960206,2.0,1.0,0,$470_pw,none,February 2012,3000,2012,2,MELBOURNE,470,Other
641,"605/455 ELIZABETH STREET, MELBOURNE",-37.808429,144.960206,2.0,1.0,0,$470_pw,none,January 2012,3000,2012,1,MELBOURNE,470,Other
655,"705/422 COLLINS STREET, MELBOURNE",-37.817217,144.96034,2.0,1.0,0,$450_-_$1955_pw,Available Now,July 2012,3000,2012,7,MELBOURNE,1955,Other
696,"1011/225 ELIZABETH STREET, MELBOURNE",-37.8131346,144.9624998,1.0,1.0,0,$450_per_week,Available Now,December 2012,3000,2012,12,MELBOURNE,450,Other
718,"250 ELIZABETH STREET, MELBOURNE",-37.81278992,144.96253967,1.0,1.0,1,$490_per_week,Available Now,September 2012,3000,2012,9,MELBOURNE,490,Other
719,"250 ELIZABETH STREET, MELBOURNE",-37.81278992,144.96253967,1.0,1.0,1,$510_per_week,Available Now,August 2012,3000,2012,8,MELBOURNE,510,Other
720,"250 ELIZABETH STREET, MELBOURNE",-37.81278992,144.96253967,1.0,1.0,1,$520,Available Now,August 2012,3000,2012,8,MELBOURNE,520,Other
721,"250 ELIZABETH STREET, MELBOURNE",-37.81278992,144.96253967,1.0,1.0,1,$520_pw,Available Now,July 2012,3000,2012,7,MELBOURNE,520,Other
722,"250 ELIZABETH STREET, MELBOURNE",-37.81278992,144.96253967,1.0,1.0,1,$510,Available Now,June 2012,3000,2012,6,MELBOURNE,510,Other
723,"250 ELIZABETH STREET, MELBOURNE",-37.81278992,144.96253967,1.0,1.0,1,$510_pw,Available Now,May 2012,3000,2012,5,MELBOURNE,510,Other
872,"200 SPENCER STREET, MELBOURNE",-37.81613541,144.95289612,2.0,2.0,1,$430_pw,none,October 2012,3000,2012,10,MELBOURNE,430,Other
873,"200 SPENCER STREET, MELBOURNE",-37.81613541,144.95289612,2.0,2.0,1,$550,none,September 2012,3000,2012,9,MELBOURNE,550,Other
874,"200 SPENCER STREET, MELBOURNE",-37.81613541,144.95289612,2.0,2.0,1,$430_pw,none,January 2012,3000,2012,1,MELBOURNE,430,Other
875,"200 SPENCER STREET, MELBOURNE",-37.81613541,144.95289612,2.0,2.0,1,$725_pw,none,January 2012,3000,2012,1,MELBOURNE,725,Other
911,"812/29-31 MARKET STREET, MELBOURNE",-37.818652,144.960479,2.0,2.0,0,$495_pw,Available Now,May 2012,3000,2012,5,MELBOURNE,495,Other
912,"812/29-31 MARKET STREET, MELBOURNE",-37.818652,144.960479,2.0,2.0,0,$565_pw,Available Now,January 2012,3000,2012,1,MELBOURNE,565,Other
936,"1706/200 SPENCER STREET, MELBOURNE",-37.816257,144.953288,1.0,1.0,1,$740_pw,none,October 2012,3000,2012,10,MELBOURNE,740,Other
937,"1706/200 SPENCER STREET, MELBOURNE",-37.816257,144.953288,1.0,1.0,1,$630_pw,none,August 2012,3000,2012,8,MELBOURNE,630,Other
938,"1706/200 SPENCER STREET, MELBOURNE",-37.816257,144.953288,1.0,1.0,1,$780_pw,none,June 2012,3000,2012,6,MELBOURNE,780,Other
939,"1706/200 SPENCER STREET, MELBOURNE",-37.816257,144.953288,1.0,1.0,1,$780_pw,none,April 2012,3000,2012,4,MELBOURNE,780,Other
940,"1706/200 SPENCER STREET, MELBOURNE",-37.816257,144.953288,1.0,1.0,1,$780_pw,none,February 2012,3000,2012,2,MELBOURNE,780,Other
955,"604/20-22 MCKILLOP STREET, MELBOURNE",-37.81514,144.961811,2.0,1.0,0,$495_pw,none,August 2012,3000,2012,8,MELBOURNE,495,Other
992,"1712/200 SPENCER STREET, MELBOURNE",-37.8163783,144.9528947,1.0,1.0,1,$550_p.w.,Available Now,September 2012,3000,2012,9,MELBOURNE,550,Other
993,"1712/200 SPENCER STREET, MELBOURNE",-37.8163783,144.9528947,1.0,1.0,1,$400_per_week,Available Now,February 2012,3000,2012,2,MELBOURNE,400,Other
1091,"2803/483 SWANSTON STREET, MELBOURNE",-37.807218,144.962336,2.0,1.0,0,$570_p.w.,none,November 2012,3000,2012,11,MELBOURNE,570,Other
1092,"2803/483 SWANSTON STREET, MELBOURNE",-37.807218,144.962336,2.0,1.0,0,$570_pw,none,June 2012,3000,2012,6,MELBOURNE,570,Other
1093,"2803/483 SWANSTON STREET, MELBOURNE",-37.807218,144.962336,2.0,1.0,0,$570_pw,none,May 2012,3000,2012,5,MELBOURNE,570,Other
1135,"401/442 ST KILDA ROAD, MELBOURNE",-37.838236,144.975468,2.0,2.0,1,$450_per_week,none,March 2012,3000,2012,3,MELBOURNE,450,Other
1136,"401/442 ST KILDA ROAD, MELBOURNE",-37.838236,144.975468,2.0,2.0,1,$460_per_week,none,March 2012,3000,2012,3,MELBOURNE,460,Other
1162,"303 / 253 FRANKLIN STREET, MELBOURNE",-37.8093919,144.9566185,2.0,1.0,0,$475_pw,none,September 2012,3000,2012,9,MELBOURNE,475,Other
1163,"303 / 253 FRANKLIN STREET, MELBOURNE",-37.8093919,144.9566185,2.0,1.0,0,$475_pw,none,August 2012,3000,2012,8,MELBOURNE,475,Other
1199,"201/455 ELIZABETH STREET, MELBOURNE",-37.808429,144.960206,2.0,1.0,0,$470_per_week,none,October 2012,3000,2012,10,MELBOURNE,470,Other
1287,"CARPARK/200 SPENCER STREET, MELBOURNE",-37.81613541,144.95289612,1.0,1.0,1,$50_per_week,Rental_residential,October 2012,3000,2012,10,MELBOURNE,50,Other
1288,"CARPARK/200 SPENCER STREET, MELBOURNE",-37.81613541,144.95289612,1.0,1.0,1,$50_per_week,Rental_residential,September 2012,3000,2012,9,MELBOURNE,50,Other
1313,"1702/668 BOURKE STREET, MELBOURNE",-37.816602,144.9542,3.0,2.0,2,$720_per_week,Available Now,February 2012,3000,2012,2,MELBOURNE,720,Other
1314,"1702/668 BOURKE STREET, MELBOURNE",-37.816602,144.9542,3.0,2.0,2,$720_per_week,Available Now,January 2012,3000,2012,1,MELBOURNE,720,Other
1359,"1207/268 FLINDERS STREET, MELBOURNE",-37.817606,144.965626,1.0,1.0,0,$300_per_week,none,September 2012,3000,2012,9,MELBOURNE,300,Other
1426,"233 COLLINS STREET, MELBOURNE",-37.815888,144.965983,2.0,1.0,0,$425_pw,Available Now,October 2012,3000,2012,10,MELBOURNE,425,Other
1427,"233 COLLINS STREET, MELBOURNE",-37.815888,144.965983,2.0,1.0,0,$425_pw,Available Now,January 2012,3000,2012,1,MELBOURNE,425,Other
1448,"912/87 FRANKLIN STREET, MELBOURNE",-37.808028,144.961681,1.0,1.0,1,$420,Available Now,December 2012,3000,2012,12,MELBOURNE,420,Other
1475,"1106/555 FLINDERS STREET, MELBOURNE",-37.8208706,144.9562331,1.0,1.0,1,$340_per_week,Available Now,January 2012,3000,2012,1,MELBOURNE,340,Other
1568,"7 LACHLAN ROAD, MELTON SOUTH",-37.708849,144.564662,3.0,1.0,2,$225_per_week,none,February 2012,3338,2012,2,SOUTH,225,Other
1576,"16 BIRDSWING TERRACE, MELTON SOUTH",-37.7172118,144.574386,4.0,2.0,2,$275_pw,House,March 2012,3338,2012,3,SOUTH,275,House
1605,"10 CHAUVEL STREET, MELTON SOUTH",-37.711802,144.578193,3.0,1.0,1,$260,House,January 2012,3338,2012,1,SOUTH,260,House
1626,"3 WENTWORTH ROAD, MELTON SOUTH",-37.713127,144.568503,3.0,1.0,5,$220_per_week,House,November 2012,3338,2012,11,SOUTH,220,House
1627,"3 WENTWORTH ROAD, MELTON SOUTH",-37.713127,144.568503,3.0,1.0,5,$220_per_week,House,March 2012,3338,2012,3,SOUTH,220,House
1628,"3 WENTWORTH ROAD, MELTON SOUTH",-37.713127,144.568503,3.0,1.0,5,$220_per_week,House,February 2012,3338,2012,2,SOUTH,220,House
1668,"21 GRACE STREET, MELTON SOUTH",-37.698381,144.572633,3.0,1.0,1,$230_per_week,House,November 2012,3338,2012,11,SOUTH,230,House
1734,"2 GARFIELD CLOSE, MELTON SOUTH",-37.710931,144.561783,4.0,1.0,2,$290_per_week,House,November 2012,3338,2012,11,SOUTH,290,House
1779,"38 KURRAJONG CRESCENT, MELTON SOUTH",-37.701218,144.569887,3.0,1.0,4,$245_per_week,House,February 2012,3338,2012,2,SOUTH,245,House
1780,"38 KURRAJONG CRESCENT, MELTON SOUTH",-37.701218,144.569887,3.0,1.0,4,$245_pw,House,January 2012,3338,2012,1,SOUTH,245,House
1839,"6 BANKSIA PLACE, MELTON WEST",-37.673631,144.561221,4.0,1.0,1,$240_Weekly,House,July 2012,3337,2012,7,WEST,240,House
1840,"6 BANKSIA PLACE, MELTON WEST",-37.673631,144.561221,4.0,1.0,1,$245_per_week,House,June 2012,3337,2012,6,WEST,245,House
1841,"6 BANKSIA PLACE, MELTON WEST",-37.673631,144.561221,4.0,1.0,1,$255_Weekly,House,May 2012,3337,2012,5,WEST,255,House
1896,"232 BULMANS ROAD, MELTON WEST",-37.674256,144.552142,3.0,1.0,2,$260_pw,House,June 2012,3337,2012,6,WEST,260,House
1927,"1 STATON CRESCENT, MELTON WEST",-37.681347,144.541885,4.0,2.0,4,$290_pw,House,March 2012,3337,2012,3,WEST,290,House
1955,"46 CAITLYN DRIVE, MELTON WEST",-37.661774,144.56418,3.0,2.0,2,$255_per_week,House,May 2012,3337,2012,5,WEST,255,House
1956,"46 CAITLYN DRIVE, MELTON WEST",-37.661774,144.56418,3.0,2.0,2,$255_per_week,House,April 2012,3337,2012,4,WEST,255,House
2000,"6 BITTERN STREET, MELTON",-37.678368,144.574826,4.0,2.0,2,$245_per_week,House,December 2012,3337,2012,12,MELTON,245,House
2006,"18 DOMINIC PARADE, MELTON",-37.67847,144.57895,3.0,1.0,0,$250_per_week,House,January 2012,3337,2012,1,MELTON,250,House
2076,"1 JOAN STREET, MELTON",-37.687138,144.574592,3.0,1.0,4,$260,House,March 2012,3337,2012,3,MELTON,260,House
2128,"149 CENTENARY AVENUE, MELTON",-37.674546,144.581464,3.0,1.0,2,$240_per_week,none,December 2012,3337,2012,12,MELTON,240,Other
2134,"129 CENTENARY AVE, MELTON",-37.6748609,144.5842098,3.0,1.0,2,$250_per_week,House,November 2012,3337,2012,11,MELTON,250,House
2141,"23 MARINA DRIVE, MELTON",-37.677999,144.581977,3.0,1.0,1,$220_per_week,House,February 2012,3337,2012,2,MELTON,220,House
2142,"23 MARINA DRIVE, MELTON",-37.677999,144.581977,3.0,1.0,1,$230_per_week,House,January 2012,3337,2012,1,MELTON,230,House
2182,"13/20-24 PALMERSTON STREET, MELTON",-37.688049,144.584038,3.0,1.0,1,$260_p.w.,none,April 2012,3337,2012,4,MELTON,260,Other
2257,"27 MARINA DRIVE, MELTON",-37.677741,144.582131,3.0,1.0,1,$250_per_week,House,March 2012,3337,2012,3,MELTON,250,House
2285,"39 LAKEWOOD BOULEVARD, MELTON",-37.6908407,144.5896714,3.0,2.0,1,$270_pw,House,February 2012,3337,2012,2,MELTON,270,House
2286,"39 LAKEWOOD BOULEVARD, MELTON",-37.6908407,144.5896714,3.0,2.0,1,$270_Weekly,House,January 2012,3337,2012,1,MELTON,270,House
2287,"39 LAKEWOOD BOULEVARD, MELTON",-37.6908407,144.5896714,3.0,2.0,1,$280_pw,House,January 2012,3337,2012,1,MELTON,280,House
2457,"8 HUDSON PLACE, MELTON",-37.678256,144.584394,3.0,1.0,2,$270_per_week,House,February 2012,3337,2012,2,MELTON,270,House
2458,"8 HUDSON PLACE, MELTON",-37.678256,144.584394,3.0,1.0,2,$280_per_week,House,January 2012,3337,2012,1,MELTON,280,House
2550,"3/51-55 TULLIDGE STREET, MELTON",-37.688524,144.58585,3.0,2.0,2,$270_per_week,Townhouse,September 2012,3337,2012,9,MELTON,270,House
2576,"56 BARRIES ROAD, MELTON",-37.688408,144.575932,3.0,2.0,1,$240_p.w.,House,July 2012,3337,2012,7,MELTON,240,House
2595,"72 GRETEL GROVE, MELTON",-37.690439,144.581677,3.0,2.0,3,$275_pw,House,September 2012,3337,2012,9,MELTON,275,House
2598,"72 GRETEL GR, MELTON",-37.690439,144.581677,3.0,2.0,3,$275_Weekly,House,September 2012,3337,2012,9,MELTON,275,House
2611,"4 OLDERSHAW ROAD, MELTON",-37.680758,144.576772,3.0,1.0,2,$245_per_week,House,August 2012,3337,2012,8,MELTON,245,House
2673,"36 WATSON COURT, MELTON",-37.67737,144.576803,4.0,1.0,1,$260_Weekly,House,January 2012,3337,2012,1,MELTON,260,House
2691,"9 KINKORA ROAD, MELTON",-37.68911,144.570947,3.0,1.0,1,$235_per_week,House,August 2012,3337,2012,8,MELTON,235,House
2745,"22 CASSIA ROAD, MELTON",-37.677653,144.579988,3.0,1.0,2,$220_per_week,Available Now,May 2012,3337,2012,5,MELTON,220,Other
2771,"12 SHEBLER PLACE, MELTON",-37.679641,144.584723,3.0,1.0,2,$265_Weekly,House,February 2012,3337,2012,2,MELTON,265,House
2780,"506 HIGH STREET, MELTON",-37.683826,144.569264,3.0,1.0,1,$240_per_week,House,January 2012,3337,2012,1,MELTON,240,House
2915,"10/20-24 PALMERSTON STREET, MELTON",-37.688049,144.584038,3.0,1.0,1,$255_p.w.,Rental_residential,March 2012,3337,2012,3,MELTON,255,Other
2916,"10/20-24 PALMERSTON STREET, MELTON",-37.688049,144.584038,3.0,1.0,1,$290_pw,Rental_residential,February 2012,3337,2012,2,MELTON,290,Other
2941,"53 BARRIES ROAD, MELTON",-37.689058,144.578577,3.0,1.0,2,$230_Weekly,Rental_residential,January 2012,3337,2012,1,MELTON,230,Other
2955,"18/20-24 PALMERSTON STREET, MELTON",-37.688049,144.584038,3.0,1.0,1,$250_p.w.,Rental_residential,May 2012,3337,2012,5,MELTON,250,Other
2956,"18/20-24 PALMERSTON STREET, MELTON",-37.688049,144.584038,3.0,1.0,1,$260_pw,Rental_residential,February 2012,3337,2012,2,MELTON,260,Other
2963,"12 MILVERTON STREET, MELTON",-37.677651,144.579106,3.0,1.0,3,$260_pw,Available Now,August 2012,3337,2012,8,MELTON,260,Other
3122,"8/26 WINSOME STREET, MENTONE",-37.976157,145.065059,2.0,1.0,2,$295,Available Now,April 2012,3194,2012,4,MENTONE,295,Other
3133,"8/70 BEACH ROAD, MENTONE",-37.988335,145.059935,1.0,1.0,1,$260_per_week,none,October 2012,3194,2012,10,MENTONE,260,Other
3139,"1 / 2 SALMON STREET, MENTONE",-37.978751,145.062228,1.0,1.0,1,$250_per_week,none,November 2012,3194,2012,11,MENTONE,250,Other
3140,"1 / 2 SALMON STREET, MENTONE",-37.978751,145.062228,1.0,1.0,1,$250_per_week,none,January 2012,3194,2012,1,MENTONE,250,Other
3164,"20 MUNDY STREET, MENTONE",-37.984971,145.056363,3.0,2.0,3,$430_Weekly,House,May 2012,3194,2012,5,MENTONE,430,House
3165,"20 MUNDY STREET, MENTONE",-37.984971,145.056363,3.0,2.0,3,$430_p.w.,House,April 2012,3194,2012,4,MENTONE,430,House
3168,"20 MUNDY ST, MENTONE",-37.984971,145.056363,3.0,2.0,3,$430_Weekly,House,May 2012,3194,2012,5,MENTONE,430,House
3219,"4/28 OLIVE GROVE, MENTONE",-37.984026,145.079586,2.0,1.0,1,$400_pw,Rental_residential,October 2012,3194,2012,10,MENTONE,400,Other
3220,"4/28 OLIVE GROVE, MENTONE",-37.984026,145.079586,2.0,1.0,1,$400_pw,Rental_residential,September 2012,3194,2012,9,MENTONE,400,Other
3233,"1/7 PALERMO STREET, MENTONE",-37.990339,145.066493,2.0,1.0,1,$350_pw,Rental_residential,December 2012,3194,2012,12,MENTONE,350,Other
3248,"8/35 COLLINS STREET, MENTONE",-37.979053,145.054319,2.0,1.0,1,$320_per_week,none,August 2012,3194,2012,8,MENTONE,320,Other
3487,"1/8 COMMERCIAL ROAD, MENTONE",-37.985667,145.06577,2.0,1.0,1,$380_pw,Unit,August 2012,3194,2012,8,MENTONE,380,Apartment
3497,"157 LOWER DANDENONG ROAD, MENTONE",-37.98388,145.088201,3.0,1.0,3,$420_-_$440,House,December 2012,3194,2012,12,MENTONE,440,House
3520,"54 RIVIERA STREET, MENTONE",-37.97643,145.073873,3.0,1.0,2,$460_pw,House,February 2012,3194,2012,2,MENTONE,460,House
3629,"4/242 BALCOMBE ROAD, MENTONE",-37.979926,145.056386,2.0,1.0,1,$300_pw,Rental_residential,October 2012,3194,2012,10,MENTONE,300,Other
3636,"10/94 BEACH ROAD, MENTONE",-37.991219,145.064586,1.0,1.0,1,$300_pw,Rental_residential,May 2012,3194,2012,5,MENTONE,300,Other
3682,"5/5 STATION STREET, MENTONE",-37.98222351,145.06625366,1.0,1.0,1,$270_pw,Rental_residential,May 2012,3194,2012,5,MENTONE,270,Other
3697,"15/173 BALCOMBE ROAD, MENTONE",-37.98028,145.055356,1.0,1.0,1,$245_pw,none,June 2012,3194,2012,6,MENTONE,245,Other
3727,"18/30 MENTONE PARADE, MENTONE",-37.990008,145.065064,1.0,1.0,1,$275_pw,Rental_residential,April 2012,3194,2012,4,MENTONE,275,Other
3784,"2/80 BALCOMBE ROAD, MENTONE",-37.9813377,145.0654064,2.0,2.0,1,$360_pw,none,December 2012,3194,2012,12,MENTONE,360,Other
3785,"2/80 BALCOMBE ROAD, MENTONE",-37.9813377,145.0654064,2.0,2.0,1,$380_pw,none,November 2012,3194,2012,11,MENTONE,380,Other
3786,"2/80 BALCOMBE ROAD, MENTONE",-37.9813377,145.0654064,2.0,2.0,1,$410_pw,none,October 2012,3194,2012,10,MENTONE,410,Other
3806,"1/8-10 ALVENA STREET, MENTONE",-37.975499,145.061756,3.0,2.0,2,$560_pw,Rental_residential,December 2012,3194,2012,12,MENTONE,560,Other
3825,"11/30 SWANSTON STREET, MENTONE",-37.980014,145.065599,1.0,1.0,1,$220_per_week,Rental_residential,June 2012,3194,2012,6,MENTONE,220,Other
3869,"4/134 WARRIGAL ROAD, MENTONE",-37.980618,145.072017,2.0,1.0,1,$300_per_week,none,October 2012,3194,2012,10,MENTONE,300,Other
3902,"2 / 34 FLINDERS STREET, MENTONE",-37.976456,145.057848,2.0,1.0,1,$380_pw,none,May 2012,3194,2012,5,MENTONE,380,Other
3930,"8 / 30 SWANSTON STREET, MENTONE",-37.9784498,145.0662828,1.0,1.0,1,$220_per_week,none,July 2012,3194,2012,7,MENTONE,220,Other
3960,"3/22 PATTY STREET, MENTONE",-37.977312,145.056972,2.0,1.0,1,$350_pw,Rental_residential,January 2012,3194,2012,1,MENTONE,350,Other
4010,"35 / 80 BALCOMBE ROAD, MENTONE",-37.98134,145.0654221,2.0,2.0,1,$425_pw,none,September 2012,3194,2012,9,MENTONE,425,Other
4074,"36/80 BALCOMBE ROAD, MENTONE",-37.9813239,145.065416,2.0,2.0,1,$380_per_week,none,June 2012,3194,2012,6,MENTONE,380,Other
4078,"2/22 LATROBE STREET, MENTONE",-37.973998,145.057083,1.0,1.0,1,$260_per_week,House,April 2012,3194,2012,4,MENTONE,260,House
4099,"5/134 LOWER DANDENONG ROAD, MENTONE",-37.982212,145.074354,2.0,1.0,1,$295_per_week,none,September 2012,3194,2012,9,MENTONE,295,Other
4166,"120 OAK AVENUE, MENTONE",-37.9746876,145.0711519,3.0,2.0,2,$590_pw,none,January 2012,3194,2012,1,MENTONE,590,Other
4181,"2 MARINA ROAD, MENTONE",-37.985793,145.054859,4.0,2.0,2,$565_pw,Rental_residential,August 2012,3194,2012,8,MENTONE,565,Other
4182,"2 MARINA ROAD, MENTONE",-37.985793,145.054859,4.0,2.0,2,$600_pw,Rental_residential,January 2012,3194,2012,1,MENTONE,600,Other
4187,"1/14 MILAN STREET, MENTONE",-37.986688,145.059913,2.0,1.0,2,$320_pw,Rental_residential,April 2012,3194,2012,4,MENTONE,320,Other
4200,"3/24 ALBENCA STREET, MENTONE",-37.979639,145.074515,2.0,1.0,1,$265_per_week,Rental_residential,December 2012,3194,2012,12,MENTONE,265,Other
4201,"3/24 ALBENCA STREET, MENTONE",-37.979639,145.074515,2.0,1.0,1,$265_per_week,Rental_residential,June 2012,3194,2012,6,MENTONE,265,Other
4220,"14 LEVANTO STREET, MENTONE",-37.980852,145.075352,3.0,1.0,1,$485_pw,House,August 2012,3194,2012,8,MENTONE,485,House
4221,"14 LEVANTO STREET, MENTONE",-37.980852,145.075352,3.0,1.0,1,$500_pw,House,July 2012,3194,2012,7,MENTONE,500,House
4231,"4/33-35 CHILDERS STREET, MENTONE",-37.982793,145.070435,2.0,2.0,1,$430_per_week,none,September 2012,3194,2012,9,MENTONE,430,Other
4279,"11 SCHOOL ROAD, MENZIES CREEK",-37.916912,145.394329,3.0,1.0,2,$350_per_week,Rental_residential,March 2012,3159,2012,3,CREEK,350,Other
4311,"58 SCHOOL ROAD, MENZIES CREEK",-37.921429,145.405721,2.0,1.0,1,$280_pw,House,January 2012,3159,2012,1,CREEK,280,House
4323,"20 AURA VALE ROAD, MENZIES CREEK",-37.927395,145.40009,4.0,2.0,2,$500_per_week,House,February 2012,3159,2012,2,CREEK,500,House
4324,"20 AURA VALE ROAD, MENZIES CREEK",-37.927395,145.40009,4.0,2.0,2,$500_per_week,House,January 2012,3159,2012,1,CREEK,500,House
4339,"22 BLACKHILL ROAD, MENZIES CREEK",-37.9117,145.392251,3.0,1.0,0,$280_per_week,House,October 2012,3159,2012,10,CREEK,280,House
4342,"1 SCHOOL ROAD, MENZIES CREEK",-37.9146407,145.3949714,5.0,3.0,6,$650_pw,none,September 2012,3159,2012,9,CREEK,650,Other
4368,"125C SEVENTH STREET, MERBEIN SOUTH",-34.2045981,142.0387241,4.0,2.0,2,$290_pw,House,April 2012,3505,2012,4,SOUTH,290,House
4381,"97A YELTA ROAD, MERBEIN WEST",-34.1701809,142.0246059,3.0,1.0,0,$200_per_week,none,July 2012,3505,2012,7,WEST,200,Other
4410,"3/29 THIRD STREET, MERBEIN",-34.163078,142.054478,3.0,1.0,1,$220_per_week,House,July 2012,3505,2012,7,MERBEIN,220,House
4411,"3/29 THIRD STREET, MERBEIN",-34.163078,142.054478,3.0,1.0,1,$220_per_week,House,January 2012,3505,2012,1,MERBEIN,220,House
4442,"49 GAME STREET, MERBEIN",-34.169013,142.055036,2.0,1.0,2,$185,House,November 2012,3505,2012,11,MERBEIN,185,House
4466,"94 CHAFFEY STREET, MERBEIN",-34.1677452,142.0692196,3.0,1.0,2,$220_per_week,House,November 2012,3505,2012,11,MERBEIN,220,House
4571,"4590 MIDLAND HIGHWAY, MEREDITH",-37.832882,144.060659,4.0,1.0,1,$240_pw,none,May 2012,3333,2012,5,MEREDITH,240,Other
4589,"38 WALLACE STREET, MEREDITH",-37.849409,144.076212,4.0,2.0,2,$370_per_week,House,May 2012,3333,2012,5,MEREDITH,370,House
4597,"51 BOUNDARY ROAD, MEREDITH",-37.826186,144.044756,3.0,1.0,1,$200_pw,House,December 2012,3333,2012,12,MEREDITH,200,House
4601,"21 LAWLER STREET, MEREDITH",-37.844434,144.072949,2.0,1.0,3,$200_pw,House,July 2012,3333,2012,7,MEREDITH,200,House
4602,"21 LAWLER STREET, MEREDITH",-37.844434,144.072949,2.0,1.0,3,$200_pw,House,June 2012,3333,2012,6,MEREDITH,200,House
4603,"5490 MIDLAND HWY, MEREDITH",-37.8281582,144.0516811,3.0,1.0,0,$240_per_week,House,May 2012,3333,2012,5,MEREDITH,240,House
4615,"6 PITTAWAY STREET, MERNDA",-37.589583,145.097101,4.0,3.0,2,$370_per_week,none,February 2012,3754,2012,2,MERNDA,370,Other
4657,"11 GREIG DRIVE, MERNDA",-37.589777,145.099407,4.0,2.0,2,$440_per_week,none,June 2012,3754,2012,6,MERNDA,440,Other
4658,"11 GREIG DRIVE, MERNDA",-37.589777,145.099407,4.0,2.0,2,$460_per_week,none,May 2012,3754,2012,5,MERNDA,460,Other
4668,"40 RIORDAN CRESCENT, MERNDA",-37.597664,145.085671,3.0,2.0,2,$330_per_week,Rental_residential,April 2012,3754,2012,4,MERNDA,330,Other
4734,"16 ROWANVAL TERRACE, MERNDA",-37.608498,145.081355,3.0,2.0,2,$340_per_week,House,August 2012,3754,2012,8,MERNDA,340,House
4741,"10 HOPKINS STREET, MERNDA",-37.61316,145.094706,3.0,2.0,2,$300,House,February 2012,3754,2012,2,MERNDA,300,House
4758,"11 RIORDAN CRESCENT, MERNDA",-37.598599,145.086383,4.0,2.0,2,$351_pw,none,November 2012,3754,2012,11,MERNDA,351,Other
4764,"3 GELLIBRAND WALK, MERNDA",-37.613174,145.093796,3.0,1.0,2,$320_p.w.,Townhouse,October 2012,3754,2012,10,MERNDA,320,House
4772,"28 SOFTWOOD DRIVE, MERNDA",-37.589232,145.088262,3.0,2.0,2,$330_per_week,House,April 2012,3754,2012,4,MERNDA,330,House
4773,"28 SOFTWOOD DRIVE, MERNDA",-37.589232,145.088262,3.0,2.0,2,$335_pw,House,January 2012,3754,2012,1,MERNDA,335,House
4799,"298 MERRIANG SOUTH ROAD, MERRIANG",-36.594322,146.679518,3.0,1.0,2,$300_per_week,none,December 2012,3737,2012,12,MERRIANG,300,Other
4800,"298 MERRIANG SOUTH ROAD, MERRIANG",-36.594322,146.679518,3.0,1.0,2,$250_pw,none,June 2012,3737,2012,6,MERRIANG,250,Other
4863,"58 PALMERS HILL ROAD, MERRICKS BEACH",-38.396285,145.102246,3.0,1.0,1,$330_per_week,none,February 2012,3926,2012,2,BEACH,330,Other
4876,"37 PALMERS HILL ROAD, MERRICKS BEACH",-38.397399,145.104379,2.0,1.0,2,$250,House,September 2012,3926,2012,9,BEACH,250,House
4877,"37 PALMERS HILL ROAD, MERRICKS BEACH",-38.397399,145.104379,2.0,1.0,2,$310,House,April 2012,3926,2012,4,BEACH,310,House
4880,"130 BAYVIEW ROAD, MERRICKS BEACH",-38.398877,145.108313,3.0,2.0,0,$400_per_week,none,June 2012,3926,2012,6,BEACH,400,Other
4881,"130 BAYVIEW ROAD, MERRICKS BEACH",-38.398877,145.108313,3.0,2.0,0,$400_per_week,none,May 2012,3926,2012,5,BEACH,400,Other
4892,"34 PALMERS HILL ROAD, MERRICKS BEACH",-38.397368,145.10525,4.0,2.0,2,$500,none,October 2012,3926,2012,10,BEACH,500,Other
4893,"34 PALMERS HILL ROAD, MERRICKS BEACH",-38.397368,145.10525,4.0,2.0,2,$500,none,July 2012,3926,2012,7,BEACH,500,Other
4916,"10 CLIFF ROAD, MERRICKS BEACH",-38.398323,145.112956,2.0,3.0,1,$390_pw,House,December 2012,3926,2012,12,BEACH,390,House
4951,"10 CLIFF ROAD, MERRICKS",-38.4297614,145.0459126,2.0,3.0,1,$390_pw,House,December 2012,3916,2012,12,MERRICKS,390,House
4952,"34 PALMERS HILL ROAD, MERRICKS",-38.397218,145.105318,4.0,2.0,0,$500,House,October 2012,3916,2012,10,MERRICKS,500,House
4953,"6 SPRINGFIELD ROAD, MERRICKS",-38.393277,145.083693,3.0,2.0,2,$380_per_week,House,May 2012,3916,2012,5,MERRICKS,380,House
4961,"1 PALMER CRESCENT, MERRIGUM",-36.36733,145.131465,3.0,1.0,0,$170_per_week,House,May 2012,3618,2012,5,MERRIGUM,170,House
4962,"1 PALMER CRESCENT, MERRIGUM",-36.36733,145.131465,3.0,1.0,0,$170_per_week,House,February 2012,3618,2012,2,MERRIGUM,170,House
4963,"1 PALMER CRESCENT, MERRIGUM",-36.36733,145.131465,3.0,1.0,0,$170_per_week,House,January 2012,3618,2012,1,MERRIGUM,170,House
4989,"54 MORRISSEY STREET, MERRIGUM",-36.372694,145.126681,3.0,1.0,2,$225_pw,House,July 2012,3618,2012,7,MERRIGUM,225,House
4991,"25 PEARCE STREET, MERRIGUM",-36.375336,145.134217,3.0,1.0,3,$195_pw,none,July 2012,3618,2012,7,MERRIGUM,195,Other
5066,"25 CHANGUE ROAD, MERRIJIG",-37.111804,146.354686,3.0,2.0,0,$220_pw,House,November 2012,3723,2012,11,MERRIJIG,220,House
5093,"3 PURCELL DRIVE, MERRIJIG",-37.109466,146.356182,3.0,2.0,2,$460_pw,House,December 2012,3723,2012,12,MERRIJIG,460,House
5094,"3 PURCELL DRIVE, MERRIJIG",-37.109466,146.356182,3.0,2.0,2,$460_pw,House,June 2012,3723,2012,6,MERRIJIG,460,House
5160,"17 HUGH STREET, METUNG",-37.882184,147.839453,3.0,1.0,0,$220_per_week,House,May 2012,3904,2012,5,METUNG,220,House
5192,"17 PETER ROAD, METUNG",-37.8811468,147.8224662,4.0,2.0,6,$1715_Weekly,House,November 2012,3904,2012,11,METUNG,1715,House
5443,"211 RICHARDSON STREET, MIDDLE PARK",-37.849191,144.96162,3.0,2.0,0,$900_per_week,none,November 2012,3206,2012,11,PARK,900,Other
5461,"6/28 PATTERSON STREET, MIDDLE PARK",-37.854557,144.964909,2.0,2.0,1,$520_per_week,Rental_residential,September 2012,3206,2012,9,PARK,520,Other
5462,"6/28 PATTERSON STREET, MIDDLE PARK",-37.854557,144.964909,2.0,2.0,1,$540_per_week,Rental_residential,June 2012,3206,2012,6,PARK,540,Other
5507,"9 NIMMO STREET, MIDDLE PARK",-37.849168,144.963353,2.0,1.0,0,$475_per_week,none,March 2012,3206,2012,3,PARK,475,Other
5531,"5/28 PATTERSON STREET, MIDDLE PARK",-37.854557,144.964909,1.0,1.0,1,$399_pw,Rental_residential,September 2012,3206,2012,9,PARK,399,Other
5545,"112 NEVILLE STREET, MIDDLE PARK",-37.850954,144.962638,3.0,2.0,0,$435_pw,Townhouse,July 2012,3206,2012,7,PARK,435,House
5670,"23 NIMMO STREET, MIDDLE PARK",-37.849595,144.963,3.0,2.0,1,$1300_pw,Rental_residential,June 2012,3206,2012,6,PARK,1300,Other
5681,"9/200 BEACONSFIELD PARADE, MIDDLE PARK",-37.851917,144.957617,2.0,1.0,1,$380_per_week,Rental_residential,May 2012,3206,2012,5,PARK,380,Other
5712,"94/195 BEACONSFIELD PARADE, MIDDLE PARK",-37.851704,144.957316,1.0,1.0,1,$450_per_week,Unit,June 2012,3206,2012,6,PARK,450,Apartment
5713,"94/195 BEACONSFIELD PARADE, MIDDLE PARK",-37.851704,144.957316,1.0,1.0,1,$450_per_week,Unit,May 2012,3206,2012,5,PARK,450,Apartment
