,address,latitude,longitude,nbed,nbath,ncar,price,type,historical_dates,postcode,year,month,suburb,weekly_rent
44,"4 ALBERT STREET, CHEWTON",-37.0918145,144.258599,3.0,1.0,2,$345_Weekly,House,September 2017,3451,2017,9,CHEWTON,345
45,"4 ALBERT STREET, CHEWTON",-37.0918145,144.258599,3.0,1.0,2,$345_pw,House,September 2017,3451,2017,9,CHEWTON,345
52,"208 MAIN ROAD, CHEWTON",-37.080111,144.261809,3.0,1.0,2,$300_pw,House,April 2017,3451,2017,4,CHEWTON,300
53,"208 MAIN ROAD, CHEWTON",-37.080111,144.261809,3.0,1.0,2,$300,House,April 2017,3451,2017,4,CHEWTON,300
57,"22 PITMAN STREET, CHEWTON",-37.084464,144.2669094,2.0,1.0,2,$320_pw,House,September 2017,3451,2017,9,CHEWTON,320
58,"22 PITMAN STREET, CHEWTON",-37.084464,144.2669094,2.0,1.0,2,$320_per_week,House,August 2017,3451,2017,8,CHEWTON,320
76,"14 PITMAN STREET, CHEWTON",-37.083013,144.266589,4.0,1.0,1,$335_Weekly,House,February 2017,3451,2017,2,CHEWTON,335
77,"14 PITMAN STREET, CHEWTON",-37.083013,144.266589,4.0,1.0,1,$335_pw,House,February 2017,3451,2017,2,CHEWTON,335
96,"239 MAIN ROAD, CHEWTON",-37.081393,144.266198,2.0,1.0,2,$365_pw,House,June 2017,3451,2017,6,CHEWTON,365
99,"52 FRYERS ROAD, CHEWTON",-37.087738,144.257555,3.0,1.0,2,$450_per_week,House,August 2017,3451,2017,8,CHEWTON,450
100,"52 FRYERS ROAD, CHEWTON",-37.087738,144.257555,3.0,1.0,2,$450_p.w.,House,August 2017,3451,2017,8,CHEWTON,450
101,"52 FRYERS ROAD, CHEWTON",-37.087738,144.257555,3.0,1.0,2,$450_pw,House,August 2017,3451,2017,8,CHEWTON,450
114,"171 MAIN ROAD, CHEWTON",-37.081326,144.259245,3.0,1.0,8,$335_pw,House,March 2017,3451,2017,3,CHEWTON,335
115,"171 MAIN ROAD, CHEWTON",-37.081326,144.259245,3.0,1.0,8,$335_Weekly,House,March 2017,3451,2017,3,CHEWTON,335
120,"16 STEELE ST, CHEWTON",-37.0796296,144.2491082,3.0,2.0,2,$350_per_week,House,December 2017,3451,2017,12,CHEWTON,350
121,"16 STEELE STREET, CHEWTON",-37.0797293,144.248306,3.0,2.0,2,$350_per_week,House,December 2017,3451,2017,12,CHEWTON,350
122,"16 STEELE STREET, CHEWTON",-37.0797293,144.248306,3.0,2.0,2,$350_Weekly,House,November 2017,3451,2017,11,CHEWTON,350
123,"16 STEELE STREET, CHEWTON",-37.0797293,144.248306,3.0,2.0,2,$350_pw,House,November 2017,3451,2017,11,CHEWTON,350
128,"86 FRYERS ROAD, CHEWTON",-37.0914365,144.2563395,3.0,1.0,1,$280,House,October 2017,3451,2017,10,CHEWTON,280
129,"195 MAIN ROAD, CHEWTON",-37.0803456,144.2619809,3.0,1.0,2,$340,House,August 2017,3451,2017,8,CHEWTON,340
131,"9 MITCHELL STREET, CHEWTON",-37.0833349,144.2668596,4.0,1.0,2,$350_per_week,House,August 2017,3451,2017,8,CHEWTON,350
132,"9 MITCHELL STREET, CHEWTON",-37.0833349,144.2668596,4.0,1.0,2,$350_per_week,House,July 2017,3451,2017,7,CHEWTON,350
133,"204 MAIN ROAD, CHEWTON",-37.08026793,144.26125256,2.0,1.0,0,$315_per_week,House,July 2017,3451,2017,7,CHEWTON,315
135,"204 MAIN RD, CHEWTON",-37.0802679,144.2612526,2.0,1.0,0,$315_per_week,House,July 2017,3451,2017,7,CHEWTON,315
136,"55 MAIN ROAD, CHEWTON",-37.0782319,144.24870663,3.0,1.0,0,$280_pw,House,July 2017,3451,2017,7,CHEWTON,280
137,"114 GOLDEN POINT ROAD, CHEWTON",-37.071999,144.2744735,3.0,1.0,2,$250_pw,House,June 2017,3451,2017,6,CHEWTON,250
139,"114 FRYERS ROAD, CHEWTON",-37.094488,144.2554,2.0,1.0,3,$260_pw,House,May 2017,3451,2017,5,CHEWTON,260
182,"6 NORTH STREET, CHILDERS",-25.235875,152.277091,1.0,1.0,0,$300_-_$200,Other,August 2017,3824,2017,8,CHILDERS,200
183,"6 NORTH STREET, CHILDERS",-25.235875,152.277091,1.0,1.0,0,$240_per_week,Other,August 2017,3824,2017,8,CHILDERS,240
185,"2/132 CHURCHILL STREET, CHILDERS",-25.2368417,152.2762754,1.0,1.0,0,$275_per_week,Other,August 2017,3824,2017,8,CHILDERS,275
186,"4/22 HENDLE STREET, CHILDERS",-25.2384092,152.2856441,2.0,2.0,1,$285_per_week,House,August 2017,3824,2017,8,CHILDERS,285
188,"6 NOAKES STREET, CHILDERS",-25.234434,152.273026,3.0,2.0,0,$300_per_week,House,August 2017,3824,2017,8,CHILDERS,300
189,"224 CHURCHILL STREET, CHILDERS",-25.234411,152.267975,3.0,1.0,1,$250_per_week,House,August 2017,3824,2017,8,CHILDERS,250
274,"10B CONNESS STREET, CHILTERN",-36.151004,146.605192,2.0,1.0,1,$235_pw,House,August 2017,3683,2017,8,CHILTERN,235
309,"2 REID STREET, CHILTERN",-36.148309,146.609426,3.0,1.0,1,$200_per_week,House,June 2017,3683,2017,6,CHILTERN,200
310,"2 REID STREET, CHILTERN",-36.148309,146.609426,3.0,1.0,1,$200,House,June 2017,3683,2017,6,CHILTERN,200
311,"2 REID STREET, CHILTERN",-36.148309,146.609426,3.0,1.0,1,$200_pw,House,June 2017,3683,2017,6,CHILTERN,200
343,"29-31 ALBERT ROAD, CHILTERN",-36.1499141,146.5995142,4.0,2.0,4,$430,none,November 2017,3683,2017,11,CHILTERN,430
344,"29-31 ALBERT ROAD, CHILTERN",-36.1499141,146.5995142,4.0,2.0,4,$430_pw,none,November 2017,3683,2017,11,CHILTERN,430
345,"29-31 ALBERT ROAD, CHILTERN",-36.1499141,146.5995142,4.0,2.0,4,$430_per_week,none,November 2017,3683,2017,11,CHILTERN,430
347,"101 CONNESS STREET, CHILTERN",-36.1508561,146.6150245,3.0,1.0,0,$280,House,December 2017,3683,2017,12,CHILTERN,280
367,"5 PARK STREET, CHILTERN",-36.149064,146.608326,3.0,1.0,2,$280_p.w.,House,December 2017,3683,2017,12,CHILTERN,280
375,"A/31 BARKLY STREET, CHILTERN",-36.154935,146.6056378,3.0,1.0,1,$280_per_week,House,October 2017,3683,2017,10,CHILTERN,280
376,"A/31 BARKLY STREET, CHILTERN",-36.154935,146.6056378,3.0,1.0,1,$280_per_week,House,November 2017,3683,2017,11,CHILTERN,280
377,"A/31 BARKLY STREET, CHILTERN",-36.154935,146.6056378,3.0,1.0,1,$280_per_week,House,February 2017,3683,2017,2,CHILTERN,280
378,"13 BURKE STREET, CHILTERN",-36.152878,146.607758,2.0,1.0,1,$250_Weekly,none,September 2017,3683,2017,9,CHILTERN,250
381,"222 TOOMEYS LANE, CHINTIN",-37.363602,144.839603,3.0,1.0,2,$560_per_week,none,January 2017,3756,2017,1,CHINTIN,560
391,"4 GLENDALE DRIVE, CHIRNSIDE PARK",-37.751383,145.312411,4.0,2.0,2,$385_per_week,Rental_residential,February 2017,3116,2017,2,PARK,385
392,"4 GLENDALE DRIVE, CHIRNSIDE PARK",-37.751383,145.312411,4.0,2.0,2,$385,Rental_residential,February 2017,3116,2017,2,PARK,385
440,"27 SWITCHBACK ROAD, CHIRNSIDE PARK",-37.745383,145.332843,3.0,1.0,1,$370_pw,House,September 2017,3116,2017,9,PARK,370
516,"1 MANSION PLACE, CHIRNSIDE PARK",-37.750597,145.327479,3.0,2.0,4,$440_pw,House,November 2017,3116,2017,11,PARK,440
583,"9 ALLY TERRACE, CHIRNSIDE PARK",-37.756061,145.295076,4.0,2.0,2,$550_per_week,House,November 2017,3116,2017,11,PARK,550
584,"9 ALLY TERRACE, CHIRNSIDE PARK",-37.756061,145.295076,4.0,2.0,2,$550_per_week,House,April 2017,3116,2017,4,PARK,550
600,"5 ALLY TERRACE, CHIRNSIDE PARK",-37.756717,145.294892,4.0,2.0,2,$570_per_week,House,December 2017,3116,2017,12,PARK,570
601,"5 ALLY TERRACE, CHIRNSIDE PARK",-37.756717,145.294892,4.0,2.0,2,$570,House,December 2017,3116,2017,12,PARK,570
602,"5 ALLY TERRACE, CHIRNSIDE PARK",-37.756717,145.294892,4.0,2.0,2,$570_pw,House,December 2017,3116,2017,12,PARK,570
603,"5 ALLY TERRACE, CHIRNSIDE PARK",-37.756717,145.294892,4.0,2.0,2,$570_per_week,House,November 2017,3116,2017,11,PARK,570
604,"5 ALLY TERRACE, CHIRNSIDE PARK",-37.756717,145.294892,4.0,2.0,2,$550_pw,House,July 2017,3116,2017,7,PARK,550
691,"511-525 RIDGE ROAD, CHRISTMAS HILLS",-37.6593641,145.3008935,3.0,1.0,0,$380_per_week,none,March 2017,3775,2017,3,HILLS,380
710,"9 ARTHURS ROAD, CHUM CREEK",-37.611197,145.49368,2.0,1.0,7,$320_per_week,House,June 2017,3777,2017,6,CREEK,320
732,"99 HODGES ROAD, CHUM CREEK",-37.6290249,145.4945064,3.0,1.0,2,$420_per_week,House,September 2017,3777,2017,9,CREEK,420
733,"30 LOWES ROAD, CHUM CREEK",-37.6296123,145.50245,4.0,2.0,2,$500_per_week,House,June 2017,3777,2017,6,CREEK,500
809,"36 HAWTHORN CRESCENT, CHURCHILL",-38.3053676,146.4133828,3.0,1.0,2,$235_Wk,House,October 2017,3842,2017,10,CHURCHILL,235
810,"36 HAWTHORN CRESCENT, CHURCHILL",-38.3053676,146.4133828,3.0,1.0,2,$235_Wk,House,July 2017,3842,2017,7,CHURCHILL,235
833,"7B BAROOGA CRESCENT, CHURCHILL",-38.3219101,146.4203673,1.0,1.0,1,$110_per_week,House,December 2017,3842,2017,12,CHURCHILL,110
904,"38 COOLABAH DRIVE, CHURCHILL",-38.303151,146.416263,3.0,1.0,1,$200,House,May 2017,3842,2017,5,CHURCHILL,200
905,"38 COOLABAH DRIVE, CHURCHILL",-38.303151,146.416263,3.0,1.0,1,$200_pw,House,May 2017,3842,2017,5,CHURCHILL,200
906,"38 COOLABAH DRIVE, CHURCHILL",-38.303151,146.416263,3.0,1.0,1,$210_per_week,House,April 2017,3842,2017,4,CHURCHILL,210
1002,"4 CASEY COURT, CLARINDA",-37.942898,145.109007,3.0,1.0,2,$470,House,June 2017,3169,2017,6,CLARINDA,470
1003,"4 CASEY COURT, CLARINDA",-37.942898,145.109007,3.0,1.0,2,$480_per_week,House,June 2017,3169,2017,6,CLARINDA,480
1004,"4 CASEY COURT, CLARINDA",-37.942898,145.109007,3.0,1.0,2,$470_pw,House,June 2017,3169,2017,6,CLARINDA,470
1016,"1/21 ELDER STREET, CLARINDA",-37.9291625,145.1038649,2.0,1.0,1,$320,Unit,November 2017,3169,2017,11,CLARINDA,320
1041,"35 INVERNESS STREET, CLARINDA",-37.931388,145.108324,3.0,1.0,1,$450_p.w.,House,November 2017,3169,2017,11,CLARINDA,450
1068,"1 / 55 VINEY STREET, CLARINDA",-37.93875,145.101891,3.0,1.0,3,$450_per_week,Townhouse,October 2017,3169,2017,10,CLARINDA,450
1087,"3/69 SCHNEIDER CRESCENT, CLARINDA",-37.938692,145.101428,2.0,1.0,2,$440_p.w.,Townhouse,November 2017,3169,2017,11,CLARINDA,440
1103,"216 BOURKE ROAD, CLARINDA",-37.943003,145.115582,3.0,1.0,1,$360,House,May 2017,3169,2017,5,CLARINDA,360
1113,"1/45 BUNNEY ROAD, CLARINDA",-37.93339,145.100827,3.0,1.0,2,$365_p.w.,House,November 2017,3169,2017,11,CLARINDA,365
1114,"1/45 BUNNEY ROAD, CLARINDA",-37.93339,145.100827,3.0,1.0,2,$365,House,November 2017,3169,2017,11,CLARINDA,365
1115,"1/45 BUNNEY ROAD, CLARINDA",-37.93339,145.100827,3.0,1.0,2,$365_per_week,House,November 2017,3169,2017,11,CLARINDA,365
1116,"1/45 BUNNEY ROAD, CLARINDA",-37.93339,145.100827,3.0,1.0,2,$370_pw,House,October 2017,3169,2017,10,CLARINDA,370
1117,"1/45 BUNNEY ROAD, CLARINDA",-37.93339,145.100827,3.0,1.0,2,$370_per_week,House,October 2017,3169,2017,10,CLARINDA,370
1118,"1/45 BUNNEY ROAD, CLARINDA",-37.93339,145.100827,3.0,1.0,2,$370_p.w.,House,October 2017,3169,2017,10,CLARINDA,370
1119,"1/45 BUNNEY ROAD, CLARINDA",-37.93339,145.100827,3.0,1.0,2,$370,House,October 2017,3169,2017,10,CLARINDA,370
1127,"34 JACOBS DRIVE, CLARINDA",-37.944424,145.107486,3.0,1.0,2,$400_Wk,House,November 2017,3169,2017,11,CLARINDA,400
1128,"34 JACOBS DRIVE, CLARINDA",-37.944424,145.107486,3.0,1.0,2,$400_Wk,House,August 2017,3169,2017,8,CLARINDA,400
1129,"34 JACOBS DRIVE, CLARINDA",-37.944424,145.107486,3.0,1.0,2,$400_Wk,House,July 2017,3169,2017,7,CLARINDA,400
1141,"3/7 MACK CRESCENT, CLARINDA",-37.943918,145.11252,2.0,1.0,1,$350_p.w.,Unit/apmt,November 2017,3169,2017,11,CLARINDA,350
1142,"3/7 MACK CRESCENT, CLARINDA",-37.943918,145.11252,2.0,1.0,1,$350_p.w.,Unit/apmt,June 2017,3169,2017,6,CLARINDA,350
1212,"1/38 SCHNEIDER CRESCENT, CLARINDA",-37.9389853,145.100787,3.0,1.0,1,$380,Unit/apmt,December 2017,3169,2017,12,CLARINDA,380
1213,"1/38 SCHNEIDER CRESCENT, CLARINDA",-37.9389853,145.100787,3.0,1.0,1,$380_pw,Unit/apmt,December 2017,3169,2017,12,CLARINDA,380
1214,"1/38 SCHNEIDER CRESCENT, CLARINDA",-37.9389853,145.100787,3.0,1.0,1,$380_p.w.,Unit/apmt,November 2017,3169,2017,11,CLARINDA,380
1218,"1/38 SCHNEIDER CRES, CLARINDA",-37.9390274,145.1006505,3.0,1.0,1,$380_Weekly,Unit/apmt,December 2017,3169,2017,12,CLARINDA,380
1235,"1/45 BUNNEY RD, CLARINDA",-37.93339,145.100827,3.0,1.0,0,$365,House,November 2017,3169,2017,11,CLARINDA,365
1280,"160 FENTON HILL ROAD, CLARKEFIELD",-37.4935034,144.8108406,3.0,1.0,3,$450_per_week,House,July 2017,3430,2017,7,CLARKEFIELD,450
1285,"1556 LANCEFIELD &QUOTGATE HOUSE&QUOT ROAD, BOLINDA VALE, CLARKEFIELD",-37.4604361,144.7422777,3.0,1.0,1,$260_per_week,House,September 2017,3430,2017,9,CLARKEFIELD,260
1286,"291 BOGGY GATE ROAD, CLARKEFIELD",-37.478953,144.789645,4.0,1.0,0,$575_Wk,House,June 2017,3430,2017,6,CLARKEFIELD,575
1288,"291 BOGGY GATE RD, CLARKEFIELD",-37.478953,144.789645,4.0,1.0,0,$575_Wk,House,June 2017,3430,2017,6,CLARKEFIELD,575
1320,"5/66 WELLINGTON ROAD, CLAYTON NORTH",-37.916266,145.137184,1.0,1.0,1,$200_p.w.,Studio,December 2017,3168,2017,12,NORTH,200
1321,"5/66 WELLINGTON ROAD, CLAYTON NORTH",-37.916266,145.137184,1.0,1.0,1,$200_p.w.,Studio,November 2017,3168,2017,11,NORTH,200
1322,"1/73 BEDDOE AVENUE, CLAYTON NORTH",-37.91329,145.127397,2.0,1.0,2,$350_p.w.,House,November 2017,3168,2017,11,NORTH,350
1323,"1/73 BEDDOE AVENUE, CLAYTON NORTH",-37.91329,145.127397,2.0,1.0,2,$350_p.w.,House,October 2017,3168,2017,10,NORTH,350
1324,"28 EVELYN STREET, CLAYTON NORTH",-37.919915,145.131416,3.0,1.0,0,$370_p.w.,House,October 2017,3168,2017,10,NORTH,370
1326,"62 MAIN ROAD, CLAYTON NORTH",-37.935427,145.127029,3.0,1.0,0,$380_p.w.,House,August 2017,3168,2017,8,NORTH,380
1327,"11 BETTINA ST, CLAYTON NORTH",-37.9189,145.137289,3.0,1.0,1,$350_p.w.,House,July 2017,3168,2017,7,NORTH,350
1328,"11 BETTINA STREET, CLAYTON NORTH",-37.9189,145.137289,3.0,1.0,1,$350_p.w.,House,July 2017,3168,2017,7,NORTH,350
1329,"2/54 WELLINGTON ROAD, CLAYTON NORTH",-37.9160857,145.1358348,4.0,2.0,1,$520_per_week,Townhouse,July 2017,3168,2017,7,NORTH,520
1330,"2/1498 NORTH ROAD, CLAYTON NORTH",-37.914887,145.125433,3.0,1.0,2,$430_p.w.,Unit/apmt,April 2017,3168,2017,4,NORTH,430
1379,"1/19 BURNS AVENUE, CLAYTON SOUTH",-37.936444,145.134354,2.0,1.0,1,$300_Week,none,September 2017,3169,2017,9,SOUTH,300
1405,"3/17 OAKES AVENUE, CLAYTON SOUTH",-37.935187,145.130118,2.0,1.0,1,$310,Unit/apmt,February 2017,3169,2017,2,SOUTH,310
1454,"1/31 BEVAN AVENUE, CLAYTON SOUTH",-37.934415,145.128568,3.0,1.0,1,$395_per_week,House,May 2017,3169,2017,5,SOUTH,395
1475,"2/38 OAKES AVENUE, CLAYTON SOUTH",-37.93599,145.132932,2.0,1.0,1,$330_p.w.,Unit/apmt,May 2017,3169,2017,5,SOUTH,330
1549,"12 BOTANIC DRIVE, CLAYTON SOUTH",-37.939354,145.13641,3.0,2.0,2,$550,none,January 2017,3169,2017,1,SOUTH,550
1555,"12 BOTANIC DR, CLAYTON SOUTH",-37.939363,145.13649,3.0,2.0,2,$550,Townhouse,January 2017,3169,2017,1,SOUTH,550
1586,"B218/60 AUTUMN TERRACE, CLAYTON SOUTH",-37.9393196,145.1384859,2.0,2.0,1,$400,none,April 2017,3169,2017,4,SOUTH,400
1587,"B218/60 AUTUMN TERRACE, CLAYTON SOUTH",-37.9393196,145.1384859,2.0,2.0,1,$400_per_week,none,March 2017,3169,2017,3,SOUTH,400
1594,"2/33 BROWNING AVENUE, CLAYTON SOUTH",-37.9389684,145.1327188,3.0,1.0,1,$340_Weekly,none,April 2017,3169,2017,4,SOUTH,340
1595,"2/33 BROWNING AVENUE, CLAYTON SOUTH",-37.9389684,145.1327188,3.0,1.0,1,$340_Weekly,none,March 2017,3169,2017,3,SOUTH,340
1596,"2/33 BROWNING AVENUE, CLAYTON SOUTH",-37.9389684,145.1327188,3.0,1.0,1,$340_Weekly,none,February 2017,3169,2017,2,SOUTH,340
1659,"51 GLENCANNON CRESCENT, CLAYTON SOUTH",-37.936405,145.116593,3.0,1.0,1,$390_Wk,House,November 2017,3169,2017,11,SOUTH,390
1660,"51 GLENCANNON CRESCENT, CLAYTON SOUTH",-37.936405,145.116593,3.0,1.0,1,$390_Wk,House,August 2017,3169,2017,8,SOUTH,390
1661,"51 GLENCANNON CRESCENT, CLAYTON SOUTH",-37.936405,145.116593,3.0,1.0,1,$390_Wk,House,July 2017,3169,2017,7,SOUTH,390
1667,"2B BEVAN AVENUE, CLAYTON SOUTH",-37.932507,145.129524,3.0,1.0,1,$380_Wk,Unit/apmt,November 2017,3169,2017,11,SOUTH,380
1668,"2B BEVAN AVENUE, CLAYTON SOUTH",-37.932507,145.129524,3.0,1.0,1,$370_Wk,Unit/apmt,August 2017,3169,2017,8,SOUTH,370
1669,"2B BEVAN AVENUE, CLAYTON SOUTH",-37.932507,145.129524,3.0,1.0,1,$380_Wk,Unit/apmt,July 2017,3169,2017,7,SOUTH,380
1673,"4/12 MOORE AVENUE, CLAYTON SOUTH",-37.938258,145.135818,2.0,1.0,1,$305_per_week,Unit/apmt,November 2017,3169,2017,11,SOUTH,305
1678,"27 SPRINGS RD, CLAYTON SOUTH",-37.929966,145.109612,3.0,1.0,1,$350_p.w.,House,November 2017,3169,2017,11,SOUTH,350
1679,"27 SPRINGS RD, CLAYTON SOUTH",-37.929966,145.109612,3.0,1.0,1,$350_p.w.,House,June 2017,3169,2017,6,SOUTH,350
1694,"37 MONASH CRESCENT, CLAYTON SOUTH",-37.944059,145.133323,3.0,1.0,2,$430,House,December 2017,3169,2017,12,SOUTH,430
1695,"37 MONASH CRESCENT, CLAYTON SOUTH",-37.944059,145.133323,3.0,1.0,2,$430_pw,House,December 2017,3169,2017,12,SOUTH,430
1696,"37 MONASH CRESCENT, CLAYTON SOUTH",-37.944059,145.133323,3.0,1.0,2,$450_p.w.,House,November 2017,3169,2017,11,SOUTH,450
1697,"37 MONASH CRESCENT, CLAYTON SOUTH",-37.944059,145.133323,3.0,1.0,2,$450_pw,House,November 2017,3169,2017,11,SOUTH,450
1698,"37 MONASH CRESCENT, CLAYTON SOUTH",-37.944059,145.133323,3.0,1.0,2,$480_Weekly,House,November 2017,3169,2017,11,SOUTH,480
1699,"37 MONASH CRESCENT, CLAYTON SOUTH",-37.944059,145.133323,3.0,1.0,2,$440_Wk,House,October 2017,3169,2017,10,SOUTH,440
1700,"37 MONASH CRESCENT, CLAYTON SOUTH",-37.944059,145.133323,3.0,1.0,2,$480_Weekly,House,August 2017,3169,2017,8,SOUTH,480
1701,"37 MONASH CRESCENT, CLAYTON SOUTH",-37.944059,145.133323,3.0,1.0,2,$480_Weekly,House,July 2017,3169,2017,7,SOUTH,480
1704,"3/13 ROSEBANK AVENUE, CLAYTON SOUTH",-37.938914,145.128681,3.0,2.0,1,$520_per_week,Unit/apmt,December 2017,3169,2017,12,SOUTH,520
1705,"3/13 ROSEBANK AVENUE, CLAYTON SOUTH",-37.938914,145.128681,3.0,2.0,1,$520_per_week,Unit/apmt,November 2017,3169,2017,11,SOUTH,520
1754,"2/1430 CENTRE ROAD, CLAYTON SOUTH",-37.930149,145.129475,1.0,1.0,1,$375,Unit/apmt,May 2017,3169,2017,5,SOUTH,375
1758,"22 FAIRBANK ROAD, CLAYTON SOUTH",-37.943047,145.136729,2.0,1.0,1,$320_Wk,Unit/apmt,November 2017,3169,2017,11,SOUTH,320
1759,"22 FAIRBANK ROAD, CLAYTON SOUTH",-37.943047,145.136729,2.0,1.0,1,$310_Wk,Unit/apmt,October 2017,3169,2017,10,SOUTH,310
1760,"22 FAIRBANK ROAD, CLAYTON SOUTH",-37.943047,145.136729,2.0,1.0,1,$310_Wk,Unit/apmt,September 2017,3169,2017,9,SOUTH,310
1761,"22 FAIRBANK ROAD, CLAYTON SOUTH",-37.943047,145.136729,2.0,1.0,1,$320_Wk,Unit/apmt,August 2017,3169,2017,8,SOUTH,320
1762,"22 FAIRBANK ROAD, CLAYTON SOUTH",-37.943047,145.136729,2.0,1.0,1,$320_Wk,Unit/apmt,July 2017,3169,2017,7,SOUTH,320
1785,"UNIT 8/27 LANARK STREET, CLAYTON SOUTH",-37.933628,145.115959,2.0,1.0,2,$365_Wk,Unit/apmt,July 2017,3169,2017,7,SOUTH,365
1786,"UNIT 8/27 LANARK STREET, CLAYTON SOUTH",-37.933628,145.115959,2.0,1.0,2,$350_Weekly,Unit/apmt,January 2017,3169,2017,1,SOUTH,350
1801,"UNIT 1/13 BROWNING AVENUE, CLAYTON SOUTH",-37.937188,145.132981,2.0,1.0,1,$340_Wk,Unit/apmt,June 2017,3169,2017,6,SOUTH,340
1802,"UNIT 1/13 BROWNING AVENUE, CLAYTON SOUTH",-37.937188,145.132981,2.0,1.0,1,$340_Wk,Unit/apmt,May 2017,3169,2017,5,SOUTH,340
1896,"UNIT 1/14 MILTON AVENUE, CLAYTON SOUTH",-37.934948,145.131524,2.0,1.0,1,$350_Wk,Unit/apmt,November 2017,3169,2017,11,SOUTH,350
1897,"UNIT 1/14 MILTON AVENUE, CLAYTON SOUTH",-37.934948,145.131524,2.0,1.0,1,$350_Wk,Unit/apmt,June 2017,3169,2017,6,SOUTH,350
1958,"5C TENNYSON AVENUE, CLAYTON SOUTH",-37.9333826,145.1302077,3.0,2.0,1,$500,Townhouse,May 2017,3169,2017,5,SOUTH,500
2163,"101/59 AUTUMN TERRACE, CLAYTON SOUTH",-37.9382803,145.1377219,1.0,1.0,1,$330,Unit/apmt,February 2017,3169,2017,2,SOUTH,330
2205,"2/55 MAIN ROAD, CLAYTON SOUTH",-37.937472,145.12717,3.0,2.0,2,$440,Unit,January 2017,3169,2017,1,SOUTH,440
2213,"UNIT 11/38 WORDSWORTH AVENUE, CLAYTON SOUTH",-37.939192,145.132069,2.0,1.0,1,$340_Wk,Unit,November 2017,3169,2017,11,SOUTH,340
2214,"UNIT 11/38 WORDSWORTH AVENUE, CLAYTON SOUTH",-37.939192,145.132069,2.0,1.0,1,$340_Wk,Unit,October 2017,3169,2017,10,SOUTH,340
2225,"1 MELOSA AVENUE, CLAYTON SOUTH",-37.937284,145.114101,3.0,1.0,2,$370,House,December 2017,3169,2017,12,SOUTH,370
2315,"5/30 MADELEINE ROAD, CLAYTON",-37.916743,145.120384,2.0,1.0,1,$350_p.w.,Unit/apmt,October 2017,3168,2017,10,CLAYTON,350
2344,"13 BROWNS ROAD, CLAYTON",-37.920978,145.127558,3.0,1.0,2,$495_p.w.,House,June 2017,3168,2017,6,CLAYTON,495
2345,"13 BROWNS ROAD, CLAYTON",-37.920978,145.127558,3.0,1.0,2,$495_p.w.,House,May 2017,3168,2017,5,CLAYTON,495
2398,"1/37 STOCKDALE AVENUE, CLAYTON",-37.910137,145.125737,1.0,1.0,0,$200,House,December 2017,3168,2017,12,CLAYTON,200
2423,"4/10 PANORAMA STREET, CLAYTON",-37.918065,145.130143,3.0,1.0,1,$400_p.w.,Townhouse,June 2017,3168,2017,6,CLAYTON,400
2441,"1/136 MORIAH STREET, CLAYTON",-37.928661,145.129288,3.0,2.0,1,$440_p.w.,Unit/apmt,February 2017,3168,2017,2,CLAYTON,440
2442,"1/136 MORIAH STREET, CLAYTON",-37.928661,145.129288,3.0,2.0,1,$440_Weekly,Unit/apmt,February 2017,3168,2017,2,CLAYTON,440
2443,"1/136 MORIAH STREET, CLAYTON",-37.928661,145.129288,3.0,2.0,1,$440,Unit/apmt,February 2017,3168,2017,2,CLAYTON,440
2488,"109/2-8 MURRAY STREET, CLAYTON",-37.918486,145.121732,1.0,1.0,1,$350,Unit/apmt,August 2017,3168,2017,8,CLAYTON,350
2489,"109/2-8 MURRAY STREET, CLAYTON",-37.918486,145.121732,1.0,1.0,1,$350,Unit/apmt,July 2017,3168,2017,7,CLAYTON,350
2514,"30/2 GREENFIELD DRIVE, CLAYTON",-37.923181,145.128623,2.0,1.0,1,$380,Unit,July 2017,3168,2017,7,CLAYTON,380
2515,"30/2 GREENFIELD DRIVE, CLAYTON",-37.923181,145.128623,2.0,1.0,1,$380,Unit,June 2017,3168,2017,6,CLAYTON,380
2529,"1/34 WELLINGTON ROAD, CLAYTON",-37.915779,145.133915,1.0,1.0,1,$255,Unit,December 2017,3168,2017,12,CLAYTON,255
2550,"2/40 EVELYN STREET, CLAYTON",-37.920813,145.131234,4.0,2.0,2,$550,House,January 2017,3168,2017,1,CLAYTON,550
2576,"1266 CENTRE ROAD, CLAYTON",-37.9278306,145.1130031,2.0,1.0,2,$340_Wk,House,June 2017,3168,2017,6,CLAYTON,340
2594,"UNIT 3/10 DENNIS STREET, CLAYTON",-37.9181978,145.1365816,2.0,1.0,1,$355_Wk,Unit,August 2017,3168,2017,8,CLAYTON,355
2607,"APARTMENT 10/4 MANATUNGA STREET, CLAYTON",-37.916239,145.125979,2.0,1.0,1,$295,Unit,September 2017,3168,2017,9,CLAYTON,295
2608,"APARTMENT 10/4 MANATUNGA STREET, CLAYTON",-37.916239,145.125979,2.0,1.0,1,$295,Unit,August 2017,3168,2017,8,CLAYTON,295
2618,"1/42 PANORAMA STREET, CLAYTON",-37.920706,145.129917,3.0,2.0,1,$450_per_week,House,August 2017,3168,2017,8,CLAYTON,450
2619,"1/42 PANORAMA STREET, CLAYTON",-37.920706,145.129917,3.0,2.0,1,$450_p.w.,House,August 2017,3168,2017,8,CLAYTON,450
2620,"1/42 PANORAMA STREET, CLAYTON",-37.920706,145.129917,3.0,2.0,1,$450_pw,House,August 2017,3168,2017,8,CLAYTON,450
2621,"1/42 PANORAMA STREET, CLAYTON",-37.920706,145.129917,3.0,2.0,1,$450,House,August 2017,3168,2017,8,CLAYTON,450
2631,"UNIT 2/91 MORIAH STREET, CLAYTON",-37.9251699,145.1296013,4.0,2.0,3,$610_Wk,Unit,December 2017,3168,2017,12,CLAYTON,610
2632,"UNIT 2/91 MORIAH STREET, CLAYTON",-37.9251699,145.1296013,4.0,2.0,3,$610_Wk,Unit,November 2017,3168,2017,11,CLAYTON,610
2709,"UNIT 2/20 BETTINA STREET, CLAYTON",-37.919178,145.137236,4.0,1.0,2,$550_Weekly,Townhouse,February 2017,3168,2017,2,CLAYTON,550
2817,"UNIT 4/81 EVA STREET, CLAYTON",-37.926655,145.11265,2.0,1.0,1,$380_Weekly,Unit,February 2017,3168,2017,2,CLAYTON,380
2870,"UNIT 11/1774 DANDENONG ROAD, CLAYTON",-37.916481,145.1295235,2.0,1.0,1,$335_Weekly,Unit,January 2017,3168,2017,1,CLAYTON,335
2882,"7/18-20 FRANCIS STREET, CLAYTON",-37.925169,145.12312,2.0,1.0,2,$410_p.w.,Unit,June 2017,3168,2017,6,CLAYTON,410
2883,"7/18-20 FRANCIS STREET, CLAYTON",-37.925169,145.12312,2.0,1.0,2,$410_p.w.,Unit,April 2017,3168,2017,4,CLAYTON,410
2888,"1/8 MARSHALL AVENUE, CLAYTON",-37.907741,145.127956,4.0,2.0,1,$560,Townhouse,September 2017,3168,2017,9,CLAYTON,560
2889,"1/8 MARSHALL AVENUE, CLAYTON",-37.907741,145.127956,4.0,2.0,1,$560,Townhouse,August 2017,3168,2017,8,CLAYTON,560
2899,"5 PRINCE STREET, CLAYTON",-37.916188,145.124287,4.0,2.0,1,$500_p.w.,House,October 2017,3168,2017,10,CLAYTON,500
2900,"5 PRINCE STREET, CLAYTON",-37.916188,145.124287,4.0,2.0,1,$580_p.w.,House,August 2017,3168,2017,8,CLAYTON,580
2927,"47 THOMPSON STREET, CLAYTON",-37.918999,145.118538,4.0,1.0,1,$400_p.w.,House,September 2017,3168,2017,9,CLAYTON,400
2928,"47 THOMPSON STREET, CLAYTON",-37.918999,145.118538,4.0,1.0,1,$400_p.w.,House,August 2017,3168,2017,8,CLAYTON,400
2938,"2/54 PANORAMA STREET, CLAYTON",-37.921554,145.129661,3.0,2.0,2,$500_p.w.,Townhouse,May 2017,3168,2017,5,CLAYTON,500
3032,"3/17 FRANCIS STREET, CLAYTON",-37.924666,145.123304,2.0,1.0,1,$380_p.w.,Unit,August 2017,3168,2017,8,CLAYTON,380
3033,"3/17 FRANCIS STREET, CLAYTON",-37.924666,145.123304,2.0,1.0,1,$380_p.w.,Unit,July 2017,3168,2017,7,CLAYTON,380
3082,"1/6 ATLANTIC STREET, CLAYTON",-37.918015,145.128456,1.0,1.0,1,$190,House,February 2017,3168,2017,2,CLAYTON,190
3133,"43 HARLINGTON STREET, CLAYTON",-37.923241,145.110846,3.0,1.0,1,$400_Wk,House,October 2017,3168,2017,10,CLAYTON,400
3134,"43 HARLINGTON STREET, CLAYTON",-37.923241,145.110846,3.0,1.0,1,$460,House,August 2017,3168,2017,8,CLAYTON,460
3135,"43 HARLINGTON STREET, CLAYTON",-37.923241,145.110846,3.0,1.0,1,$400_Wk,House,August 2017,3168,2017,8,CLAYTON,400
3136,"43 HARLINGTON STREET, CLAYTON",-37.923241,145.110846,3.0,1.0,1,$400_Wk,House,July 2017,3168,2017,7,CLAYTON,400
3205,"APARTMENT 7/78-80 WELLINGTON ROAD, CLAYTON",-37.916524,145.138223,2.0,1.0,1,$310_Weekly,Unit,January 2017,3168,2017,1,CLAYTON,310
3323,"35 DENNIS STREET, CLAYTON",-37.91795,145.138633,5.0,2.0,1,$595_Weekly,House,January 2017,3168,2017,1,CLAYTON,595
3361,"5/34 MADELEINE ROAD, CLAYTON",-37.91719754,145.12054169,3.0,1.0,2,$420,Unit,December 2017,3168,2017,12,CLAYTON,420
3362,"5/34 MADELEINE ROAD, CLAYTON",-37.91719754,145.12054169,3.0,1.0,2,$430_p.w.,Unit,November 2017,3168,2017,11,CLAYTON,430
3363,"5/34 MADELEINE ROAD, CLAYTON",-37.91719754,145.12054169,3.0,1.0,2,$440_per_week,Unit,October 2017,3168,2017,10,CLAYTON,440
3364,"5/34 MADELEINE ROAD, CLAYTON",-37.91719754,145.12054169,3.0,1.0,2,$495_pw,Unit,August 2017,3168,2017,8,CLAYTON,495
3434,"1/4 BETTINA STREET, CLAYTON",-37.918579,145.135645,2.0,1.0,2,$320_per_week,Unit/apmt,August 2017,3168,2017,8,CLAYTON,320
3435,"1/4 BETTINA STREET, CLAYTON",-37.918579,145.135645,2.0,1.0,2,$320_per_week,Unit/apmt,July 2017,3168,2017,7,CLAYTON,320
3436,"1/4 BETTINA STREET, CLAYTON",-37.918579,145.135645,2.0,1.0,2,$330_per_week,Unit/apmt,July 2017,3168,2017,7,CLAYTON,330
3488,"4 ROBINSON STREET, CLAYTON",-37.920006,145.111493,3.0,1.0,1,$410,House,August 2017,3168,2017,8,CLAYTON,410
3489,"4 ROBINSON STREET, CLAYTON",-37.920006,145.111493,3.0,1.0,1,$410_p.w.,House,August 2017,3168,2017,8,CLAYTON,410
3490,"4 ROBINSON STREET, CLAYTON",-37.920006,145.111493,3.0,1.0,1,$410_pw,House,August 2017,3168,2017,8,CLAYTON,410
3505,"4 ROBINSON ST, CLAYTON",-37.919868,145.11152,3.0,1.0,1,$410_Weekly,House,August 2017,3168,2017,8,CLAYTON,410
3537,"6/10 HILLTOP AVENUE, CLAYTON",-37.905826,145.127234,2.0,1.0,1,$335_per_week,none,May 2017,3168,2017,5,CLAYTON,335
3538,"6/10 HILLTOP AVENUE, CLAYTON",-37.905826,145.127234,2.0,1.0,1,$335_per_week,none,April 2017,3168,2017,4,CLAYTON,335
3577,"3/21 FRANCIS STREET, CLAYTON",-37.924041,145.121709,2.0,1.0,1,$380_p.w.,none,April 2017,3168,2017,4,CLAYTON,380
3578,"3/21 FRANCIS STREET, CLAYTON",-37.924041,145.121709,2.0,1.0,1,$380_Weekly,none,April 2017,3168,2017,4,CLAYTON,380
3579,"3/21 FRANCIS STREET, CLAYTON",-37.924041,145.121709,2.0,1.0,1,$350_p.w.,none,April 2017,3168,2017,4,CLAYTON,350
3598,"2/21 DENNIS ST, CLAYTON",-37.917792,145.137315,2.0,2.0,1,$430_Weekly,Unit/apmt,March 2017,3168,2017,3,CLAYTON,430
3611,"2/21 DENNIS STREET, CLAYTON",-37.917792,145.137315,2.0,2.0,1,$430_Weekly,Unit/apmt,March 2017,3168,2017,3,CLAYTON,430
3612,"2/21 DENNIS STREET, CLAYTON",-37.917792,145.137315,2.0,2.0,1,$430_per_week,Unit/apmt,March 2017,3168,2017,3,CLAYTON,430
3649,"2 / 1452-1454 NORTH ROAD, CLAYTON",-37.914125,145.1205265,2.0,1.0,1,$360_pw,none,November 2017,3168,2017,11,CLAYTON,360
3658,"3/67 CARINISH ROAD, CLAYTON",-37.920687,145.115993,2.0,1.0,1,$470_Weekly,Townhouse,June 2017,3168,2017,6,CLAYTON,470
3659,"3/67 CARINISH ROAD, CLAYTON",-37.920687,145.115993,2.0,1.0,1,$470,Townhouse,June 2017,3168,2017,6,CLAYTON,470
3660,"3/67 CARINISH ROAD, CLAYTON",-37.920687,145.115993,2.0,1.0,1,$470_pw,Townhouse,June 2017,3168,2017,6,CLAYTON,470
3669,"9/34 WELLINGTON ROAD, CLAYTON",-37.915995,145.133951,1.0,1.0,1,$260,none,December 2017,3168,2017,12,CLAYTON,260
3766,"1/189 CARINISH ROAD, CLAYTON",-37.926977,145.124433,3.0,1.0,1,$530,Townhouse,July 2017,3168,2017,7,CLAYTON,530
3773,"14/1774 PRINCES HIGHWAY, CLAYTON",-37.9161581,145.1294242,2.0,1.0,2,$360_pw,Unit/apmt,October 2017,3168,2017,10,CLAYTON,360
3788,"42 STOCKDALE AVENUE, CLAYTON",-37.910502,145.126035,4.0,2.0,1,$500_p.w.,House,January 2017,3168,2017,1,CLAYTON,500
3789,"42 STOCKDALE AVENUE, CLAYTON",-37.910502,145.126035,4.0,2.0,1,$500_Weekly,House,January 2017,3168,2017,1,CLAYTON,500
3790,"42 STOCKDALE AVENUE, CLAYTON",-37.910502,145.126035,4.0,2.0,1,$500,House,January 2017,3168,2017,1,CLAYTON,500
3797,"3/22 PANORAMA STREET, CLAYTON",-37.919093,145.130097,3.0,2.0,2,$575_Weekly,Townhouse,February 2017,3168,2017,2,CLAYTON,575
3798,"3/22 PANORAMA STREET, CLAYTON",-37.919093,145.130097,3.0,2.0,2,$575,Townhouse,February 2017,3168,2017,2,CLAYTON,575
3799,"3/22 PANORAMA STREET, CLAYTON",-37.919093,145.130097,3.0,2.0,2,$575_pw,Townhouse,February 2017,3168,2017,2,CLAYTON,575
3803,"1/189 CARINISH RD, CLAYTON",-37.926977,145.124433,3.0,1.0,1,$530_Weekly,Townhouse,July 2017,3168,2017,7,CLAYTON,530
3831,"6/1-3 ARNOTT STREET, CLAYTON",-37.916516,145.134721,3.0,1.0,1,$520_per_week,none,February 2017,3168,2017,2,CLAYTON,520
3888,"10/10 ARNOTT STREET, CLAYTON",-37.9169379,145.1348441,2.0,1.0,1,$360_pw,Rental_residential,February 2017,3168,2017,2,CLAYTON,360
3897,"220/1457 NORTH ROAD, CLAYTON",-37.913578,145.124129,1.0,1.0,0,$245_per_week,Rental_residential,January 2017,3168,2017,1,CLAYTON,245
3908,"3/320 HAUGHTON ROAD, CLAYTON",-37.919046,145.111712,2.0,1.0,2,$390_per_week,Available Now,May 2017,3168,2017,5,CLAYTON,390
3923,"2B HOURIGAN AVENUE, CLAYTON",-37.917265,145.121913,3.0,2.0,2,$440_p.w.,Townhouse,March 2017,3168,2017,3,CLAYTON,440
3942,"2 MORTON STREET, CLAYTON",-37.917033,145.135527,5.0,2.0,2,$165,none,May 2017,3168,2017,5,CLAYTON,165
4016,"2/5 HOURIGAN AVENUE, CLAYTON",-37.916695,145.122487,3.0,3.0,2,$580,Townhouse,May 2017,3168,2017,5,CLAYTON,580
4017,"2/5 HOURIGAN AVENUE, CLAYTON",-37.916695,145.122487,3.0,3.0,2,$580_per_week,Townhouse,May 2017,3168,2017,5,CLAYTON,580
4022,"2 MORTON ST, CLAYTON",-37.917162,145.135501,5.0,2.0,0,$165,House,May 2017,3168,2017,5,CLAYTON,165
4034,"4/2 MARY STREET, CLAYTON",-37.921719,145.121893,2.0,1.0,1,$330_p.w.,Unit/apmt,June 2017,3168,2017,6,CLAYTON,330
4051,"23 MCBEAN STREET, CLAYTON",-37.923718,145.111716,2.0,1.0,2,$395,Townhouse,January 2017,3168,2017,1,CLAYTON,395
4052,"23 MCBEAN STREET, CLAYTON",-37.923718,145.111716,2.0,1.0,2,$395_per_week,Townhouse,January 2017,3168,2017,1,CLAYTON,395
4069,"16C BANKSIA STREET, CLAYTON",-37.915274,145.118986,2.0,1.0,2,$500_pw,Townhouse,December 2017,3168,2017,12,CLAYTON,500
4159,"12/6 ARNOTT STREET, CLAYTON",-37.916706,145.135221,1.0,1.0,1,$350,Unit/apmt,January 2017,3168,2017,1,CLAYTON,350
4160,"12/6 ARNOTT STREET, CLAYTON",-37.916706,145.135221,1.0,1.0,1,$350_p.w.,Unit/apmt,January 2017,3168,2017,1,CLAYTON,350
4161,"12/6 ARNOTT STREET, CLAYTON",-37.916706,145.135221,1.0,1.0,1,$350_Weekly,Unit/apmt,January 2017,3168,2017,1,CLAYTON,350
4221,"109/2-8 MURRAY ST, CLAYTON",-37.918486,145.121732,1.0,1.0,1,$350,Unit/apmt,August 2017,3168,2017,8,CLAYTON,350
4227,"59 MARSHALL AVENUE, CLAYTON",-37.91192,145.126379,4.0,1.0,4,$450_per_week,House,February 2017,3168,2017,2,CLAYTON,450
4269,"5/4-6 MANATUNGA STREET, CLAYTON",-37.916212,145.125822,2.0,1.0,0,$300_p.w.,Unit/apmt,November 2017,3168,2017,11,CLAYTON,300
4270,"5/4-6 MANATUNGA STREET, CLAYTON",-37.916212,145.125822,2.0,1.0,0,$300_per_week,Unit/apmt,November 2017,3168,2017,11,CLAYTON,300
4271,"5/4-6 MANATUNGA STREET, CLAYTON",-37.916212,145.125822,2.0,1.0,0,$300,Unit/apmt,October 2017,3168,2017,10,CLAYTON,300
4272,"5/4-6 MANATUNGA STREET, CLAYTON",-37.916212,145.125822,2.0,1.0,0,$300_pw,Unit/apmt,September 2017,3168,2017,9,CLAYTON,300
4277,"11 / 8-10 BROWNS ROAD, CLAYTON",-37.919799,145.127053,2.0,1.0,1,$380_p.w.,Unit/apmt,November 2017,3168,2017,11,CLAYTON,380
4278,"11 / 8-10 BROWNS ROAD, CLAYTON",-37.919799,145.127053,2.0,1.0,1,$380_per_week,Unit/apmt,October 2017,3168,2017,10,CLAYTON,380
4279,"11 / 8-10 BROWNS ROAD, CLAYTON",-37.919799,145.127053,2.0,1.0,1,$380,Unit/apmt,October 2017,3168,2017,10,CLAYTON,380
4280,"11 / 8-10 BROWNS ROAD, CLAYTON",-37.919799,145.127053,2.0,1.0,1,$380_pw,Unit/apmt,August 2017,3168,2017,8,CLAYTON,380
4293,"5/1 GREENFIELD DRIVE, CLAYTON",-37.923144,145.128169,1.0,1.0,1,$340_p.w.,Unit/apmt,October 2017,3168,2017,10,CLAYTON,340
4294,"5/1 GREENFIELD DRIVE, CLAYTON",-37.923144,145.128169,1.0,1.0,1,$340_p.w.,Unit/apmt,June 2017,3168,2017,6,CLAYTON,340
4307,"22/1324-1328 CENTRE ROAD, CLAYTON",-37.931401,145.141831,2.0,1.0,1,$360_per_week,Unit/apmt,October 2017,3168,2017,10,CLAYTON,360
4308,"22/1324-1328 CENTRE ROAD, CLAYTON",-37.931401,145.141831,2.0,1.0,1,$360,Unit/apmt,June 2017,3168,2017,6,CLAYTON,360
4316,"2/54-56 ALICE STREET, CLAYTON",-37.918421,145.117249,3.0,1.0,1,$600_per_week,Townhouse,October 2017,3168,2017,10,CLAYTON,600
4317,"2/54-56 ALICE STREET, CLAYTON",-37.918421,145.117249,3.0,1.0,1,$600,Townhouse,October 2017,3168,2017,10,CLAYTON,600
4318,"2/54-56 ALICE STREET, CLAYTON",-37.918421,145.117249,3.0,1.0,1,$600_p.w.,Townhouse,September 2017,3168,2017,9,CLAYTON,600
4319,"2/54-56 ALICE STREET, CLAYTON",-37.918421,145.117249,3.0,1.0,1,$600_pw,Townhouse,July 2017,3168,2017,7,CLAYTON,600
4324,"4/44 KOONAWARRA STREET, CLAYTON",-37.910332,145.124947,1.0,1.0,1,$265,Unit/apmt,February 2017,3168,2017,2,CLAYTON,265
4334,"3/48-50 MANTON ROAD, CLAYTON",-37.915109,145.114495,2.0,2.0,1,$490,Townhouse,July 2017,3168,2017,7,CLAYTON,490
4335,"3/48-50 MANTON ROAD, CLAYTON",-37.915109,145.114495,2.0,2.0,1,$500,Townhouse,July 2017,3168,2017,7,CLAYTON,500
4352,"2 / 108 BROWNS ROAD, CLAYTON",-37.927216,145.126023,2.0,1.0,1,$370_p.w.,Unit/apmt,November 2017,3168,2017,11,CLAYTON,370
4353,"2 / 108 BROWNS ROAD, CLAYTON",-37.927216,145.126023,2.0,1.0,1,$370_per_week,Unit/apmt,November 2017,3168,2017,11,CLAYTON,370
4354,"2 / 108 BROWNS ROAD, CLAYTON",-37.927216,145.126023,2.0,1.0,1,$370,Unit/apmt,October 2017,3168,2017,10,CLAYTON,370
4355,"2 / 108 BROWNS ROAD, CLAYTON",-37.927216,145.126023,2.0,1.0,1,$370_pw,Unit/apmt,October 2017,3168,2017,10,CLAYTON,370
4368,"2/14 COLIN ROAD, CLAYTON",-37.9145314,145.1130905,3.0,1.0,2,$595,House,December 2017,3168,2017,12,CLAYTON,595
4369,"2/14 COLIN ROAD, CLAYTON",-37.9145314,145.1130905,3.0,1.0,2,$595,House,November 2017,3168,2017,11,CLAYTON,595
4380,"3/1 ADALEIGH COURT, CLAYTON",-37.921612,145.131214,2.0,1.0,1,$390,Unit/apmt,December 2017,3168,2017,12,CLAYTON,390
4396,"5/3 SARTON ROAD, CLAYTON",-37.917678,145.144418,1.0,1.0,1,$270,Unit/apmt,February 2017,3168,2017,2,CLAYTON,270
4397,"5/3 SARTON ROAD, CLAYTON",-37.917678,145.144418,1.0,1.0,1,$270_per_week,Unit/apmt,January 2017,3168,2017,1,CLAYTON,270
4409,"UNIT 3/79 ORMOND ROAD, CLAYTON",-37.920588,145.112628,2.0,1.0,2,$370_Wk,Unit/apmt,November 2017,3168,2017,11,CLAYTON,370
4410,"UNIT 3/79 ORMOND ROAD, CLAYTON",-37.920588,145.112628,2.0,1.0,2,$340_Wk,Unit/apmt,October 2017,3168,2017,10,CLAYTON,340
4446,"16 BRUSHBOX COURT, CLAYTON",-37.92314,145.129478,2.0,1.0,2,$380_per_week,Townhouse,August 2017,3168,2017,8,CLAYTON,380
4447,"16 BRUSHBOX COURT, CLAYTON",-37.92314,145.129478,2.0,1.0,2,$380_pw,Townhouse,July 2017,3168,2017,7,CLAYTON,380
4461,"APARTMENT 5/20 MYRIONG STREET, CLAYTON",-37.915713,145.125156,1.0,1.0,1,$285_Wk,Unit/apmt,November 2017,3168,2017,11,CLAYTON,285
4462,"APARTMENT 5/20 MYRIONG STREET, CLAYTON",-37.915713,145.125156,1.0,1.0,1,$280_Wk,Unit/apmt,November 2017,3168,2017,11,CLAYTON,280
4485,"7/3 SARTON ROAD, CLAYTON",-37.917678,145.144418,1.0,1.0,0,$270,Unit/apmt,February 2017,3168,2017,2,CLAYTON,270
4486,"7/3 SARTON ROAD, CLAYTON",-37.917678,145.144418,1.0,1.0,0,$270_per_week,Unit/apmt,February 2017,3168,2017,2,CLAYTON,270
4690,"104/5-7 DIXON STREET, CLAYTON",-37.91888,145.121851,2.0,1.0,1,$390_p.w.,Unit/apmt,October 2017,3168,2017,10,CLAYTON,390
4691,"104/5-7 DIXON STREET, CLAYTON",-37.91888,145.121851,2.0,1.0,1,$390_per_week,Unit/apmt,October 2017,3168,2017,10,CLAYTON,390
4692,"104/5-7 DIXON STREET, CLAYTON",-37.91888,145.121851,2.0,1.0,1,$390_pw,Unit/apmt,October 2017,3168,2017,10,CLAYTON,390
4720,"6/635 BLACKBURN ROAD, CLAYTON",-37.91756,145.139559,2.0,1.0,1,$300,Unit/apmt,April 2017,3168,2017,4,CLAYTON,300
4721,"6/635 BLACKBURN ROAD, CLAYTON",-37.91756,145.139559,2.0,1.0,1,$310,Unit/apmt,April 2017,3168,2017,4,CLAYTON,310
4722,"6/635 BLACKBURN ROAD, CLAYTON",-37.91756,145.139559,2.0,1.0,1,$300,Unit/apmt,February 2017,3168,2017,2,CLAYTON,300
4800,"1/48 ORMOND ROAD, CLAYTON",-37.920454,145.112666,3.0,2.0,1,$550,Unit/apmt,June 2017,3168,2017,6,CLAYTON,550
4801,"1/48 ORMOND ROAD, CLAYTON",-37.920454,145.112666,3.0,2.0,1,$550_per_week,Unit/apmt,June 2017,3168,2017,6,CLAYTON,550
4802,"1/48 ORMOND ROAD, CLAYTON",-37.920454,145.112666,3.0,2.0,1,$550_pw,Unit/apmt,June 2017,3168,2017,6,CLAYTON,550
4950,"23 BAYVIEW AVENUE, CLAYTON",-37.906772,145.126106,4.0,2.0,1,$580_p.w.,House,March 2017,3168,2017,3,CLAYTON,580
4951,"23 BAYVIEW AVENUE, CLAYTON",-37.906772,145.126106,4.0,2.0,1,$595,House,January 2017,3168,2017,1,CLAYTON,595
4952,"23 BAYVIEW AVENUE, CLAYTON",-37.906772,145.126106,4.0,2.0,1,$595_p.w.,House,January 2017,3168,2017,1,CLAYTON,595
4969,"1/17 BEDDOE AVENUE, CLAYTON",-37.90863,145.128127,3.0,2.0,1,$550,Townhouse,January 2017,3168,2017,1,CLAYTON,550
4997,"1/54 KANOOKA GROVE, CLAYTON",-37.921496,145.126029,2.0,1.0,1,$400_pw,Unit/apmt,March 2017,3168,2017,3,CLAYTON,400
5040,"74B FULTON STREET, CLAYTON",-37.914398,145.116642,2.0,1.0,1,$450_p.w.,Townhouse,October 2017,3168,2017,10,CLAYTON,450
5041,"74B FULTON STREET, CLAYTON",-37.914398,145.116642,2.0,1.0,1,$450_per_week,Townhouse,October 2017,3168,2017,10,CLAYTON,450
5042,"74B FULTON STREET, CLAYTON",-37.914398,145.116642,2.0,1.0,1,$450_pw,Townhouse,October 2017,3168,2017,10,CLAYTON,450
5120,"3A VICTOR ROAD, CLEMATIS",-37.930524,145.420148,2.0,1.0,2,$330,Unit/apmt,June 2017,3782,2017,6,CLEMATIS,330
5123,"6 VICTOR ROAD, CLEMATIS",-37.929987,145.420214,2.0,1.0,1,$310,none,July 2017,3782,2017,7,CLEMATIS,310
5124,"6 VICTOR ROAD, CLEMATIS",-37.929987,145.420214,2.0,1.0,1,$310_pw,none,July 2017,3782,2017,7,CLEMATIS,310
5195,"12 KIEWA STREET, CLIFTON HILL",-37.792404,145.000208,2.0,1.0,0,$650_pw,House,January 2017,3068,2017,1,HILL,650
5196,"12 KIEWA STREET, CLIFTON HILL",-37.792404,145.000208,2.0,1.0,0,$650_Week,House,January 2017,3068,2017,1,HILL,650
5205,"29 FENWICK STREET, CLIFTON HILL",-37.789226,144.999862,2.0,1.0,0,$560_pw,none,September 2017,3068,2017,9,HILL,560
5206,"29 FENWICK STREET, CLIFTON HILL",-37.789226,144.999862,2.0,1.0,0,$560,none,September 2017,3068,2017,9,HILL,560
5226,"3 YAMBLA STREET, CLIFTON HILL",-37.792673,145.000644,3.0,2.0,0,$695_per_week,House,August 2017,3068,2017,8,HILL,695
5286,"12/82 ROSENEATH STREET, CLIFTON HILL",-37.793089,144.99717,3.0,2.0,1,$710_Week,none,November 2017,3068,2017,11,HILL,710
5287,"12/82 ROSENEATH STREET, CLIFTON HILL",-37.793089,144.99717,3.0,2.0,1,$710_pw,none,November 2017,3068,2017,11,HILL,710
5336,"169 ROSENEATH STREET, CLIFTON HILL",-37.793091,145.000806,2.0,1.0,0,$560_per_week,House,July 2017,3068,2017,7,HILL,560
5345,"4/9 SOUTH TERRACE, CLIFTON HILL",-37.792523,144.992206,1.0,1.0,1,$320,Unit/apmt,February 2017,3068,2017,2,HILL,320
5351,"47 CLIFFORD PLACE, CLIFTON HILL",-37.791779,145.001407,2.0,1.0,1,$520_per_week,Townhouse,February 2017,3068,2017,2,HILL,520
5399,"3/262 ALEXANDRA PARADE EAST, CLIFTON HILL",-37.7951199,144.9993131,1.0,1.0,1,$350_per_week,Unit/apmt,October 2017,3068,2017,10,HILL,350
5400,"3/262 ALEXANDRA PARADE EAST, CLIFTON HILL",-37.7951199,144.9993131,1.0,1.0,1,$350_per_week,Unit/apmt,May 2017,3068,2017,5,HILL,350
5414,"7/9 SOUTH TERRACE, CLIFTON HILL",-37.79235,144.99226,1.0,1.0,1,$265_per_week,Unit/apmt,March 2017,3068,2017,3,HILL,265
5463,"205 SPENSLEY STREET, CLIFTON HILL",-37.786573,145.004419,2.0,1.0,1,$650_pw,House,December 2017,3068,2017,12,HILL,650
5464,"205 SPENSLEY STREET, CLIFTON HILL",-37.786573,145.004419,2.0,1.0,1,$650,House,December 2017,3068,2017,12,HILL,650
5486,"68 ROSENEATH STREET, CLIFTON HILL",-37.792821,144.996608,3.0,2.0,1,$850_pw,House,January 2017,3068,2017,1,HILL,850
5508,"1/140 ROSENEATH STREET, CLIFTON HILL",-37.7931954,144.9995561,5.0,3.0,0,$1300_per_week,none,May 2017,3068,2017,5,HILL,1300
5513,"128 NOONE ST, CLIFTON HILL",-37.793754,144.996451,2.0,1.0,0,$550,Rental_residential,December 2017,3068,2017,12,HILL,550
5518,"128 NOONE STREET, CLIFTON HILL",-37.793818,144.996434,2.0,1.0,0,$550_pw,none,December 2017,3068,2017,12,HILL,550
5519,"128 NOONE STREET, CLIFTON HILL",-37.793818,144.996434,2.0,1.0,0,$550_per_week,none,December 2017,3068,2017,12,HILL,550
5560,"30A COUNCIL STREET, CLIFTON HILL",-37.792295,144.986832,4.0,2.0,0,$1050_pw,House,June 2017,3068,2017,6,HILL,1050
5580,"8B PECKVILLE STREET, CLIFTON HILL",-37.79306,144.9914803,2.0,1.0,1,$750_pw,Townhouse,December 2017,3068,2017,12,HILL,750
5618,"143 ROSENEATH STREET, CLIFTON HILL",-37.792891,144.999684,2.0,1.0,0,$520_per_week,Terrace,February 2017,3068,2017,2,HILL,520
5710,"7/31-33 HEIDELBERG ROAD, CLIFTON HILL",-37.786681,144.997501,2.0,1.0,1,$415_per_week,none,July 2017,3068,2017,7,HILL,415
5727,"7/41 FENWICK STREET, CLIFTON HILL",-37.788821,144.999765,2.0,1.0,1,$420_pw,none,January 2017,3068,2017,1,HILL,420
5740,"1 YAMBLA STREET, CLIFTON HILL",-37.792736,145.000619,2.0,1.0,1,$550_pw,none,October 2017,3068,2017,10,HILL,550
5766,"1/81 FIELD STREET, CLIFTON HILL",-37.7921964,145.0022619,2.0,1.0,1,$520_pw,Rental_residential,August 2017,3068,2017,8,HILL,520
5767,"1/81 FIELD STREET, CLIFTON HILL",-37.7921964,145.0022619,2.0,1.0,1,$520_pw,Rental_residential,July 2017,3068,2017,7,HILL,520
5780,"4/15 ANDERSON STREET, CLIFTON HILL",-37.792677,144.99261,2.0,1.0,1,$390_pw,Rental_residential,January 2017,3068,2017,1,HILL,390
5781,"4/15 ANDERSON STREET, CLIFTON HILL",-37.792677,144.99261,2.0,1.0,1,$390_Week,Rental_residential,January 2017,3068,2017,1,HILL,390
5814,"16/16 THE ESPLANADE, CLIFTON HILL",-37.7879444,145.0061292,1.0,1.0,1,$300_per_week,none,November 2017,3068,2017,11,HILL,300
5820,"15 COUNCIL STREET, CLIFTON HILL",-37.792726,144.986822,3.0,2.0,2,$780_pw,House,March 2017,3068,2017,3,HILL,780
5840,"22 GROOM STREET, CLIFTON HILL",-37.793529,144.997952,2.0,2.0,1,$450_per_week,Rental_residential,April 2017,3068,2017,4,HILL,450
5841,"22 GROOM STREET, CLIFTON HILL",-37.793529,144.997952,2.0,2.0,1,$450_per_week,Rental_residential,March 2017,3068,2017,3,HILL,450
5862,"57 CLIFFORD PLACE, CLIFTON HILL",-37.791503,145.001466,3.0,2.0,1,$695_pw,Townhouse,October 2017,3068,2017,10,HILL,695
5933,"10 ANDERSON ST, CLIFTON HILL",-37.792765,144.993104,2.0,1.0,1,$580,Rental_residential,January 2017,3068,2017,1,HILL,580
5939,"10 ANDERSON STREET, CLIFTON HILL",-37.792946,144.993254,2.0,1.0,1,$580_per_week,Available Now,February 2017,3068,2017,2,HILL,580
5957,"57 DALLY STREET, CLIFTON HILL",-37.792276,144.997986,2.0,1.0,1,$575_per_week,none,October 2017,3068,2017,10,HILL,575
5966,"30 WRIGHT STREET, CLIFTON HILL",-37.78906,145.00174,2.0,1.0,1,$600_pw,Rental_residential,January 2017,3068,2017,1,HILL,600
6007,"6/57 CAROLINE STREET, CLIFTON HILL",-37.7902856,145.0009989,2.0,1.0,1,$400_per_week,Unit/apmt,October 2017,3068,2017,10,HILL,400
6008,"6/57 CAROLINE STREET, CLIFTON HILL",-37.7902856,145.0009989,2.0,1.0,1,$400_p.w.,Unit/apmt,October 2017,3068,2017,10,HILL,400
6035,"78 RAMSDEN STREET, CLIFTON HILL",-37.79056,144.999593,3.0,1.0,2,$790_pw,Rental_residential,August 2017,3068,2017,8,HILL,790
6049,"17/57 CAROLINE STREET, CLIFTON HILL",-37.789933,144.998514,2.0,1.0,1,$380_p.w.,Unit/apmt,October 2017,3068,2017,10,HILL,380
6050,"17/57 CAROLINE STREET, CLIFTON HILL",-37.789933,144.998514,2.0,1.0,1,$380_pw,Unit/apmt,October 2017,3068,2017,10,HILL,380
6051,"17/57 CAROLINE STREET, CLIFTON HILL",-37.789933,144.998514,2.0,1.0,1,$390_pw,Unit/apmt,May 2017,3068,2017,5,HILL,390
6052,"17/57 CAROLINE STREET, CLIFTON HILL",-37.789933,144.998514,2.0,1.0,1,$390_per_week,Unit/apmt,May 2017,3068,2017,5,HILL,390
6053,"17/57 CAROLINE STREET, CLIFTON HILL",-37.789933,144.998514,2.0,1.0,1,$375_per_week,Unit/apmt,April 2017,3068,2017,4,HILL,375
6082,"53 ROSENEATH STREET, CLIFTON HILL",-37.792369,144.996191,4.0,2.0,1,$790_pw,none,December 2017,3068,2017,12,HILL,790
6094,"30 HILTON ST, CLIFTON HILL",-37.7920695,144.9876984,2.0,1.0,0,$450_per_week,Terrace,June 2017,3068,2017,6,HILL,450
6120,"23 AITKEN STREET, CLIFTON HILL",-37.791383,145.000129,2.0,1.0,0,$450_pw,Rental_residential,September 2017,3068,2017,9,HILL,450
6141,"2/14-16 RAMSDEN STREET, CLIFTON HILL",-37.790195,144.995884,3.0,2.0,2,$795,Rental_residential,November 2017,3068,2017,11,HILL,795
6142,"2/14-16 RAMSDEN STREET, CLIFTON HILL",-37.790195,144.995884,3.0,2.0,2,$795_pw,Rental_residential,November 2017,3068,2017,11,HILL,795
6143,"2/14-16 RAMSDEN STREET, CLIFTON HILL",-37.790195,144.995884,3.0,2.0,2,$795_per_week,Rental_residential,November 2017,3068,2017,11,HILL,795
6202,"3/264 ALEXANDRA PARADE EAST, CLIFTON HILL",-37.7951262,144.9995113,1.0,1.0,1,$350_Week,Rental_residential,July 2017,3068,2017,7,HILL,350
6203,"3/264 ALEXANDRA PARADE EAST, CLIFTON HILL",-37.7951262,144.9995113,1.0,1.0,1,$350_pw,Rental_residential,July 2017,3068,2017,7,HILL,350
6221,"5/83 FIELD STREET, CLIFTON HILL",-37.7920783,145.0022898,2.0,1.0,1,$480_per_week,Unit/apmt,March 2017,3068,2017,3,HILL,480
6245,"1/211 GOLD STREET, CLIFTON HILL",-37.791306,144.990222,2.0,1.0,1,$430_per_week,none,July 2017,3068,2017,7,HILL,430
6246,"1/211 GOLD STREET, CLIFTON HILL",-37.791306,144.990222,2.0,1.0,1,$430_per_week,none,June 2017,3068,2017,6,HILL,430
6254,"2/15 SOUTH TERRACE, CLIFTON HILL",-37.792417,144.992996,2.0,1.0,1,$450_pw,Unit/apmt,July 2017,3068,2017,7,HILL,450
6255,"2/15 SOUTH TERRACE, CLIFTON HILL",-37.792417,144.992996,2.0,1.0,1,$450_per_week,Unit/apmt,July 2017,3068,2017,7,HILL,450
6273,"363 WELLINGTON STREET, CLIFTON HILL",-37.793646,144.987995,3.0,2.0,1,$620_per_week,Rental_residential,October 2017,3068,2017,10,HILL,620
6367,"6 BULLIMAH AVENUE, CLIFTON SPRINGS",-38.1590774,144.5701968,3.0,1.0,1,$320,House,August 2017,3222,2017,8,SPRINGS,320
6368,"6 BULLIMAH AVENUE, CLIFTON SPRINGS",-38.1590774,144.5701968,3.0,1.0,1,$320_pw,House,August 2017,3222,2017,8,SPRINGS,320
6383,"30 CARAVEL AVENUE, CLIFTON SPRINGS",-38.1481356,144.5739724,3.0,2.0,1,$350,House,October 2017,3222,2017,10,SPRINGS,350
6384,"30 CARAVEL AVENUE, CLIFTON SPRINGS",-38.1481356,144.5739724,3.0,2.0,1,$350_per_week,House,October 2017,3222,2017,10,SPRINGS,350
6385,"30 CARAVEL AVENUE, CLIFTON SPRINGS",-38.1481356,144.5739724,3.0,2.0,1,$350_p.w.,House,October 2017,3222,2017,10,SPRINGS,350
6386,"30 CARAVEL AVENUE, CLIFTON SPRINGS",-38.1481356,144.5739724,3.0,2.0,1,$350_pw,House,October 2017,3222,2017,10,SPRINGS,350
6387,"30 CARAVEL AVENUE, CLIFTON SPRINGS",-38.1481356,144.5739724,3.0,2.0,1,$340_pw,House,August 2017,3222,2017,8,SPRINGS,340
6388,"30 CARAVEL AVENUE, CLIFTON SPRINGS",-38.1481356,144.5739724,3.0,2.0,1,$340_per_week,House,August 2017,3222,2017,8,SPRINGS,340
6392,"30 CARAVEL AVE, CLIFTON SPRINGS",-38.1481356,144.5739724,3.0,2.0,1,$350_Weekly,House,October 2017,3222,2017,10,SPRINGS,350
6438,"65 MIRRABOOKA DRIVE, CLIFTON SPRINGS",-38.162112,144.558659,3.0,2.0,3,$395_per_week,none,August 2017,3222,2017,8,SPRINGS,395
6439,"65 MIRRABOOKA DRIVE, CLIFTON SPRINGS",-38.162112,144.558659,3.0,2.0,3,$395_pw,none,July 2017,3222,2017,7,SPRINGS,395
6505,"6 HANNAH STREET, CLUNES",-37.295479,143.78396,2.0,1.0,0,$230,Rental_residential,October 2017,3370,2017,10,CLUNES,230
6560,"58 TALBOT ROAD, CLUNES",-37.293255,143.779097,1.0,1.0,0,$230,House,November 2017,3370,2017,11,CLUNES,230
6561,"58 TALBOT ROAD, CLUNES",-37.293255,143.779097,1.0,1.0,0,$230,House,October 2017,3370,2017,10,CLUNES,230
6592,"38 TALBOT ROAD, CLUNES",-37.292486,143.777038,3.0,1.0,1,$260,House,January 2017,3370,2017,1,CLUNES,260
6605,"47 SERVICE STREET, CLUNES",-37.2992574,143.7838899,3.0,2.0,0,$270_pw,House,March 2017,3370,2017,3,CLUNES,270
6611,"85 BAILEY STREET, CLUNES",-37.2939486,143.78524,3.0,1.0,0,$260,House,September 2017,3370,2017,9,CLUNES,260
6618,"45 THORNTON STREET, CLUNES",-37.300119,143.782084,3.0,1.0,1,$260,none,December 2017,3370,2017,12,CLUNES,260
6622,"88A BAILEY STREET, CLUNES",-37.294301,143.784245,2.0,1.0,0,$280,House,October 2017,3370,2017,10,CLUNES,280
6623,"88A BAILEY STREET, CLUNES",-37.294301,143.784245,2.0,1.0,0,$280,House,November 2017,3370,2017,11,CLUNES,280
6624,"88A BAILEY STREET, CLUNES",-37.294301,143.784245,2.0,1.0,0,$280,House,September 2017,3370,2017,9,CLUNES,280
6625,"76 FRASER STREET, CLUNES",-37.297688,143.788508,4.0,1.0,1,$280_pw,House,October 2017,3370,2017,10,CLUNES,280
6626,"76 FRASER STREET, CLUNES",-37.297688,143.788508,4.0,1.0,1,$230_per_week,House,February 2017,3370,2017,2,CLUNES,230
6627,"76 FRASER STREET, CLUNES",-37.297688,143.788508,4.0,1.0,1,$260_per_week,House,January 2017,3370,2017,1,CLUNES,260
6628,"76 FRASER STREET, CLUNES",-37.297688,143.788508,4.0,1.0,1,$260_pw,House,January 2017,3370,2017,1,CLUNES,260
6633,"64 SERVICE STREET, CLUNES",-37.3001882,143.7827429,2.0,1.0,1,$230_pw,House,October 2017,3370,2017,10,CLUNES,230
6634,"64 SERVICE STREET, CLUNES",-37.3001882,143.7827429,2.0,1.0,1,$230_pw,House,July 2017,3370,2017,7,CLUNES,230
6639,"15 BECKWITH STREET, CLUNES",-37.298842,143.78253,3.0,1.0,2,$230,House,October 2017,3370,2017,10,CLUNES,230
6644,"120 LEARMONTH ROAD, CLUNES",-37.302631,143.773293,4.0,2.0,2,$325,House,October 2017,3370,2017,10,CLUNES,325
6646,"15 SUBURBAN STREET, CLUNES",-37.29528,143.778701,3.0,1.0,3,$300_pw,House,October 2017,3370,2017,10,CLUNES,300
6647,"15 SUBURBAN STREET, CLUNES",-37.29528,143.778701,3.0,1.0,3,$300_per_week,House,October 2017,3370,2017,10,CLUNES,300
6648,"15 SUBURBAN STREET, CLUNES",-37.29528,143.778701,3.0,1.0,3,$300_p.w.,House,October 2017,3370,2017,10,CLUNES,300
6655,"2 SMEATON ROAD, CLUNES",-37.295809,143.79094,3.0,1.0,2,$260_per_week,House,July 2017,3370,2017,7,CLUNES,260
6657,"53 CRITERION COURT, CLUNES",-37.2859058,143.7742777,3.0,1.0,0,$270_pw,House,February 2017,3370,2017,2,CLUNES,270
6658,"53 CRITERION COURT, CLUNES",-37.2859058,143.7742777,3.0,1.0,0,$270_pw,House,March 2017,3370,2017,3,CLUNES,270
6659,"6 CAMERON STREET, CLUNES",-37.292247,143.791814,2.0,1.0,2,$215_per_week,none,February 2017,3370,2017,2,CLUNES,215
6665,"25 CANTERBURY STREET, CLUNES",-37.2947937,143.7949085,3.0,1.0,0,$260,House,February 2017,3370,2017,2,CLUNES,260
6725,"16 VANTAGE AVENUE, CLYDE NORTH",-38.104467,145.3234526,4.0,2.0,2,$400_Weekly,House,June 2017,3978,2017,6,NORTH,400
6726,"16 VANTAGE AVENUE, CLYDE NORTH",-38.104467,145.3234526,4.0,2.0,2,$400,House,May 2017,3978,2017,5,NORTH,400
6727,"16 VANTAGE AVENUE, CLYDE NORTH",-38.104467,145.3234526,4.0,2.0,2,$400_per_week,House,May 2017,3978,2017,5,NORTH,400
6728,"16 VANTAGE AVENUE, CLYDE NORTH",-38.104467,145.3234526,4.0,2.0,2,$400_pw,House,May 2017,3978,2017,5,NORTH,400
6736,"58 ELLAROO CIRCUIT, CLYDE NORTH",-38.0784,145.3555753,4.0,2.0,2,$460_per_week,House,October 2017,3978,2017,10,NORTH,460
6737,"58 ELLAROO CIRCUIT, CLYDE NORTH",-38.0784,145.3555753,4.0,2.0,2,$460_pw,House,October 2017,3978,2017,10,NORTH,460
6738,"58 ELLAROO CIRCUIT, CLYDE NORTH",-38.0784,145.3555753,4.0,2.0,2,$460,House,October 2017,3978,2017,10,NORTH,460
6745,"11 TRAINERS WAY, CLYDE NORTH",-38.0325473,145.3429522,4.0,2.0,1,$380_per_week,House,December 2017,3978,2017,12,NORTH,380
6746,"11 TRAINERS WAY, CLYDE NORTH",-38.0325473,145.3429522,4.0,2.0,1,$380_per_week,House,April 2017,3978,2017,4,NORTH,380
6747,"11 TRAINERS WAY, CLYDE NORTH",-38.0325473,145.3429522,4.0,2.0,1,$380,House,April 2017,3978,2017,4,NORTH,380
6748,"11 TRAINERS WAY, CLYDE NORTH",-38.0325473,145.3429522,4.0,2.0,1,$390_per_week,House,March 2017,3978,2017,3,NORTH,390
6749,"11 TRAINERS WAY, CLYDE NORTH",-38.0325473,145.3429522,4.0,2.0,1,$390,House,March 2017,3978,2017,3,NORTH,390
6918,"5 SIKES ROAD, CLYDE NORTH",-38.0827755,145.3595921,4.0,2.0,2,$430_Week,House,August 2017,3978,2017,8,NORTH,430
6919,"5 SIKES ROAD, CLYDE NORTH",-38.0827755,145.3595921,4.0,2.0,2,$430_p.w.,House,August 2017,3978,2017,8,NORTH,430
6920,"5 SIKES ROAD, CLYDE NORTH",-38.0827755,145.3595921,4.0,2.0,2,$430,House,August 2017,3978,2017,8,NORTH,430
6921,"5 SIKES ROAD, CLYDE NORTH",-38.0827755,145.3595921,4.0,2.0,2,$450_pw,House,July 2017,3978,2017,7,NORTH,450
6947,"7 JUTLAND CLOSE, CLYDE NORTH",-38.1061639,145.323373,4.0,2.0,2,$390_per_week,House,April 2017,3978,2017,4,NORTH,390
6957,"50 CLYDEVALE AVENUE, CLYDE NORTH",-38.1076947,145.3339446,4.0,2.0,2,$400_per_week,House,December 2017,3978,2017,12,NORTH,400
6958,"50 CLYDEVALE AVENUE, CLYDE NORTH",-38.1076947,145.3339446,4.0,2.0,2,$410_per_week,House,October 2017,3978,2017,10,NORTH,410
7068,"84 BIMBERRY CIRCUIT, CLYDE",-38.1247122,145.3230869,3.0,2.0,1,$355_Wk,House,February 2017,3978,2017,2,CLYDE,355
7078,"235 CLYDE-FIVE WAYS ROAD, CLYDE",-38.13985,145.319078,4.0,3.0,2,$600_Wk,none,December 2017,3978,2017,12,CLYDE,600
7079,"235 CLYDE-FIVE WAYS ROAD, CLYDE",-38.13985,145.319078,4.0,3.0,2,$600_Wk,none,November 2017,3978,2017,11,CLYDE,600
7080,"235 CLYDE-FIVE WAYS ROAD, CLYDE",-38.13985,145.319078,4.0,3.0,2,$600_Wk,none,October 2017,3978,2017,10,CLYDE,600
7204,"82 GREEN GULLY ROAD, CLYDE",-38.1199516,145.3224339,2.0,2.0,2,$350_per_week,Townhouse,September 2017,3978,2017,9,CLYDE,350
7205,"82 GREEN GULLY ROAD, CLYDE",-38.1199516,145.3224339,2.0,2.0,2,$350_p.w.,Townhouse,September 2017,3978,2017,9,CLYDE,350
7206,"82 GREEN GULLY ROAD, CLYDE",-38.1199516,145.3224339,2.0,2.0,2,$350_per_week,Townhouse,August 2017,3978,2017,8,CLYDE,350
7287,"501 COBAINS ROAD, COBAINS",-38.0930969,147.1269298,3.0,1.0,2,$225_p.w.,House,August 2017,3851,2017,8,COBAINS,225
7294,"328 BENGWORDEN ROAD, COBAINS",-38.072845,147.110754,2.0,1.0,2,$240_per_week,Rental_residential,August 2017,3851,2017,8,COBAINS,240
7422,"53 BOUNDARY ROAD, COBDEN",-38.3378426,143.0727248,2.0,1.0,0,$200,House,December 2017,3266,2017,12,COBDEN,200
7486,"397 STONEYFORD ROAD, COBDEN",-38.332701,143.126845,3.0,1.0,1,$240_per_week,none,February 2017,3266,2017,2,COBDEN,240
7487,"397 STONEYFORD ROAD, COBDEN",-38.332701,143.126845,3.0,1.0,1,$240_per_week,none,January 2017,3266,2017,1,COBDEN,240
7505,"2599 MURRAY VALLEY HIGHWAY, COBRAM EAST",-35.979657,145.735896,3.0,1.0,0,$285_per_week,none,September 2017,3644,2017,9,EAST,285
7506,"2599 MURRAY VALLEY HIGHWAY, COBRAM EAST",-35.979657,145.735896,3.0,1.0,0,$285_pw,none,September 2017,3644,2017,9,EAST,285
7507,"2599 MURRAY VALLEY HIGHWAY, COBRAM EAST",-35.979657,145.735896,3.0,1.0,0,$285_per_week,none,August 2017,3644,2017,8,EAST,285
7508,"21 WILLS STREET, COBRAM EAST",-35.927378,145.655126,4.0,2.0,1,$330,House,August 2017,3644,2017,8,EAST,330
7509,"21 WILLS STREET, COBRAM EAST",-35.927378,145.655126,4.0,2.0,1,$330,House,July 2017,3644,2017,7,EAST,330
7510,"21 WILLS STREET, COBRAM EAST",-35.927378,145.655126,4.0,2.0,1,$330,House,June 2017,3644,2017,6,EAST,330
7574,"49 CHURR STREET, COBRAM",-35.91491885,145.66215576,4.0,2.0,2,$360,House,August 2017,3644,2017,8,COBRAM,360
7575,"49 CHURR STREET, COBRAM",-35.91491885,145.66215576,4.0,2.0,2,$360,House,July 2017,3644,2017,7,COBRAM,360
7576,"49 CHURR STREET, COBRAM",-35.91491885,145.66215576,4.0,2.0,2,$360,House,June 2017,3644,2017,6,COBRAM,360
7578,"49 CHURR ST, COBRAM",-35.9149188,145.6621558,4.0,2.0,0,$360,House,July 2017,3644,2017,7,COBRAM,360
7590,"23 GATTUSO DRIVE, COBRAM",-35.925188,145.669623,4.0,2.0,2,$450,Rental_residential,June 2017,3644,2017,6,COBRAM,450
7594,"3/2A IVY ST, COBRAM",-35.9224251,145.6514887,2.0,1.0,1,$200,Unit/apmt,December 2017,3644,2017,12,COBRAM,200
7606,"3/2A IVY STREET, COBRAM",-35.9224251,145.6514887,2.0,1.0,1,$200,Rental_residential,December 2017,3644,2017,12,COBRAM,200
7611,"3/1 STURT STREET, COBRAM",-35.926232,145.651634,2.0,1.0,1,$220_per_week,Unit/apmt,October 2017,3644,2017,10,COBRAM,220
7612,"3/1 STURT STREET, COBRAM",-35.926232,145.651634,2.0,1.0,1,$220,Unit/apmt,August 2017,3644,2017,8,COBRAM,220
7613,"3/1 STURT STREET, COBRAM",-35.926232,145.651634,2.0,1.0,1,$220_per_week,Unit/apmt,July 2017,3644,2017,7,COBRAM,220
7620,"39 BISOGNI DRIVE, COBRAM",-35.9233042,145.6658788,3.0,2.0,2,$380,House,May 2017,3644,2017,5,COBRAM,380
7636,"1/15 QUEEN STREET, COBRAM",-35.92183,145.647508,3.0,1.0,1,$270,Townhouse,June 2017,3644,2017,6,COBRAM,270
7654,"42 MOOKARII ST, COBRAM",-35.9172338,145.6594354,3.0,1.0,1,$280_Weekly,House,April 2017,3644,2017,4,COBRAM,280
7658,"42 MOOKARII STREET, COBRAM",-35.9172338,145.6594354,3.0,1.0,1,$280,none,April 2017,3644,2017,4,COBRAM,280
7659,"42 MOOKARII STREET, COBRAM",-35.9172338,145.6594354,3.0,1.0,1,$280_Weekly,none,April 2017,3644,2017,4,COBRAM,280
7687,"2443 GREAT ALPINE ROAD, COBUNGRA",-37.0931793,147.388943,1.0,1.0,1,$250_per_week,House,November 2017,3898,2017,11,COBUNGRA,250
7688,"2443 GREAT ALPINE ROAD, COBUNGRA",-37.0931793,147.388943,1.0,1.0,1,$250_p.w.,House,October 2017,3898,2017,10,COBUNGRA,250
7689,"2443 GREAT ALPINE ROAD, COBUNGRA",-37.0931793,147.388943,1.0,1.0,1,$250_per_week,House,July 2017,3898,2017,7,COBUNGRA,250
7704,"20-22 DELTA AVENUE, COBURG NORTH",-37.721387,144.958497,1.0,1.0,0,$150_per_week,House,September 2017,3058,2017,9,NORTH,150
7797,"60 CAMERA WALK, COBURG NORTH",-37.7287374,144.9807689,3.0,2.0,2,$520,Unit,November 2017,3058,2017,11,NORTH,520
7798,"60 CAMERA WALK, COBURG NORTH",-37.7287374,144.9807689,3.0,2.0,2,$520_Weekly,Unit,November 2017,3058,2017,11,NORTH,520
7799,"60 CAMERA WALK, COBURG NORTH",-37.7287374,144.9807689,3.0,2.0,2,$520_pw,Unit,November 2017,3058,2017,11,NORTH,520
7800,"60 CAMERA WALK, COBURG NORTH",-37.7287374,144.9807689,3.0,2.0,2,$520_p.w.,Unit,November 2017,3058,2017,11,NORTH,520
7826,"32 ORVIETO STREET, COBURG NORTH",-37.720564,144.958338,3.0,2.0,2,$540_per_week,House,July 2017,3058,2017,7,NORTH,540
7830,"38A MASHOOBRA STREET, COBURG NORTH",-37.7208715,144.9563606,3.0,2.0,1,$450,none,October 2017,3058,2017,10,NORTH,450
7831,"38A MASHOOBRA STREET, COBURG NORTH",-37.7208715,144.9563606,3.0,2.0,1,$450_per_week,none,October 2017,3058,2017,10,NORTH,450
7832,"38A MASHOOBRA STREET, COBURG NORTH",-37.7208715,144.9563606,3.0,2.0,1,$450_p.w.,none,October 2017,3058,2017,10,NORTH,450
7833,"38A MASHOOBRA STREET, COBURG NORTH",-37.7208715,144.9563606,3.0,2.0,1,$450_pw,none,October 2017,3058,2017,10,NORTH,450
7841,"7 ANZAC AVENUE, COBURG NORTH",-37.722258,144.964566,3.0,1.0,1,$430_Weekly,House,June 2017,3058,2017,6,NORTH,430
7842,"7 ANZAC AVENUE, COBURG NORTH",-37.722258,144.964566,3.0,1.0,1,$430,House,June 2017,3058,2017,6,NORTH,430
7843,"7 ANZAC AVENUE, COBURG NORTH",-37.722258,144.964566,3.0,1.0,1,$430_pw,House,June 2017,3058,2017,6,NORTH,430
7846,"7 ANZAC AVE, COBURG NORTH",-37.722258,144.964566,3.0,1.0,1,$430_Weekly,House,June 2017,3058,2017,6,NORTH,430
7855,"7A ANZAC AVENUE, COBURG NORTH",-37.722258,144.964566,1.0,1.0,1,$220_Weekly,Unit/apmt,June 2017,3058,2017,6,NORTH,220
7856,"7A ANZAC AVENUE, COBURG NORTH",-37.722258,144.964566,1.0,1.0,1,$220_pw,Unit/apmt,June 2017,3058,2017,6,NORTH,220
7862,"7A ANZAC AVE, COBURG NORTH",-37.722258,144.964566,1.0,1.0,1,$220_Weekly,Unit/apmt,June 2017,3058,2017,6,NORTH,220
7995,"21 BOYD CRESCENT, COBURG NORTH",-37.733193,144.979128,4.0,2.0,1,$550,House,October 2017,3058,2017,10,NORTH,550
7996,"21 BOYD CRESCENT, COBURG NORTH",-37.733193,144.979128,4.0,2.0,1,$550_per_week,House,October 2017,3058,2017,10,NORTH,550
7997,"21 BOYD CRESCENT, COBURG NORTH",-37.733193,144.979128,4.0,2.0,1,$550_p.w.,House,October 2017,3058,2017,10,NORTH,550
7998,"21 BOYD CRESCENT, COBURG NORTH",-37.733193,144.979128,4.0,2.0,1,$550_pw,House,October 2017,3058,2017,10,NORTH,550
8003,"21 BOYD CRES, COBURG NORTH",-37.733143,144.979189,4.0,2.0,1,$550_Weekly,House,October 2017,3058,2017,10,NORTH,550
8035,"4/25 ARTHUR STREET, COBURG NORTH",-37.723779,144.982291,2.0,1.0,1,$300_per_week,Unit/apmt,September 2017,3058,2017,9,NORTH,300
8107,"4/8 MATHIESON STREET, COBURG NORTH",-37.720588,144.96443,2.0,1.0,1,$415_per_week,Rental_residential,March 2017,3058,2017,3,NORTH,415
8115,"11 RED BOX STREET, COBURG NORTH",-37.7279113,144.9824989,4.0,3.0,2,$595,House,January 2017,3058,2017,1,NORTH,595
8116,"11 RED BOX STREET, COBURG NORTH",-37.7279113,144.9824989,4.0,3.0,2,$595_pw,House,January 2017,3058,2017,1,NORTH,595
8117,"11 RED BOX STREET, COBURG NORTH",-37.7279113,144.9824989,4.0,3.0,2,$595_Weekly,House,January 2017,3058,2017,1,NORTH,595
8191,"132 NICHOLSON STREET, COBURG",-37.747235,144.977455,3.0,1.0,2,$500_per_week,none,May 2017,3058,2017,5,COBURG,500
8221,"3/7 JESSIE STREET, COBURG",-37.754077,144.960323,2.0,1.0,1,$350_Weekly,none,December 2017,3058,2017,12,COBURG,350
8308,"1 CONNOLLY AVENUE, COBURG",-37.735905,144.980822,3.0,1.0,1,$430_pw,none,January 2017,3058,2017,1,COBURG,430
8311,"1/1 GLADSTONE STREET, COBURG",-37.742853,144.9760918,3.0,1.0,1,$450,Rental_residential,May 2017,3058,2017,5,COBURG,450
8312,"1/1 GLADSTONE STREET, COBURG",-37.742853,144.9760918,3.0,1.0,1,$450_per_week,Rental_residential,April 2017,3058,2017,4,COBURG,450
8313,"1/1 GLADSTONE STREET, COBURG",-37.742853,144.9760918,3.0,1.0,1,$450_pw,Rental_residential,April 2017,3058,2017,4,COBURG,450
8314,"1/1 GLADSTONE STREET, COBURG",-37.742853,144.9760918,3.0,1.0,1,$450,Rental_residential,April 2017,3058,2017,4,COBURG,450
8325,"5 ANKETELL STREET, COBURG",-37.745631,144.959669,4.0,1.0,1,$580_per_week,House,September 2017,3058,2017,9,COBURG,580
8404,"40 HIGINBOTHAM STREET, COBURG",-37.734373,144.958503,3.0,1.0,2,$600_Weekly,House,April 2017,3058,2017,4,COBURG,600
8405,"40 HIGINBOTHAM STREET, COBURG",-37.734373,144.958503,3.0,1.0,2,$600,House,April 2017,3058,2017,4,COBURG,600
8406,"40 HIGINBOTHAM STREET, COBURG",-37.734373,144.958503,3.0,1.0,2,$600_pw,House,April 2017,3058,2017,4,COBURG,600
8429,"177 URQUHART STREET, COBURG",-37.741016,144.975769,3.0,2.0,1,$580,House,December 2017,3058,2017,12,COBURG,580
8430,"177 URQUHART STREET, COBURG",-37.741016,144.975769,3.0,2.0,1,$600_p.w.,House,November 2017,3058,2017,11,COBURG,600
8444,"55 SOUDAN STREET, COBURG",-37.739079,144.951259,5.0,3.0,2,$440,Townhouse,September 2017,3058,2017,9,COBURG,440
8462,"4/11 METHVEN STREET, COBURG",-37.746901,144.963811,2.0,1.0,1,$400_per_week,Rental_residential,September 2017,3058,2017,9,COBURG,400
8475,"23 MARANOA CRESCENT, COBURG",-37.7519653,144.9550004,3.0,1.0,1,$450_Week,none,October 2017,3058,2017,10,COBURG,450
8476,"23 MARANOA CRESCENT, COBURG",-37.7519653,144.9550004,3.0,1.0,1,$450_pw,none,October 2017,3058,2017,10,COBURG,450
8494,"9 WATCHTOWER ROAD, COBURG",-37.73804815,144.97273345,4.0,2.0,2,$665_Weekly,House,January 2017,3058,2017,1,COBURG,665
8495,"9 WATCHTOWER ROAD, COBURG",-37.73804815,144.97273345,4.0,2.0,2,$665_per_week,House,January 2017,3058,2017,1,COBURG,665
8496,"9 WATCHTOWER ROAD, COBURG",-37.73804815,144.97273345,4.0,2.0,2,$665_pw,House,January 2017,3058,2017,1,COBURG,665
8509,"31 FOWLER STREET, COBURG",-37.7471566,144.969696,2.0,1.0,1,$450_per_week,House,March 2017,3058,2017,3,COBURG,450
8515,"9 WATCHTOWER RD, COBURG",-37.7380481,144.9727335,4.0,2.0,2,$665_Weekly,House,January 2017,3058,2017,1,COBURG,665
8555,"4/79 BELL STREET, COBURG",-37.741964,144.970699,3.0,1.0,1,$370_per_week,Rental_residential,September 2017,3058,2017,9,COBURG,370
8599,"49 SOUDAN STREET, COBURG",-37.739114,144.951791,3.0,1.0,1,$520_Week,none,December 2017,3058,2017,12,COBURG,520
8600,"49 SOUDAN STREET, COBURG",-37.739114,144.951791,3.0,1.0,1,$520_pw,none,December 2017,3058,2017,12,COBURG,520
8618,"4/85 GAFFNEY STREET, COBURG",-37.733725,144.959773,2.0,1.0,1,$425,House,September 2017,3058,2017,9,COBURG,425
8619,"4/85 GAFFNEY STREET, COBURG",-37.733725,144.959773,2.0,1.0,1,$425_p.w.,House,September 2017,3058,2017,9,COBURG,425
8620,"4/85 GAFFNEY STREET, COBURG",-37.733725,144.959773,2.0,1.0,1,$425_pw,House,September 2017,3058,2017,9,COBURG,425
8621,"4/85 GAFFNEY STREET, COBURG",-37.733725,144.959773,2.0,1.0,1,$450_pw,House,July 2017,3058,2017,7,COBURG,450
8650,"47 MOORE STREET, COBURG",-37.7542503,144.9695382,2.0,1.0,1,$520_per_week,Townhouse,May 2017,3058,2017,5,COBURG,520
8659,"4/85 GAFFNEY ST, COBURG",-37.733725,144.959773,2.0,1.0,1,$425_Weekly,House,September 2017,3058,2017,9,COBURG,425
8703,"1/626 SYDNEY ROAD, COBURG",-37.735539,144.96646,2.0,1.0,1,$310_Weekly,none,September 2017,3058,2017,9,COBURG,310
8704,"1/626 SYDNEY ROAD, COBURG",-37.735539,144.96646,2.0,1.0,1,$310_Weekly,none,August 2017,3058,2017,8,COBURG,310
8730,"202/51-53 GAFFNEY STREET, COBURG",-37.7338265,144.961787,2.0,1.0,1,$440_per_week,Unit/apmt,June 2017,3058,2017,6,COBURG,440
8731,"202/51-53 GAFFNEY STREET, COBURG",-37.7338265,144.961787,2.0,1.0,1,$385_per_week,Unit/apmt,May 2017,3058,2017,5,COBURG,385
8732,"10 QUEEN STREET, COBURG",-37.752913,144.949833,2.0,1.0,1,$430_Weekly,House,May 2017,3058,2017,5,COBURG,430
8733,"10 QUEEN STREET, COBURG",-37.752913,144.949833,2.0,1.0,1,$430_per_week,House,May 2017,3058,2017,5,COBURG,430
8734,"10 QUEEN STREET, COBURG",-37.752913,144.949833,2.0,1.0,1,$430_pw,House,May 2017,3058,2017,5,COBURG,430
8747,"237A BELL STREET, COBURG",-37.740342,144.953851,3.0,1.0,1,$420_Week,Rental_residential,May 2017,3058,2017,5,COBURG,420
8748,"237A BELL STREET, COBURG",-37.740342,144.953851,3.0,1.0,1,$420_pw,Rental_residential,May 2017,3058,2017,5,COBURG,420
8784,"7/144 NICHOLSON STREET, COBURG",-37.745665,144.978198,2.0,1.0,1,$340_pw,Unit/apmt,December 2017,3058,2017,12,COBURG,340
8834,"41 MAIN STREET, COBURG",-37.738306,144.96269,2.0,2.0,0,$510_per_week,House,August 2017,3058,2017,8,COBURG,510
8844,"207/37-41 MUNRO STREET, COBURG",-37.744967,144.963371,2.0,1.0,1,$370_per_week,Rental_residential,October 2017,3058,2017,10,COBURG,370
8845,"207/37-41 MUNRO STREET, COBURG",-37.744967,144.963371,2.0,1.0,1,$370_pw,Rental_residential,October 2017,3058,2017,10,COBURG,370
8853,"2/17-18 CHAMP STREET, COBURG",-37.735876,144.967325,2.0,1.0,2,$350_per_week,Rental_residential,April 2017,3058,2017,4,COBURG,350
8881,"59 THE AVENUE, COBURG",-37.752457,144.967722,2.0,1.0,2,$550,House,May 2017,3058,2017,5,COBURG,550
8882,"59 THE AVENUE, COBURG",-37.752457,144.967722,2.0,1.0,2,$550_per_week,House,May 2017,3058,2017,5,COBURG,550
8883,"59 THE AVENUE, COBURG",-37.752457,144.967722,2.0,1.0,2,$480,House,April 2017,3058,2017,4,COBURG,480
8884,"59 THE AVENUE, COBURG",-37.752457,144.967722,2.0,1.0,2,$480_per_week,House,April 2017,3058,2017,4,COBURG,480
8944,"5/15 NICHOLSON STREET, COBURG",-37.7559782,144.9748667,2.0,1.0,1,$430_per_week,Townhouse,February 2017,3058,2017,2,COBURG,430
8964,"2/144 NICHOLSON STREET, COBURG",-37.745681,144.977713,2.0,1.0,1,$370,Unit/apmt,December 2017,3058,2017,12,COBURG,370
8965,"2/144 NICHOLSON STREET, COBURG",-37.745681,144.977713,2.0,1.0,1,$370_per_week,Unit/apmt,December 2017,3058,2017,12,COBURG,370
8966,"2/144 NICHOLSON STREET, COBURG",-37.745681,144.977713,2.0,1.0,1,$370_pw,Unit/apmt,December 2017,3058,2017,12,COBURG,370
9004,"2/56 THE AVENUE, COBURG",-37.752826,144.968178,2.0,2.0,1,$440_-_$460_per_week,none,May 2017,3058,2017,5,COBURG,460
9039,"9A MILLER STREET, COBURG",-37.750111,144.969125,3.0,1.0,0,$450,House,January 2017,3058,2017,1,COBURG,450
9040,"9A MILLER STREET, COBURG",-37.750111,144.969125,3.0,1.0,0,$450_per_week,House,January 2017,3058,2017,1,COBURG,450
9058,"2/3 SHAFTSBURY STREET, COBURG",-37.75354,144.953103,2.0,1.0,1,$480_per_week,Townhouse,April 2017,3058,2017,4,COBURG,480
9059,"2/3 SHAFTSBURY STREET, COBURG",-37.75354,144.953103,2.0,1.0,1,$480,Townhouse,March 2017,3058,2017,3,COBURG,480
9060,"2/3 SHAFTSBURY STREET, COBURG",-37.75354,144.953103,2.0,1.0,1,$480_per_week,Townhouse,March 2017,3058,2017,3,COBURG,480
9075,"4/36 THE GROVE, COBURG",-37.751916,144.969914,2.0,1.0,1,$450,Townhouse,February 2017,3058,2017,2,COBURG,450
9076,"4/36 THE GROVE, COBURG",-37.751916,144.969914,2.0,1.0,1,$450_per_week,Townhouse,February 2017,3058,2017,2,COBURG,450
9106,"4/110 MOORE STREET, COBURG",-37.755106,144.976605,3.0,1.0,2,$480_per_week,Townhouse,November 2017,3058,2017,11,COBURG,480
9107,"4/110 MOORE STREET, COBURG",-37.755106,144.976605,3.0,1.0,2,$480,Townhouse,June 2017,3058,2017,6,COBURG,480
9108,"4/110 MOORE STREET, COBURG",-37.755106,144.976605,3.0,1.0,2,$480_per_week,Townhouse,June 2017,3058,2017,6,COBURG,480
9122,"4/76 THE GROVE, COBURG",-37.752712,144.974704,2.0,1.0,1,$350_pw,Unit/apmt,January 2017,3058,2017,1,COBURG,350
9181,"17/23 BAXTER STREET, COBURG",-37.746319,144.963475,1.0,1.0,1,$300_pw,Unit/apmt,April 2017,3058,2017,4,COBURG,300
9193,"35A GLADSTONE STREET, COBURG",-37.745237,144.97611,2.0,1.0,1,$400_pw,House,August 2017,3058,2017,8,COBURG,400
9194,"35A GLADSTONE STREET, COBURG",-37.745237,144.97611,2.0,1.0,1,$400_per_week,House,August 2017,3058,2017,8,COBURG,400
9199,"12/2 WOIWURUNG CRESCENT, COBURG",-37.736061,144.974012,2.0,2.0,1,$440_pw,Unit/apmt,July 2017,3058,2017,7,COBURG,440
9209,"3/2 HUDSON STREET, COBURG",-37.744171,144.962263,2.0,1.0,1,$440_per_week,Unit/apmt,November 2017,3058,2017,11,COBURG,440
9224,"11/40-50 STOCKADE AVENUE, COBURG",-37.737521,144.970247,2.0,1.0,1,$440_pw,Townhouse,May 2017,3058,2017,5,COBURG,440
9270,"39 FISCHER STREET, COBURG",-37.733824,144.953878,3.0,1.0,1,$550_per_week,House,August 2017,3058,2017,8,COBURG,550
9271,"39 FISCHER STREET, COBURG",-37.733824,144.953878,3.0,1.0,1,$550_pw,House,August 2017,3058,2017,8,COBURG,550
9305,"2/5 FLORENCE STREET, COBURG",-37.752035,144.960492,3.0,2.0,2,$275_per_week,Townhouse,March 2017,3058,2017,3,COBURG,275
9313,"1/119 RENNIE STREET, COBURG",-37.7514095,144.976389,2.0,1.0,2,$410_per_week,Townhouse,June 2017,3058,2017,6,COBURG,410
9390,"237/14-20 NICHOLSON STREET, COBURG",-37.755441,144.975716,1.0,1.0,0,$310_Weekly,Available Now,May 2017,3058,2017,5,COBURG,310
9438,"2/33 SHAFTSBURY STREET, COBURG",-37.751325,144.953636,3.0,1.0,1,$370_per_week,none,November 2017,3058,2017,11,COBURG,370
9439,"2/33 SHAFTSBURY STREET, COBURG",-37.751325,144.953636,3.0,1.0,1,$370_p.w.,none,October 2017,3058,2017,10,COBURG,370
9440,"2/33 SHAFTSBURY STREET, COBURG",-37.751325,144.953636,3.0,1.0,1,$370_pw,none,August 2017,3058,2017,8,COBURG,370
9491,"2/185 MORELAND ROAD, COBURG",-37.755137,144.964836,3.0,1.0,1,$500,Townhouse,September 2017,3058,2017,9,COBURG,500
9492,"2/185 MORELAND ROAD, COBURG",-37.755137,144.964836,3.0,1.0,1,$500_per_week,Townhouse,September 2017,3058,2017,9,COBURG,500
9493,"2/185 MORELAND ROAD, COBURG",-37.755137,144.964836,3.0,1.0,1,$500_p.w.,Townhouse,September 2017,3058,2017,9,COBURG,500
9522,"2/70 LOCH STREET, COBURG",-37.7448939,144.9625477,2.0,1.0,1,$350_per_week,Townhouse,October 2017,3058,2017,10,COBURG,350
9528,"1/5 DARLINGTON GROVE, COBURG",-37.75034,144.97297,3.0,1.0,1,$500,Townhouse,April 2017,3058,2017,4,COBURG,500
9529,"1/5 DARLINGTON GROVE, COBURG",-37.75034,144.97297,3.0,1.0,1,$500,Townhouse,March 2017,3058,2017,3,COBURG,500
9530,"1/5 DARLINGTON GROVE, COBURG",-37.75034,144.97297,3.0,1.0,1,$500_per_week,Townhouse,March 2017,3058,2017,3,COBURG,500
9541,"31 RODDA STREET, COBURG",-37.743612,144.970075,2.0,1.0,1,$420_pw,none,December 2017,3058,2017,12,COBURG,420
9629,"109A/41-43 STOCKADE AVENUE, COBURG",-37.7390664,144.9698398,1.0,1.0,1,$270_per_week,none,October 2017,3058,2017,10,COBURG,270
9630,"109A/41-43 STOCKADE AVENUE, COBURG",-37.7390664,144.9698398,1.0,1.0,1,$270_per_week,none,January 2017,3058,2017,1,COBURG,270
9644,"68 BRUCE STREET, COBURG",-37.743287,144.948467,3.0,1.0,1,$495_per_week,none,May 2017,3058,2017,5,COBURG,495
9645,"68 BRUCE STREET, COBURG",-37.743287,144.948467,3.0,1.0,1,$495_pw,none,May 2017,3058,2017,5,COBURG,495
9664,"69A MORELAND ROAD, COBURG",-37.756399,144.97422,3.0,1.0,1,$400_pw,none,November 2017,3058,2017,11,COBURG,400
9675,"1D ALFRED STREET, COBURG",-37.750094,144.963985,2.0,2.0,2,$520_pw,House,October 2017,3058,2017,10,COBURG,520
9776,"102A/1 MANNA GUM COURT, COBURG",-37.737353,144.976093,1.0,1.0,1,$350_per_week,Available Now,May 2017,3058,2017,5,COBURG,350
9822,"1 CLARENDON STREET, COBURG",-37.753546,144.952063,3.0,1.0,0,$590_Weekly,House,February 2017,3058,2017,2,COBURG,590
9846,"4/5 JESSIE STREET, COBURG",-37.754099,144.960515,2.0,1.0,1,$340,Unit,July 2017,3058,2017,7,COBURG,340
9847,"4/5 JESSIE STREET, COBURG",-37.754099,144.960515,2.0,1.0,1,$340,Unit,June 2017,3058,2017,6,COBURG,340
9927,"3/91 HARDING STREET, COBURG",-37.745813,144.974906,2.0,2.0,1,$550_per_week,Townhouse,November 2017,3058,2017,11,COBURG,550
9928,"3/91 HARDING STREET, COBURG",-37.745813,144.974906,2.0,2.0,1,$600_pw,Townhouse,October 2017,3058,2017,10,COBURG,600
9963,"30 CAMERON STREET, COBURG",-37.753486,144.962782,3.0,1.0,1,$550_pw,House,April 2017,3058,2017,4,COBURG,550
9964,"30 CAMERON STREET, COBURG",-37.753486,144.962782,3.0,1.0,1,$550_pw,House,March 2017,3058,2017,3,COBURG,550
10011,"3/58 RENNIE STREET, COBURG",-37.750999,144.970452,2.0,1.0,1,$380_pw,Unit/apmt,April 2017,3058,2017,4,COBURG,380
10012,"3/58 RENNIE STREET, COBURG",-37.750999,144.970452,2.0,1.0,1,$380_pw,Unit/apmt,March 2017,3058,2017,3,COBURG,380
10042,"9/203 NICHOLSON STREET, COBURG",-37.742913,144.977807,2.0,1.0,2,$350_per_week,Unit/apmt,October 2017,3058,2017,10,COBURG,350
10092,"5/144 NICHOLSON STREET, COBURG",-37.745681,144.977713,2.0,1.0,1,$290_pw,none,April 2017,3058,2017,4,COBURG,290
10093,"5/144 NICHOLSON STREET, COBURG",-37.745681,144.977713,2.0,1.0,1,$290_pw,none,March 2017,3058,2017,3,COBURG,290
10121,"37 AUTUMN STREET, COBURG",-37.733057,144.950234,3.0,1.0,2,$450_per_week,House,December 2017,3058,2017,12,COBURG,450
10122,"37 AUTUMN STREET, COBURG",-37.733057,144.950234,3.0,1.0,2,$450_pw,House,December 2017,3058,2017,12,COBURG,450
10123,"37 AUTUMN STREET, COBURG",-37.733057,144.950234,3.0,1.0,2,$450,House,December 2017,3058,2017,12,COBURG,450
10135,"2/145 BELL STREET, COBURG",-37.741058,144.962065,2.0,2.0,1,$440_-_$460_per_week,Townhouse,May 2017,3058,2017,5,COBURG,460
10155,"37 AUTUMN ST, COBURG",-37.7330545,144.9502773,3.0,1.0,2,$450_Weekly,House,December 2017,3058,2017,12,COBURG,450
10162,"28 PRESTON STREET, COBURG",-37.745224,144.954059,3.0,1.0,2,$590_-_$620_per_week,Available Now,July 2017,3058,2017,7,COBURG,620
10163,"28 PRESTON STREET, COBURG",-37.745224,144.954059,3.0,1.0,2,$590_-_$620_per_week,Available Now,June 2017,3058,2017,6,COBURG,620
10174,"41A RENNIE STREET, COBURG",-37.750558,144.969431,2.0,1.0,1,$440_per_week,none,July 2017,3058,2017,7,COBURG,440
10175,"41A RENNIE STREET, COBURG",-37.750558,144.969431,2.0,1.0,1,$440_pw,none,July 2017,3058,2017,7,COBURG,440
10176,"41A RENNIE STREET, COBURG",-37.750558,144.969431,2.0,1.0,1,$440,none,July 2017,3058,2017,7,COBURG,440
10191,"17/110-117 MOORE STREET, COBURG",-37.755106,144.976605,2.0,1.0,1,$400,Townhouse,October 2017,3058,2017,10,COBURG,400
10192,"17/110-117 MOORE STREET, COBURG",-37.755106,144.976605,2.0,1.0,1,$400_per_week,Townhouse,October 2017,3058,2017,10,COBURG,400
10193,"17/110-117 MOORE STREET, COBURG",-37.755106,144.976605,2.0,1.0,1,$400_p.w.,Townhouse,October 2017,3058,2017,10,COBURG,400
10200,"1/1 INDUSTRY LANE, COBURG",-37.7369442,144.9699153,1.0,1.0,1,$340_per_week,none,March 2017,3058,2017,3,COBURG,340
10265,"74 LINDA STREET, COBURG",-37.7504653,144.9566657,3.0,2.0,1,$650_-_$670_per_week,Available Now,November 2017,3058,2017,11,COBURG,670
10266,"74 LINDA STREET, COBURG",-37.7504653,144.9566657,3.0,2.0,1,$620_-_$650_per_week,Available Now,January 2017,3058,2017,1,COBURG,650
10289,"2/27 GLADSTONE STREET, COBURG",-37.74468,144.976117,2.0,1.0,1,$380_per_week,Rental_residential,January 2017,3058,2017,1,COBURG,380
10309,"1/179 GORDON STREET, COBURG",-37.7419981,144.9492972,2.0,1.0,2,$390_Week,Available Now,November 2017,3058,2017,11,COBURG,390
10310,"1/179 GORDON STREET, COBURG",-37.7419981,144.9492972,2.0,1.0,2,$390_pw,Available Now,November 2017,3058,2017,11,COBURG,390
10348,"27 SAUNDERS STREET, COBURG",-37.751542,144.950563,2.0,1.0,0,$440,none,April 2017,3058,2017,4,COBURG,440
10349,"27 SAUNDERS STREET, COBURG",-37.751542,144.950563,2.0,1.0,0,$440,none,March 2017,3058,2017,3,COBURG,440
10355,"3/9 SHEFFIELD STREET, COBURG",-37.746179,144.966674,2.0,1.0,1,$330,none,August 2017,3058,2017,8,COBURG,330
10356,"3/9 SHEFFIELD STREET, COBURG",-37.746179,144.966674,2.0,1.0,1,$330,none,July 2017,3058,2017,7,COBURG,330
10393,"406/14-20 NICHOLSON STREET, COBURG",-37.755441,144.975716,1.0,1.0,1,$320_pw,Unit/apmt,February 2017,3058,2017,2,COBURG,320
10425,"25A FISCHER STREET, COBURG",-37.734543,144.953756,2.0,1.0,1,$370_p.w.,Rental_residential,November 2017,3058,2017,11,COBURG,370
10467,"1/22 CHAMBERS STREET, COBURG",-37.748545,144.968059,2.0,1.0,1,$350_pw,Rental_residential,October 2017,3058,2017,10,COBURG,350
10514,"27 HIGINBOTHAM STREET, COBURG",-37.735014,144.958066,4.0,2.0,1,$600_pw,House,April 2017,3058,2017,4,COBURG,600
10515,"27 HIGINBOTHAM STREET, COBURG",-37.735014,144.958066,4.0,2.0,1,$600_pw,House,March 2017,3058,2017,3,COBURG,600
10524,"25 CLIFTON GROVE, COBURG",-37.737821,144.958503,3.0,1.0,1,$470_per_week,none,June 2017,3058,2017,6,COBURG,470
10602,"1 HAVEN COURT, COCKATOO",-37.948073,145.496363,2.0,1.0,2,$340_per_week,House,May 2017,3781,2017,5,COCKATOO,340
10617,"5 BORONIA CRESCENT, COCKATOO",-37.936985,145.493334,3.0,1.0,1,$350_per_week,Rental_residential,June 2017,3781,2017,6,COCKATOO,350
10634,"22 BELGRAVE-GEMBROOK ROAD, COCKATOO",-37.936065,145.494084,3.0,1.0,0,$350_per_week,Rental_residential,May 2017,3781,2017,5,COCKATOO,350
10660,"2 BELGRAVE AVENUE, COCKATOO",-37.92732,145.495818,4.0,2.0,6,$390_per_week,Rental_residential,November 2017,3781,2017,11,COCKATOO,390
10710,"18 DEVON AVENUE, COCKATOO",-37.933329,145.495013,3.0,1.0,2,$330,House,April 2017,3781,2017,4,COCKATOO,330
10711,"18 DEVON AVENUE, COCKATOO",-37.933329,145.495013,3.0,1.0,2,$330,House,March 2017,3781,2017,3,COCKATOO,330
10712,"18 DEVON AVENUE, COCKATOO",-37.933329,145.495013,3.0,1.0,2,$330_per_week,House,March 2017,3781,2017,3,COCKATOO,330
10713,"18 DEVON AVENUE, COCKATOO",-37.933329,145.495013,3.0,1.0,2,$330_pw,House,March 2017,3781,2017,3,COCKATOO,330
10741,"23 JEANNE STREET, COCKATOO",-37.947436,145.483254,3.0,1.0,0,$400_per_week,House,December 2017,3781,2017,12,COCKATOO,400
10744,"18 CARAWA STREET, COCKATOO",-37.926109,145.49772,3.0,2.0,1,$350_per_week,Rental_residential,November 2017,3781,2017,11,COCKATOO,350
10745,"18 CARAWA STREET, COCKATOO",-37.926109,145.49772,3.0,2.0,1,$350,Rental_residential,March 2017,3781,2017,3,COCKATOO,350
10811,"66 WOORI YALLOCK ROAD, COCKATOO",-37.928419,145.492924,3.0,2.0,2,$365_per_week,Rental_residential,May 2017,3781,2017,5,COCKATOO,365
24,"CONTACT AGENT, COHUNA",-35.8094724,144.2223753,3.0,1.0,2,$190_pw,House,October 2017,3568,2017,10,COHUNA,190
25,"CONTACT AGENT, COHUNA",-35.8094724,144.2223753,3.0,1.0,2,$160_pw,House,September 2017,3568,2017,9,COHUNA,160
26,"CONTACT AGENT, COHUNA",-35.8094724,144.2223753,3.0,1.0,2,$190_pw,House,July 2017,3568,2017,7,COHUNA,190
27,"CONTACT AGENT, COHUNA",-35.8094724,144.2223753,3.0,1.0,2,$230_pw,House,June 2017,3568,2017,6,COHUNA,230
54,"35 MARKET STREET, COHUNA",-35.812621,144.22028,4.0,2.0,2,$250_pw,House,December 2017,3568,2017,12,COHUNA,250
55,"35 MARKET STREET, COHUNA",-35.812621,144.22028,4.0,2.0,2,$250,House,December 2017,3568,2017,12,COHUNA,250
56,"35 MARKET STREET, COHUNA",-35.812621,144.22028,4.0,2.0,2,$250_p.w.,House,November 2017,3568,2017,11,COHUNA,250
57,"35 MARKET STREET, COHUNA",-35.812621,144.22028,4.0,2.0,2,$250_per_week,House,November 2017,3568,2017,11,COHUNA,250
59,"59 ROVIRAS ROAD, COHUNA",-35.810055,144.204788,5.0,2.0,2,$250_pw,House,December 2017,3568,2017,12,COHUNA,250
60,"59 ROVIRAS ROAD, COHUNA",-35.810055,144.204788,5.0,2.0,2,$250,House,December 2017,3568,2017,12,COHUNA,250
61,"59 ROVIRAS ROAD, COHUNA",-35.810055,144.204788,5.0,2.0,2,$250_p.w.,House,November 2017,3568,2017,11,COHUNA,250
62,"59 ROVIRAS ROAD, COHUNA",-35.810055,144.204788,5.0,2.0,2,$250_per_week,House,October 2017,3568,2017,10,COHUNA,250
63,"129 WESTS ROAD, COHUNA",-35.8075212,144.2094638,2.0,1.0,0,$150_pw,House,December 2017,3568,2017,12,COHUNA,150
64,"129 WESTS ROAD, COHUNA",-35.8075212,144.2094638,2.0,1.0,0,$150,House,November 2017,3568,2017,11,COHUNA,150
65,"129 WESTS ROAD, COHUNA",-35.8075212,144.2094638,2.0,1.0,0,$150_p.w.,House,November 2017,3568,2017,11,COHUNA,150
66,"129 WESTS ROAD, COHUNA",-35.8075212,144.2094638,2.0,1.0,0,$150_pw,House,November 2017,3568,2017,11,COHUNA,150
67,"129 WESTS ROAD, COHUNA",-35.8075212,144.2094638,2.0,1.0,0,$150_per_week,House,November 2017,3568,2017,11,COHUNA,150
68,"76 CHANNEL STREET, COHUNA",-35.805608,144.215925,3.0,1.0,2,$200_pw,House,November 2017,3568,2017,11,COHUNA,200
69,"76 CHANNEL STREET, COHUNA",-35.805608,144.215925,3.0,1.0,2,$200,House,November 2017,3568,2017,11,COHUNA,200
70,"76 CHANNEL STREET, COHUNA",-35.805608,144.215925,3.0,1.0,2,$200_p.w.,House,November 2017,3568,2017,11,COHUNA,200
71,"76 CHANNEL STREET, COHUNA",-35.805608,144.215925,3.0,1.0,2,$200_per_week,House,November 2017,3568,2017,11,COHUNA,200
72,"461 MCMILLANS ROAD, COHUNA",-35.8351162,144.1802107,3.0,1.0,0,$150_pw,House,November 2017,3568,2017,11,COHUNA,150
73,"KING GEORGE STREET, COHUNA",-35.8048482,144.21848,3.0,1.0,0,$190_pw,House,October 2017,3568,2017,10,COHUNA,190
74,"24 GEORGE STREET, COHUNA",-35.8044499,144.2108099,3.0,2.0,2,$250_pw,House,October 2017,3568,2017,10,COHUNA,250
75,"24 GEORGE STREET, COHUNA",-35.8044499,144.2108099,3.0,2.0,2,$250_per_week,House,October 2017,3568,2017,10,COHUNA,250
76,"24 GEORGE STREET, COHUNA",-35.8044499,144.2108099,3.0,2.0,2,$250_p.w.,House,October 2017,3568,2017,10,COHUNA,250
77,"2/5 KEVIN STREET, COHUNA",-35.8144142,144.2235147,2.0,1.0,1,$265_p.w.,Unit/apmt,September 2017,3568,2017,9,COHUNA,265
78,"O'BRIENS ROAD, COHUNA",-35.8035367,144.2177067,2.0,1.0,1,$160_pw,Unit/apmt,September 2017,3568,2017,9,COHUNA,160
79,"24 WESTERN ROAD, COHUNA",-35.801232,144.210308,3.0,1.0,0,$220_pw,House,August 2017,3568,2017,8,COHUNA,220
80,"24 WESTERN ROAD, COHUNA",-35.801232,144.210308,3.0,1.0,0,$220_p.w.,House,August 2017,3568,2017,8,COHUNA,220
81,"42 42 WILLIAM STREET, COHUNA",-35.8143907,144.2164951,3.0,1.0,2,$240_pw,House,August 2017,3568,2017,8,COHUNA,240
82,"ADDRESS ON REQUEST, COHUNA",-35.809355,144.219469,2.0,1.0,1,$230_pw,House,June 2017,3568,2017,6,COHUNA,230
109,"246 ANTIMONY MINE ROAD, COIMADAI",-37.592606,144.504339,3.0,1.0,2,$600_pw,House,October 2017,3340,2017,10,COIMADAI,600
120,"3/2 MOORE STREET, COLAC EAST",-38.3350619,143.5807681,2.0,1.0,1,$280_per_week,none,November 2017,3250,2017,11,EAST,280
121,"94 MARRINER STREET, COLAC EAST",-38.3288703,143.6186838,4.0,2.0,2,$360_per_week,none,September 2017,3250,2017,9,EAST,360
152,"155 QUEEN STREET, COLAC",-38.349234,143.590964,3.0,1.0,1,$310,House,February 2017,3250,2017,2,COLAC,310
153,"155 QUEEN STREET, COLAC",-38.349234,143.590964,3.0,1.0,1,$310_per_week,House,January 2017,3250,2017,1,COLAC,310
164,"26 WYNNE STREET, COLAC",-38.334893,143.571488,3.0,1.0,3,$290_per_week,House,June 2017,3250,2017,6,COLAC,290
183,"3/371 MURRAY STREET, COLAC",-38.337227,143.572886,2.0,1.0,1,$250_per_week,Available Now,January 2017,3250,2017,1,COLAC,250
202,"4 SELWOOD STREET, COLAC",-38.347277,143.592928,2.0,1.0,0,$230_per_week,none,November 2017,3250,2017,11,COLAC,230
229,"29 NELSON STREET, COLAC",-38.341895,143.571744,3.0,1.0,2,$310_pw,House,August 2017,3250,2017,8,COLAC,310
235,"90 MURRAY STREET EAST, COLAC",-38.3367928,143.6019912,3.0,1.0,1,$300_Wk,House,November 2017,3250,2017,11,COLAC,300
237,"UNIT 8/28 HEWITT STREET, COLAC",-38.341466,143.572776,2.0,1.0,1,$230,Unit/apmt,December 2017,3250,2017,12,COLAC,230
253,"20 MORRISON STREET, COLAC",-38.3466395,143.5877225,2.0,1.0,0,$220_Wk,House,October 2017,3250,2017,10,COLAC,220
254,"20 MORRISON STREET, COLAC",-38.3466395,143.5877225,2.0,1.0,0,$220_Wk,House,September 2017,3250,2017,9,COLAC,220
255,"20 MORRISON STREET, COLAC",-38.3466395,143.5877225,2.0,1.0,0,$220_Weekly,House,February 2017,3250,2017,2,COLAC,220
287,"15 QUAMBY AVENUE, COLAC",-38.333898,143.595916,3.0,2.0,1,$270_Weekly,House,February 2017,3250,2017,2,COLAC,270
338,"22 GRAVESEND STREET, COLAC",-38.346357,143.5853,3.0,2.0,1,$300_-_$1300_per_week,none,February 2017,3250,2017,2,COLAC,1300
339,"22 GRAVESEND STREET, COLAC",-38.346357,143.5853,3.0,2.0,1,$300_per_week,none,February 2017,3250,2017,2,COLAC,300
406,"17 NORTH GATEWAY, COLDSTREAM",-37.727807,145.380801,3.0,2.0,1,$420,House,November 2017,3770,2017,11,COLDSTREAM,420
407,"17 NORTH GATEWAY, COLDSTREAM",-37.727807,145.380801,3.0,2.0,1,$420_per_week,House,October 2017,3770,2017,10,COLDSTREAM,420
408,"17 NORTH GATEWAY, COLDSTREAM",-37.727807,145.380801,3.0,2.0,1,$420_Weekly,House,October 2017,3770,2017,10,COLDSTREAM,420
409,"17 NORTH GATEWAY, COLDSTREAM",-37.727807,145.380801,3.0,2.0,1,$420_p.w.,House,October 2017,3770,2017,10,COLDSTREAM,420
410,"17 NORTH GATEWAY, COLDSTREAM",-37.727807,145.380801,3.0,2.0,1,$420_pw,House,October 2017,3770,2017,10,COLDSTREAM,420
476,"21 KILLARA ROAD, COLDSTREAM",-37.722431,145.390804,4.0,1.0,2,$435,Rental_residential,January 2017,3770,2017,1,COLDSTREAM,435
477,"21 KILLARA ROAD, COLDSTREAM",-37.722431,145.390804,4.0,1.0,2,$435_p.w.,Rental_residential,January 2017,3770,2017,1,COLDSTREAM,435
478,"21 KILLARA ROAD, COLDSTREAM",-37.722431,145.390804,4.0,1.0,2,$435_Weekly,Rental_residential,January 2017,3770,2017,1,COLDSTREAM,435
502,"18A CHEVIOT AVENUE, COLDSTREAM",-37.72822,145.38466,2.0,2.0,1,$350_Weekly,House,March 2017,3770,2017,3,COLDSTREAM,350
503,"18A CHEVIOT AVENUE, COLDSTREAM",-37.72822,145.38466,2.0,2.0,1,$350,House,March 2017,3770,2017,3,COLDSTREAM,350
504,"18A CHEVIOT AVENUE, COLDSTREAM",-37.72822,145.38466,2.0,2.0,1,$350_per_week,House,March 2017,3770,2017,3,COLDSTREAM,350
505,"18A CHEVIOT AVENUE, COLDSTREAM",-37.72822,145.38466,2.0,2.0,1,$350_pw,House,March 2017,3770,2017,3,COLDSTREAM,350
514,"18A CHEVIOT AVE, COLDSTREAM",-37.72822,145.38466,2.0,2.0,1,$350_Weekly,House,March 2017,3770,2017,3,COLDSTREAM,350
553,"5/52 STATION STREET, COLDSTREAM",-37.7247726,145.3745977,2.0,1.0,1,$300_per_week,Unit/apmt,September 2017,3770,2017,9,COLDSTREAM,300
554,"5/52 STATION STREET, COLDSTREAM",-37.7247726,145.3745977,2.0,1.0,1,$300_p.w.,Unit/apmt,September 2017,3770,2017,9,COLDSTREAM,300
555,"5/52 STATION STREET, COLDSTREAM",-37.7247726,145.3745977,2.0,1.0,1,$300_pw,Unit/apmt,September 2017,3770,2017,9,COLDSTREAM,300
556,"5/52 STATION STREET, COLDSTREAM",-37.7247726,145.3745977,2.0,1.0,1,$300,Unit/apmt,September 2017,3770,2017,9,COLDSTREAM,300
558,"5/52 STATION ST, COLDSTREAM",-37.7247726,145.3745977,2.0,1.0,1,$300_Weekly,Unit/apmt,September 2017,3770,2017,9,COLDSTREAM,300
561,"26 SOUTH GATEWAY, COLDSTREAM",-37.730695,145.380738,4.0,1.0,1,$425_Weekly,House,November 2017,3770,2017,11,COLDSTREAM,425
562,"26 SOUTH GATEWAY, COLDSTREAM",-37.730695,145.380738,4.0,1.0,1,$425,House,November 2017,3770,2017,11,COLDSTREAM,425
563,"26 SOUTH GATEWAY, COLDSTREAM",-37.730695,145.380738,4.0,1.0,1,$425_pw,House,November 2017,3770,2017,11,COLDSTREAM,425
564,"26 SOUTH GATEWAY, COLDSTREAM",-37.730695,145.380738,4.0,1.0,1,$425_per_week,House,November 2017,3770,2017,11,COLDSTREAM,425
572,"19 CHEVIOT AVENUE, COLDSTREAM",-37.727983,145.384155,3.0,1.0,1,$390,none,October 2017,3770,2017,10,COLDSTREAM,390
573,"19 CHEVIOT AVENUE, COLDSTREAM",-37.727983,145.384155,3.0,1.0,1,$390_per_week,none,October 2017,3770,2017,10,COLDSTREAM,390
574,"19 CHEVIOT AVENUE, COLDSTREAM",-37.727983,145.384155,3.0,1.0,1,$390_p.w.,none,October 2017,3770,2017,10,COLDSTREAM,390
575,"19 CHEVIOT AVENUE, COLDSTREAM",-37.727983,145.384155,3.0,1.0,1,$390_pw,none,October 2017,3770,2017,10,COLDSTREAM,390
576,"19 CHEVIOT AVENUE, COLDSTREAM",-37.727983,145.384155,3.0,1.0,1,$400,none,October 2017,3770,2017,10,COLDSTREAM,400
577,"19 CHEVIOT AVENUE, COLDSTREAM",-37.727983,145.384155,3.0,1.0,1,$400_p.w.,none,August 2017,3770,2017,8,COLDSTREAM,400
578,"19 CHEVIOT AVENUE, COLDSTREAM",-37.727983,145.384155,3.0,1.0,1,$400_pw,none,August 2017,3770,2017,8,COLDSTREAM,400
579,"60 KILLARA ROAD, COLDSTREAM",-37.724734,145.3852,4.0,2.0,1,$450_pw,House,October 2017,3770,2017,10,COLDSTREAM,450
580,"60 KILLARA ROAD, COLDSTREAM",-37.724734,145.3852,4.0,2.0,1,$450_pw,House,July 2017,3770,2017,7,COLDSTREAM,450
604,"33 CHURCH STREET, COLERAINE",-37.60373,141.696369,3.0,1.0,1,$170_per_week,none,December 2017,3315,2017,12,COLERAINE,170
605,"33 CHURCH STREET, COLERAINE",-37.60373,141.696369,3.0,1.0,1,$170_per_week,none,October 2017,3315,2017,10,COLERAINE,170
606,"33 CHURCH STREET, COLERAINE",-37.60373,141.696369,3.0,1.0,1,$170_per_week,none,September 2017,3315,2017,9,COLERAINE,170
622,"9 MCCONOCHIE STREET, COLERAINE",-37.6028556,141.6993735,4.0,1.0,2,$200_per_week,none,December 2017,3315,2017,12,COLERAINE,200
639,"94 MCCONOCHIE STREET, COLERAINE",-37.6014209,141.6890355,3.0,1.0,1,$200_per_week,House,August 2017,3315,2017,8,COLERAINE,200
640,"94 MCCONOCHIE STREET, COLERAINE",-37.6014209,141.6890355,3.0,1.0,1,$200_per_week,House,April 2017,3315,2017,4,COLERAINE,200
646,"3 MCCONOCHIE STREET, COLERAINE",-37.603077,141.700024,2.0,1.0,1,$150_p.w.,House,November 2017,3315,2017,11,COLERAINE,150
649,"43 GAGE STREET, COLERAINE",-37.6020253,141.6878179,3.0,1.0,2,$160_per_week,none,November 2017,3315,2017,11,COLERAINE,160
761,"404/40 STANLEY STREET, COLLINGWOOD",-37.8021818,144.9853665,1.0,1.0,1,$430_per_week,none,January 2017,3066,2017,1,COLLINGWOOD,430
792,"501/41 PEEL STREET, COLLINGWOOD",-37.8054248,144.985715,2.0,2.0,1,$585_Week,Rental_residential,November 2017,3066,2017,11,COLLINGWOOD,585
793,"501/41 PEEL STREET, COLLINGWOOD",-37.8054248,144.985715,2.0,2.0,1,$585_pw,Rental_residential,November 2017,3066,2017,11,COLLINGWOOD,585
817,"5/1 PEEL STREET, COLLINGWOOD",-37.805274,144.983734,1.0,1.0,1,$370_pw,Rental_residential,January 2017,3066,2017,1,COLLINGWOOD,370
882,"325 WELLINGTON STREET, COLLINGWOOD",-37.795356,144.987795,3.0,1.0,2,$750_per_week,House,October 2017,3066,2017,10,COLLINGWOOD,750
907,"5 DIGHT STREET, COLLINGWOOD",-37.8036673,144.9880995,3.0,1.0,0,$590_-_$2564_pw,Rental_residential,June 2017,3066,2017,6,COLLINGWOOD,2564
914,"506/45 VICTORIA PARADE, COLLINGWOOD",-37.808694,144.984082,1.0,1.0,0,$265_per_week,Rental_residential,January 2017,3066,2017,1,COLLINGWOOD,265
935,"18/34 SMITH STREET, COLLINGWOOD",-37.807413,144.983606,1.0,1.0,1,$395_pw,Rental_residential,February 2017,3066,2017,2,COLLINGWOOD,395
944,"5/15-17 BENDIGO STREET, COLLINGWOOD",-37.796087,144.992632,1.0,1.0,1,$265_per_week,Rental_residential,August 2017,3066,2017,8,COLLINGWOOD,265
968,"217/132 SMITH STREET, COLLINGWOOD",-37.804475,144.983604,2.0,2.0,1,$570_p.w.,none,October 2017,3066,2017,10,COLLINGWOOD,570
969,"217/132 SMITH STREET, COLLINGWOOD",-37.804475,144.983604,2.0,2.0,1,$570_pw,none,October 2017,3066,2017,10,COLLINGWOOD,570
1003,"14/34 SMITH STREET, COLLINGWOOD",-37.8072953,144.9828207,1.0,1.0,1,$410_pw,Rental_residential,March 2017,3066,2017,3,COLLINGWOOD,410
1028,"26 CAMPBELL STREET, COLLINGWOOD",-37.803517,144.989147,2.0,1.0,0,$530_-_$550_pw,Rental_residential,March 2017,3066,2017,3,COLLINGWOOD,550
1071,"9/1 PEEL STREET, COLLINGWOOD",-37.805201,144.983757,1.0,1.0,1,$390_pw,Rental_residential,March 2017,3066,2017,3,COLLINGWOOD,390
1088,"509/45 VICTORIA PARADE, COLLINGWOOD",-37.808835,144.984151,1.0,1.0,0,$260_per_week,Unit/apmt,January 2017,3066,2017,1,COLLINGWOOD,260
1207,"11/69 LITTLE OXFORD STREET, COLLINGWOOD",-37.8045132,144.9839681,2.0,2.0,1,$510_pw,Unit/apmt,February 2017,3066,2017,2,COLLINGWOOD,510
1240,"601/45 VICTORIA PARADE, COLLINGWOOD",-37.808699,144.98413,2.0,1.0,0,$400_pw,House,February 2017,3066,2017,2,COLLINGWOOD,400
1267,"607/45 VICTORIA PARADE, COLLINGWOOD",-37.8088032,144.9841055,1.0,1.0,0,$250_pw,Unit/apmt,January 2017,3066,2017,1,COLLINGWOOD,250
1288,"502/45 VICTORIA PARADE, COLLINGWOOD",-37.8099026,144.9849844,1.0,1.0,0,$275_pw,Unit/apmt,September 2017,3066,2017,9,COLLINGWOOD,275
1344,"6/66 PERRY STREET, COLLINGWOOD",-37.8001498,144.9879563,2.0,1.0,1,$420_pw,Unit/apmt,January 2017,3066,2017,1,COLLINGWOOD,420
1393,"205T/70 STANLEY STREET, COLLINGWOOD",-37.802016,144.986338,1.0,1.0,0,$350_Weekly,Unit/apmt,February 2017,3066,2017,2,COLLINGWOOD,350
1394,"205T/70 STANLEY STREET, COLLINGWOOD",-37.802016,144.986338,1.0,1.0,0,$350,Unit/apmt,February 2017,3066,2017,2,COLLINGWOOD,350
1395,"205T/70 STANLEY STREET, COLLINGWOOD",-37.802016,144.986338,1.0,1.0,0,$350_pw,Unit/apmt,February 2017,3066,2017,2,COLLINGWOOD,350
1404,"205T/70 STANLEY ST, COLLINGWOOD",-37.802016,144.986338,1.0,1.0,0,$350_Weekly,Unit/apmt,February 2017,3066,2017,2,COLLINGWOOD,350
1411,"103/36-38 BEDFORD STREET, COLLINGWOOD",-37.801321,144.984803,1.0,1.0,0,$400_pw,Unit/apmt,June 2017,3066,2017,6,COLLINGWOOD,400
1448,"507/107 CAMBRIDGE STREET, COLLINGWOOD",-37.8035817,144.9854989,2.0,1.0,1,$495_per_week,none,January 2017,3066,2017,1,COLLINGWOOD,495
1461,"2/45 DERBY STREET, COLLINGWOOD",-37.807164,144.984949,2.0,1.0,0,$460_pw,Rental_residential,September 2017,3066,2017,9,COLLINGWOOD,460
1475,"2/17 ALEXANDER STREET, COLLINGWOOD",-37.795758,144.991069,1.0,1.0,1,$280_pw,none,December 2017,3066,2017,12,COLLINGWOOD,280
1509,"407/45 VICTORIA PARADE, COLLINGWOOD",-37.8099026,144.9849844,1.0,1.0,0,$270_pw,Rental_residential,April 2017,3066,2017,4,COLLINGWOOD,270
1524,"117/3 HODDLE STREET, COLLINGWOOD",-37.8089283,144.9913524,2.0,1.0,2,$505_per_week,none,October 2017,3066,2017,10,COLLINGWOOD,505
1525,"117/3 HODDLE STREET, COLLINGWOOD",-37.8089283,144.9913524,2.0,1.0,2,$505_p.w.,none,October 2017,3066,2017,10,COLLINGWOOD,505
1526,"117/3 HODDLE STREET, COLLINGWOOD",-37.8089283,144.9913524,2.0,1.0,2,$505_pw,none,October 2017,3066,2017,10,COLLINGWOOD,505
1565,"1/1 PEEL STREET, COLLINGWOOD",-37.8050584,144.9837832,1.0,1.0,1,$400_pw,Rental_residential,June 2017,3066,2017,6,COLLINGWOOD,400
1581,"304/44 BEDFORD STREET, COLLINGWOOD",-37.801579,144.98484,2.0,1.0,1,$530_per_week,Available Now,May 2017,3066,2017,5,COLLINGWOOD,530
1582,"304/44 BEDFORD STREET, COLLINGWOOD",-37.801579,144.98484,2.0,1.0,1,$540_per_week,Available Now,May 2017,3066,2017,5,COLLINGWOOD,540
1595,"17/115 OXFORD STREET, COLLINGWOOD",-37.80752,144.983944,2.0,1.0,1,$690_per_week,Unit,August 2017,3066,2017,8,COLLINGWOOD,690
1596,"17/115 OXFORD STREET, COLLINGWOOD",-37.80752,144.983944,2.0,1.0,1,$690_p.w.,Unit,August 2017,3066,2017,8,COLLINGWOOD,690
1633,"303/45 VICTORIA PARADE, COLLINGWOOD",-37.808699,144.98413,1.0,1.0,1,$260_pw,House,January 2017,3066,2017,1,COLLINGWOOD,260
1645,"102/6 MATER STREET, COLLINGWOOD",-37.7953892,144.985423,2.0,2.0,1,$500_pw,Unit,October 2017,3066,2017,10,COLLINGWOOD,500
1646,"102/6 MATER STREET, COLLINGWOOD",-37.7953892,144.985423,2.0,2.0,1,$500_Week,Unit,October 2017,3066,2017,10,COLLINGWOOD,500
1677,"6/104 GOLD STREET, COLLINGWOOD",-37.7952364,144.990071,1.0,1.0,1,$370_p.w.,Unit,October 2017,3066,2017,10,COLLINGWOOD,370
1678,"6/104 GOLD STREET, COLLINGWOOD",-37.7952364,144.990071,1.0,1.0,1,$370_pw,Unit,October 2017,3066,2017,10,COLLINGWOOD,370
1679,"6/104 GOLD STREET, COLLINGWOOD",-37.7952364,144.990071,1.0,1.0,1,$390_per_week,Unit,March 2017,3066,2017,3,COLLINGWOOD,390
1715,"3/104 GOLD STREET, COLLINGWOOD",-37.7952364,144.990071,1.0,1.0,1,$290_p.w.,Unit,September 2017,3066,2017,9,COLLINGWOOD,290
1716,"3/104 GOLD STREET, COLLINGWOOD",-37.7952364,144.990071,1.0,1.0,1,$290_pw,Unit,September 2017,3066,2017,9,COLLINGWOOD,290
1717,"3/104 GOLD STREET, COLLINGWOOD",-37.7952364,144.990071,1.0,1.0,1,$290_per_week,Unit,April 2017,3066,2017,4,COLLINGWOOD,290
1732,"303/77A LITLLE OXFORD ST, COLLINGWOOD",-37.8031761,144.9842179,2.0,1.0,1,$500_per_week,Unit,April 2017,3066,2017,4,COLLINGWOOD,500
1733,"303/77A LITLLE OXFORD ST, COLLINGWOOD",-37.8031761,144.9842179,2.0,1.0,1,$500_per_week,Unit,February 2017,3066,2017,2,COLLINGWOOD,500
1753,"327/3 HODDLE STREET, COLLINGWOOD",-37.808908,144.991122,2.0,2.0,2,$550,Unit,July 2017,3066,2017,7,COLLINGWOOD,550
1754,"327/3 HODDLE STREET, COLLINGWOOD",-37.808908,144.991122,2.0,2.0,2,$550_pw,Unit,July 2017,3066,2017,7,COLLINGWOOD,550
1755,"327/3 HODDLE STREET, COLLINGWOOD",-37.808908,144.991122,2.0,2.0,2,$550_Weekly,Unit,July 2017,3066,2017,7,COLLINGWOOD,550
1756,"327/3 HODDLE STREET, COLLINGWOOD",-37.808908,144.991122,2.0,2.0,2,$550_per_week,Unit,July 2017,3066,2017,7,COLLINGWOOD,550
1775,"106T/70 STANLEY STREET, COLLINGWOOD",-37.8020642,144.9857329,2.0,1.0,1,$490_pw,Unit,August 2017,3066,2017,8,COLLINGWOOD,490
1776,"106T/70 STANLEY STREET, COLLINGWOOD",-37.8020642,144.9857329,2.0,1.0,1,$490_Weekly,Unit,August 2017,3066,2017,8,COLLINGWOOD,490
1777,"106T/70 STANLEY STREET, COLLINGWOOD",-37.8020642,144.9857329,2.0,1.0,1,$490,Unit,August 2017,3066,2017,8,COLLINGWOOD,490
1778,"106T/70 STANLEY STREET, COLLINGWOOD",-37.8020642,144.9857329,2.0,1.0,1,$490_per_week,Unit,August 2017,3066,2017,8,COLLINGWOOD,490
1779,"106T/70 STANLEY STREET, COLLINGWOOD",-37.8020642,144.9857329,2.0,1.0,1,$490_p.w.,Unit,August 2017,3066,2017,8,COLLINGWOOD,490
1805,"506/103-107 OXFORD STREET, COLLINGWOOD",-37.80316,144.984807,2.0,1.0,1,$610_pw,Rental_residential,October 2017,3066,2017,10,COLLINGWOOD,610
1806,"506/103-107 OXFORD STREET, COLLINGWOOD",-37.80316,144.984807,2.0,1.0,1,$610_Week,Rental_residential,October 2017,3066,2017,10,COLLINGWOOD,610
1807,"506/103-107 OXFORD STREET, COLLINGWOOD",-37.80316,144.984807,2.0,1.0,1,$610_Week,Rental_residential,June 2017,3066,2017,6,COLLINGWOOD,610
1808,"506/103-107 OXFORD STREET, COLLINGWOOD",-37.80316,144.984807,2.0,1.0,1,$610_pw,Rental_residential,June 2017,3066,2017,6,COLLINGWOOD,610
1832,"158 KEELE STREET, COLLINGWOOD",-37.797516,144.992393,3.0,1.0,0,$750_Week,House,August 2017,3066,2017,8,COLLINGWOOD,750
1833,"158 KEELE STREET, COLLINGWOOD",-37.797516,144.992393,3.0,1.0,0,$750_pw,House,August 2017,3066,2017,8,COLLINGWOOD,750
1881,"9/78 OXFORD STREET, COLLINGWOOD",-37.807815,144.983906,1.0,1.0,1,$395_per_week,Available Now,February 2017,3066,2017,2,COLLINGWOOD,395
1949,"12/109 OXFORD STREET, COLLINGWOOD",-37.802889,144.984737,1.0,1.0,1,$475_Week,Unit/apmt,December 2017,3066,2017,12,COLLINGWOOD,475
1950,"12/109 OXFORD STREET, COLLINGWOOD",-37.802889,144.984737,1.0,1.0,1,$475_pw,Unit/apmt,December 2017,3066,2017,12,COLLINGWOOD,475
1973,"504/107 CAMBRIDGE STREET, COLLINGWOOD",-37.8035817,144.9854989,2.0,2.0,1,$575_per_week,none,January 2017,3066,2017,1,COLLINGWOOD,575
1982,"201/45 VICTORIA PARADE, COLLINGWOOD",-37.808694,144.984082,1.0,1.0,0,$265_per_week,Rental_residential,January 2017,3066,2017,1,COLLINGWOOD,265
2027,"96 DIGHT, COLLINGWOOD",-37.800055,144.989037,3.0,1.0,0,$620_per_week,House,May 2017,3066,2017,5,COLLINGWOOD,620
2028,"96 DIGHT, COLLINGWOOD",-37.800055,144.989037,3.0,1.0,0,$620_pw,House,May 2017,3066,2017,5,COLLINGWOOD,620
2042,"378 WELLINGTON STREET, COLLINGWOOD",-37.795419,144.988285,2.0,1.0,1,$600_per_week,Rental_residential,June 2017,3066,2017,6,COLLINGWOOD,600
2043,"378 WELLINGTON STREET, COLLINGWOOD",-37.795419,144.988285,2.0,1.0,1,$615_per_week,Rental_residential,June 2017,3066,2017,6,COLLINGWOOD,615
2067,"511/45 VICTORIA PARADE, COLLINGWOOD",-37.8087039,144.9841198,1.0,1.0,0,$270_pw,Unit/apmt,June 2017,3066,2017,6,COLLINGWOOD,270
2068,"511/45 VICTORIA PARADE, COLLINGWOOD",-37.8087039,144.9841198,1.0,1.0,0,$270_pw,Unit/apmt,January 2017,3066,2017,1,COLLINGWOOD,270
2127,"92 PERRY STREET, COLLINGWOOD",-37.800237,144.989064,2.0,1.0,0,$550_pw,none,September 2017,3066,2017,9,COLLINGWOOD,550
2128,"92 PERRY STREET, COLLINGWOOD",-37.800237,144.989064,2.0,1.0,0,$550_Week,none,September 2017,3066,2017,9,COLLINGWOOD,550
2129,"92 PERRY STREET, COLLINGWOOD",-37.800237,144.989064,2.0,1.0,0,$550_Week,none,May 2017,3066,2017,5,COLLINGWOOD,550
2130,"92 PERRY STREET, COLLINGWOOD",-37.800237,144.989064,2.0,1.0,0,$550_pw,none,May 2017,3066,2017,5,COLLINGWOOD,550
2171,"113 EASEY STREET, COLLINGWOOD",-37.798445,144.990887,3.0,1.0,1,$750_Week,none,August 2017,3066,2017,8,COLLINGWOOD,750
2172,"113 EASEY STREET, COLLINGWOOD",-37.798445,144.990887,3.0,1.0,1,$750_pw,none,August 2017,3066,2017,8,COLLINGWOOD,750
2176,"9/109 OXFORD STREET, COLLINGWOOD",-37.802889,144.984737,2.0,1.0,1,$540_pw,none,April 2017,3066,2017,4,COLLINGWOOD,540
2214,"105/40 STANLEY STREET, COLLINGWOOD",-37.8021801,144.9853655,2.0,1.0,1,$525_pw,Rental_residential,April 2017,3066,2017,4,COLLINGWOOD,525
2215,"105/40 STANLEY STREET, COLLINGWOOD",-37.8021801,144.9853655,2.0,1.0,1,$525_pw,Rental_residential,March 2017,3066,2017,3,COLLINGWOOD,525
2230,"114 PIANTAS LANE, CONCONGELLA",-37.0650187,142.849144,3.0,1.0,0,$260,House,October 2017,3381,2017,10,CONCONGELLA,260
2231,"134 LANDSBOROUGH ROAD, CONCONGELLA",-37.0548998,142.8190164,5.0,2.0,6,$395_per_week,House,March 2017,3381,2017,3,CONCONGELLA,395
2252,"900 GOULBURN VALLEY HIGHWAY, CONGUPNA",-36.3064253,145.4291116,3.0,1.0,2,$230_pw,House,July 2017,3633,2017,7,CONGUPNA,230
2253,"900 GOULBURN VALLEY HIGHWAY, CONGUPNA",-36.3064253,145.4291116,3.0,1.0,2,$230_per_week,House,July 2017,3633,2017,7,CONGUPNA,230
2255,"42 OLD GRAHAMVALE ROAD, CONGUPNA",-36.3133507,145.4317932,3.0,1.0,3,$280_per_week,House,December 2017,3633,2017,12,CONGUPNA,280
