,address,latitude,longitude,nbed,nbath,ncar,price,historical_dates,postcode,year,month,suburb,weekly_rent,SA2_CODE,residence_type
163518,"4 GLENDALE DRIVE, CHIRNSIDE PARK",-37.751383,145.312411,4.0,2.0,2,$350_per_week,February 2013,3116,2013,2,PARK,350,211051275,House
163526,"5 NICHOLLS ROAD, CHUM CREEK",-37.6389688,145.4977567,3.0,1.0,2,$340_pw,August 2013,3777,2013,8,CREEK,340,211051276,House
163528,"15 CURRINGA COURT, CHURCHILL",-38.319109,146.420642,4.0,2.0,2,$300_per_week,December 2013,3842,2013,12,CHURCHILL,300,205041094,House
163530,"5 AMAROO DRIVE, CHURCHILL",-38.323465,146.422057,3.0,1.0,1,$150_pw,March 2013,3842,2013,3,CHURCHILL,150,205041094,House
163532,"48 MCDONALD WAY, CHURCHILL",-38.312359,146.412762,3.0,1.0,1,$195_pw,January 2013,3842,2013,1,CHURCHILL,195,205041094,House
163538,"4/29 THE PARADE, CLARINDA",-37.929939,145.103692,2.0,1.0,1,$280_Weekly,February 2013,3169,2013,2,CLARINDA,280,212041309,Apartment
163541,"2/64 WELLINGTON ROAD, CLAYTON NORTH",-37.91636,145.136891,2.0,1.0,1,$280_Weekly,April 2013,3168,2013,4,NORTH,280,212051567,Apartment
163542,"59 MARSHALL AVENUE, CLAYTON NORTH",-37.91192,145.126379,3.0,1.0,0,$370_Weekly,February 2013,3168,2013,2,NORTH,370,212051567,House
163543,"59 MARSHALL AVENUE, CLAYTON NORTH",-37.91192,145.126379,3.0,1.0,0,$370_Weekly,March 2013,3168,2013,3,NORTH,370,212051567,House
163544,"3/31 SPRINGS ROAD, CLAYTON SOUTH",-37.930285,145.109556,2.0,1.0,1,$310_per_week,March 2013,3169,2013,3,SOUTH,310,212041310,Apartment
163545,"3/31 SPRINGS ROAD, CLAYTON SOUTH",-37.930285,145.109556,2.0,1.0,1,$310_per_week,January 2013,3169,2013,1,SOUTH,310,212041310,Apartment
163547,"A202/59 AUTUMN TERRACE, CLAYTON SOUTH",-37.9391661,145.1385972,1.0,1.0,1,$320_pw,August 2013,3169,2013,8,SOUTH,320,212041310,Apartment
163548,"5/5 BURNS AVENUE, CLAYTON SOUTH",-37.9368135,145.1345036,2.0,1.0,1,$305_p.w.,September 2013,3169,2013,9,SOUTH,305,212041310,Apartment
163573,"1/5 BROWNS ROAD, CLAYTON",-37.917169,145.128252,6.0,3.0,0,$150_per_week,January 2013,3168,2013,1,CLAYTON,150,212051568,House
163575,"9/34 WELLINGTON ROAD, CLAYTON",-37.915995,145.133951,1.0,1.0,1,$215,January 2013,3168,2013,1,CLAYTON,215,212051567,Apartment
163577,"9 SHADY MEWS, CLAYTON",-37.922424,145.12782,2.0,1.0,2,$370_p.w.,April 2013,3168,2013,4,CLAYTON,370,212051568,Apartment
163583,"10/10 ARNOTT STREET, CLAYTON",-37.9169379,145.1348441,2.0,1.0,1,$341_pw,August 2013,3168,2013,8,CLAYTON,341,212051567,Apartment
163584,"10/10 ARNOTT STREET, CLAYTON",-37.9169379,145.1348441,2.0,1.0,1,$340_pw,July 2013,3168,2013,7,CLAYTON,340,212051567,Apartment
163585,"220/1457 NORTH ROAD, CLAYTON",-37.913578,145.124129,1.0,1.0,0,$230_per_week,December 2013,3168,2013,12,CLAYTON,230,212051567,Apartment
163605,"1/12 MADELEINE ROAD, CLAYTON",-37.915266,145.120158,3.0,1.0,1,$435_per_week,June 2013,3168,2013,6,CLAYTON,435,212051568,House
163606,"1/12 MADELEINE ROAD, CLAYTON",-37.915266,145.120158,3.0,1.0,1,$435_per_week,March 2013,3168,2013,3,CLAYTON,435,212051568,House
163607,"10 VICTOR ROAD, CLEMATIS",-37.929733,145.419864,5.0,2.0,0,$410_per_week,May 2013,3782,2013,5,CLEMATIS,410,212011289,House
163608,"6 VICTOR ROAD, CLEMATIS",-37.929987,145.420214,2.0,1.0,1,$300_Weekly,August 2013,3782,2013,8,CLEMATIS,300,212011289,Apartment
163611,"6/21 WALKER STREET, CLIFTON HILL",-37.788514,145.001566,3.0,1.0,1,$490_pw,January 2013,3068,2013,1,HILL,490,206071145,House
163612,"2/262 ALEXANDRA PARADE EAST, CLIFTON HILL",-37.7949421,144.9976199,1.0,1.0,1,$340_per_week,July 2013,3068,2013,7,HILL,340,206071145,Apartment
163613,"2/262 ALEXANDRA PARADE EAST, CLIFTON HILL",-37.7949421,144.9976199,1.0,1.0,1,$380_per_week,May 2013,3068,2013,5,HILL,380,206071145,Apartment
163614,"29 FENWICK STREET, CLIFTON HILL",-37.789226,144.999862,2.0,1.0,0,$460_per_week,August 2013,3068,2013,8,HILL,460,206071145,Apartment
163615,"650 SMITH STREET, CLIFTON HILL",-37.79212,144.985634,3.0,2.0,1,$760_per_week,May 2013,3068,2013,5,HILL,760,206071145,House
163616,"650 SMITH STREET, CLIFTON HILL",-37.79212,144.985634,3.0,2.0,1,$795_per_week,April 2013,3068,2013,4,HILL,795,206071145,House
163617,"650 SMITH STREET, CLIFTON HILL",-37.79212,144.985634,3.0,2.0,1,$890_per_week,March 2013,3068,2013,3,HILL,890,206071145,House
163618,"650 SMITH STREET, CLIFTON HILL",-37.79212,144.985634,3.0,2.0,1,$890_per_week,February 2013,3068,2013,2,HILL,890,206071145,House
163619,"18/14 THE ESPLANADE, CLIFTON HILL",-37.788057,145.005844,1.0,1.0,1,$280_pw,December 2013,3068,2013,12,HILL,280,206071145,Apartment
163620,"18/14 THE ESPLANADE, CLIFTON HILL",-37.788057,145.005844,1.0,1.0,1,$280_pw,November 2013,3068,2013,11,HILL,280,206071145,Apartment
163622,"5/200 NOONE STREET, CLIFTON HILL",-37.793351,144.98911,2.0,2.0,1,$600_pw,March 2013,3068,2013,3,HILL,600,206071145,House
163623,"18 OGRADY STREET, CLIFTON HILL",-37.787047,144.998269,2.0,2.0,1,$570,June 2013,3068,2013,6,HILL,570,206071145,House
163625,"11 DALLY STREET, CLIFTON HILL",-37.792519,144.999611,2.0,1.0,0,$500_per_week,May 2013,3068,2013,5,HILL,500,206071145,Apartment
163626,"11 DALLY STREET, CLIFTON HILL",-37.792519,144.999611,2.0,1.0,0,$500_per_week,April 2013,3068,2013,4,HILL,500,206071145,Apartment
163627,"4/37 YAMBLA STREET, CLIFTON HILL",-37.7914456,145.0009828,2.0,1.0,2,$350_per_week,December 2013,3068,2013,12,HILL,350,206071145,Apartment
163628,"4/37 YAMBLA STREET, CLIFTON HILL",-37.7914456,145.0009828,2.0,1.0,2,$380_per_week,November 2013,3068,2013,11,HILL,380,206071145,Apartment
163629,"53 DWYER STREET, CLIFTON HILL",-37.785982,145.001994,2.0,1.0,0,$545_pw,February 2013,3068,2013,2,HILL,545,206071145,Apartment
163633,"16 COUNCIL STREET, CLIFTON HILL",-37.792331,144.986235,2.0,2.0,0,$595_Weekly,September 2013,3068,2013,9,HILL,595,206071145,House
163634,"16 COUNCIL STREET, CLIFTON HILL",-37.792331,144.986235,2.0,2.0,0,$560_pw,August 2013,3068,2013,8,HILL,560,206071145,House
163635,"22 GROOM STREET, CLIFTON HILL",-37.793529,144.997952,2.0,2.0,1,$420_per_week,November 2013,3068,2013,11,HILL,420,206071145,House
163637,"10 ANDERSON ST, CLIFTON HILL",-37.792765,144.993104,2.0,1.0,1,$500_p.w.,November 2013,3068,2013,11,HILL,500,206071145,Apartment
163638,"10 ANDERSON STREET, CLIFTON HILL",-37.792946,144.993254,2.0,1.0,1,$500_pw,November 2013,3068,2013,11,HILL,500,206071145,Apartment
163639,"57 DALLY STREET, CLIFTON HILL",-37.792276,144.997986,2.0,1.0,1,$555_pw,May 2013,3068,2013,5,HILL,555,206071145,Apartment
163640,"30 WRIGHT STREET, CLIFTON HILL",-37.78906,145.00174,2.0,1.0,1,$540_pw,September 2013,3068,2013,9,HILL,540,206071145,Apartment
163641,"8 RUTLAND STREET, CLIFTON HILL",-37.794571,144.99622,2.0,1.0,0,$435_pw,May 2013,3068,2013,5,HILL,435,206071145,Apartment
163642,"8 RUTLAND STREET, CLIFTON HILL",-37.794571,144.99622,2.0,1.0,0,$435_pw,April 2013,3068,2013,4,HILL,435,206071145,Apartment
163643,"6/77 FIELD STREET, CLIFTON HILL",-37.7923464,145.0022251,3.0,2.0,1,$700_per_week,March 2013,3068,2013,3,HILL,700,206071145,House
163644,"3/268 ALEXANDRA PARADE EAST, CLIFTON HILL",-37.7951063,144.9997451,1.0,1.0,1,$350_pw,January 2013,3068,2013,1,HILL,350,206071145,Apartment
163645,"4 COOLABAH WAY, CLIFTON SPRINGS",-38.148568,144.576425,4.0,2.0,3,$300_per_week,July 2013,3222,2013,7,SPRINGS,300,203031048,House
163646,"2/7 CONDY STREET, CLIFTON SPRINGS",-38.167936,144.56906,2.0,2.0,2,$260_per_week,March 2013,3222,2013,3,SPRINGS,260,203031048,House
163647,"360 CLONBINANE ROAD, CLONBINANE",-37.32236,145.078481,4.0,2.0,2,$300_pw,October 2013,3658,2013,10,CLONBINANE,300,209041224,House
163648,"6 HANNAH STREET, CLUNES",-37.295479,143.78396,2.0,1.0,0,$220,July 2013,3370,2013,7,CLUNES,220,201021010,Apartment
163656,"189 LOCARNO ROAD, CLYDESDALE",-37.180468,144.082754,3.0,1.0,0,$315_per_week,March 2013,3461,2013,3,CLYDESDALE,315,201021011,House
163660,"55 WALKER STREET, COBDEN",-38.328331,143.079519,2.0,1.0,1,$200_per_week,October 2013,3266,2013,10,COBDEN,200,217031475,Apartment
163664,"397 STONEYFORD ROAD, COBDEN",-38.332701,143.126845,3.0,1.0,1,$240_per_week,November 2013,3266,2013,11,COBDEN,240,217031475,House
163668,"2A MANLY COURT, COBURG NORTH",-37.720577,144.970207,3.0,2.0,1,$425_pw,January 2013,3058,2013,1,NORTH,425,210031236,House
163669,"2A MANLY COURT, COBURG NORTH",-37.720577,144.970207,3.0,2.0,1,$430_pw,January 2013,3058,2013,1,NORTH,430,210031236,House
163670,"6/25A ARTHUR STREET, COBURG NORTH",-37.723824,144.9823,2.0,1.0,1,$270_pw,March 2013,3058,2013,3,NORTH,270,210031236,Apartment
163673,"2 BELGRAVE STREET, COBURG",-37.742793,144.974864,3.0,1.0,1,$470_pw,March 2013,3058,2013,3,COBURG,470,206011497,House
163674,"2/64 VICTORIA STREET, COBURG",-37.742205,144.958461,2.0,1.0,1,$290_per_week,August 2013,3058,2013,8,COBURG,290,206011498,Apartment
163675,"41 LINSEY STREET, COBURG",-37.741145,144.952948,3.0,1.0,1,$360_pw,November 2013,3058,2013,11,COBURG,360,206011498,House
163676,"104A/1 MANNA GUM COURT, COBURG",-37.737353,144.976093,1.0,1.0,1,$330_per_week,February 2013,3058,2013,2,COBURG,330,206011497,Apartment
163680,"3/95 HARDING STREET, COBURG",-37.745848,144.975359,2.0,1.0,1,$330_pw,October 2013,3058,2013,10,COBURG,330,206011497,Apartment
163681,"101B/41-43 STOCKADE AVENUE, COBURG",-37.7370199,144.9707254,3.0,1.0,2,$390_per_week,October 2013,3058,2013,10,COBURG,390,206011497,House
163682,"30 VICTORIA STREET, COBURG",-37.7429133,144.9637724,2.0,1.0,1,$350_per_week,October 2013,3058,2013,10,COBURG,350,206011497,Apartment
163683,"8/144 NICHOLSON STREET, COBURG",-37.745665,144.978198,2.0,1.0,1,$340_pw,September 2013,3058,2013,9,COBURG,340,206011497,Apartment
163685,"53 NICHOLSON STREET, COBURG",-37.753605,144.975761,2.0,1.0,1,$360_per_week,August 2013,3058,2013,8,COBURG,360,206011497,Apartment
163686,"49 SOUDAN STREET, COBURG",-37.739114,144.951791,3.0,1.0,1,$470_pw,December 2013,3058,2013,12,COBURG,470,206011498,House
163687,"3/5 INDUSTRY LANE, COBURG",-37.74493,144.96469,2.0,1.0,1,$370_pw,April 2013,3058,2013,4,COBURG,370,206011497,Apartment
163688,"4/9 ROSS STREET, COBURG",-37.738825,144.965837,2.0,1.0,1,$330_pw,May 2013,3058,2013,5,COBURG,330,206011497,House
163689,"4/9 ROSS STREET, COBURG",-37.738825,144.965837,2.0,1.0,1,$330_pw,April 2013,3058,2013,4,COBURG,330,206011497,Apartment
163690,"4/9 ROSS STREET, COBURG",-37.738825,144.965837,2.0,1.0,1,$335_pw,April 2013,3058,2013,4,COBURG,335,206011497,Apartment
163691,"2/17-18 CHAMP STREET, COBURG",-37.735876,144.967325,2.0,1.0,2,$340,August 2013,3058,2013,8,COBURG,340,206011497,Apartment
163692,"2/17-18 CHAMP STREET, COBURG",-37.735876,144.967325,2.0,1.0,2,$340,July 2013,3058,2013,7,COBURG,340,206011497,House
163693,"2/17-18 CHAMP STREET, COBURG",-37.735876,144.967325,2.0,1.0,2,$330_per_week,June 2013,3058,2013,6,COBURG,330,206011497,Apartment
163694,"2/17-18 CHAMP STREET, COBURG",-37.735876,144.967325,2.0,1.0,2,$330_per_week,May 2013,3058,2013,5,COBURG,330,206011497,House
163695,"2/17-18 CHAMP STREET, COBURG",-37.735876,144.967325,2.0,1.0,2,$340_p.w.,April 2013,3058,2013,4,COBURG,340,206011497,Apartment
163696,"2/17-18 CHAMP STREET, COBURG",-37.735876,144.967325,2.0,1.0,2,$340_per_week,March 2013,3058,2013,3,COBURG,340,206011497,Apartment
163697,"114 SHAFTSBURY STREET, COBURG",-37.745519,144.955825,3.0,2.0,1,$525_per_week,June 2013,3058,2013,6,COBURG,525,206011498,House
163698,"114 SHAFTSBURY STREET, COBURG",-37.745519,144.955825,3.0,2.0,1,$540_per_week,April 2013,3058,2013,4,COBURG,540,206011498,House
163699,"114 SHAFTSBURY STREET, COBURG",-37.745519,144.955825,3.0,2.0,1,$540_per_week,March 2013,3058,2013,3,COBURG,540,206011498,House
163702,"41/14 BELL STREET, COBURG",-37.74239,144.977185,2.0,1.0,1,$375_per_week,November 2013,3058,2013,11,COBURG,375,206011497,Apartment
163703,"41/14 BELL STREET, COBURG",-37.74239,144.977185,2.0,1.0,1,$375_per_week,October 2013,3058,2013,10,COBURG,375,206011497,Apartment
163706,"11/1 MANNA GUM COURT, COBURG",-37.736609,144.975974,3.0,2.0,2,$480_pw,May 2013,3058,2013,5,COBURG,480,206011497,House
163707,"20/1 MANNA GUM COURT, COBURG",-37.737353,144.976093,3.0,2.0,2,$500_Weekly,April 2013,3058,2013,4,COBURG,500,206011497,House
163708,"20/1 MANNA GUM COURT, COBURG",-37.737353,144.976093,3.0,2.0,2,$500_pw,March 2013,3058,2013,3,COBURG,500,206011497,House
163710,"69A MORELAND ROAD, COBURG",-37.756399,144.97422,3.0,1.0,1,$380_pw,February 2013,3058,2013,2,COBURG,380,206011497,House
163719,"332/12-20 NICHOLSON STREET, COBURG",-37.75544,144.975529,2.0,1.0,1,$380_pw,November 2013,3058,2013,11,COBURG,380,206011497,Apartment
163721,"23A MURRAY STREET, COBURG",-37.738829,144.958816,3.0,1.0,1,$440,March 2013,3058,2013,3,COBURG,440,206011498,House
163722,"23A MURRAY STREET, COBURG",-37.738829,144.958816,3.0,1.0,1,$440_per_week,February 2013,3058,2013,2,COBURG,440,206011498,House
163724,"1/1 INDUSTRY LANE, COBURG",-37.7369442,144.9699153,1.0,1.0,1,$350_per_week,November 2013,3058,2013,11,COBURG,350,206011497,Apartment
163725,"1/1 INDUSTRY LANE, COBURG",-37.7369442,144.9699153,1.0,1.0,1,$360_per_week,October 2013,3058,2013,10,COBURG,360,206011497,Apartment
163726,"2/278 REYNARD STREET, COBURG",-37.746591,144.94691,3.0,1.0,3,$470_per_week,June 2013,3058,2013,6,COBURG,470,206011498,House
163727,"767 SYDNEY ROAD, COBURG",-37.732851,144.964529,2.0,1.0,1,$360_-_$390_per_week,November 2013,3058,2013,11,COBURG,390,210031236,Apartment
163728,"3/618 SYDNEY ROAD, COBURG",-37.735994,144.966585,3.0,1.0,1,$340_per_week,October 2013,3058,2013,10,COBURG,340,206011497,House
163729,"3/22 CHAMBERS STREET, COBURG",-37.747267,144.96884,2.0,1.0,1,$320_pw,July 2013,3058,2013,7,COBURG,320,206011497,Apartment
163730,"1 DARE STREET, COBURG",-37.749962,144.96728,3.0,3.0,2,$340_pw,September 2013,3058,2013,9,COBURG,340,206011497,House
163732,"18/2 ALICE STREET, COBURG",-37.743803,144.957178,2.0,1.0,1,$280_Weekly,September 2013,3058,2013,9,COBURG,280,206011498,Apartment
163733,"25 CLIFTON GROVE, COBURG",-37.737821,144.958503,3.0,1.0,1,$470_p.w.,October 2013,3058,2013,10,COBURG,470,206011498,House
163734,"2 BELGRAVE AVENUE, COCKATOO",-37.92732,145.495818,4.0,2.0,6,$370_pw,April 2013,3781,2013,4,COCKATOO,370,212011289,House
163737,"55 FIRST AVENUE, COCKATOO",-37.941172,145.486123,3.0,1.0,3,$330_pw,January 2013,3781,2013,1,COCKATOO,330,212011289,House
163742,"66 WOORI YALLOCK ROAD, COCKATOO",-37.928419,145.492924,3.0,2.0,2,$340,December 2013,3781,2013,12,COCKATOO,340,212011289,House
163771,"77 GRIFFINS ROAD, COGHILLS CREEK",-37.38039,143.738068,3.0,2.0,4,$400_pw,September 2013,3364,2013,9,CREEK,400,201021010,House
163780,"5A MARKS STREET, COLAC",-38.338987,143.575414,1.0,1.0,1,$160_pw,November 2013,3250,2013,11,COLAC,160,217031472,Apartment
163785,"18 CHEVIOT AVE, COLDSTREAM",-37.72822,145.38466,3.0,1.0,1,$335_per_week,October 2013,3770,2013,10,COLDSTREAM,335,211051278,House
163786,"18 CHEVIOT AVE, COLDSTREAM",-37.72822,145.38466,3.0,1.0,1,$335_per_week,July 2013,3770,2013,7,COLDSTREAM,335,211051278,House
163789,"21 KILLARA ROAD, COLDSTREAM",-37.722431,145.390804,4.0,1.0,2,$440_per_week,June 2013,3770,2013,6,COLDSTREAM,440,211051278,House
163793,"73 MCCONOCHIE STREET, COLERAINE",-37.602055,141.691438,4.0,1.0,0,$170_pw,November 2013,3315,2013,11,COLERAINE,170,217011423,House
163794,"7 MCCONOCHIE STREET, COLERAINE",-37.603035,141.699576,2.0,1.0,0,$140_Weekly,December 2013,3315,2013,12,COLERAINE,140,217011423,Apartment
163795,"5/1 PEEL STREET, COLLINGWOOD",-37.805274,144.983734,1.0,1.0,1,$385_per_week,February 2013,3066,2013,2,COLLINGWOOD,385,206071141,Apartment
163796,"305/10 STANLEY STREET, COLLINGWOOD",-37.80182,144.984563,3.0,1.0,1,$620_p.w.,August 2013,3066,2013,8,COLLINGWOOD,620,206071141,House
163797,"305/10 STANLEY STREET, COLLINGWOOD",-37.80182,144.984563,3.0,1.0,1,$630_p.w.,June 2013,3066,2013,6,COLLINGWOOD,630,206071141,House
163798,"506/45 VICTORIA PARADE, COLLINGWOOD",-37.808694,144.984082,1.0,1.0,0,$260_per_week,December 2013,3066,2013,12,COLLINGWOOD,260,206071141,Apartment
163799,"2.04/46 CAMBRIDGE STREET, COLLINGWOOD",-37.807575,144.985292,1.0,1.0,0,$320_pw,September 2013,3066,2013,9,COLLINGWOOD,320,206071141,Apartment
163800,"2.04/46 CAMBRIDGE STREET, COLLINGWOOD",-37.807575,144.985292,1.0,1.0,0,$320_pw,August 2013,3066,2013,8,COLLINGWOOD,320,206071141,Apartment
163801,"18/34 SMITH STREET, COLLINGWOOD",-37.807413,144.983606,1.0,1.0,1,$390_pw,November 2013,3066,2013,11,COLLINGWOOD,390,206071141,Apartment
163802,"5/15-17 BENDIGO STREET, COLLINGWOOD",-37.796087,144.992632,1.0,1.0,1,$260_pw,January 2013,3066,2013,1,COLLINGWOOD,260,206071141,Apartment
163803,"14/34 SMITH STREET, COLLINGWOOD",-37.8072953,144.9828207,1.0,1.0,1,$400_pw,June 2013,3066,2013,6,COLLINGWOOD,400,206071142,Apartment
163808,"24/115 OXFORD STREET, COLLINGWOOD",-37.802621,144.984866,2.0,1.0,1,$600_per_week,June 2013,3066,2013,6,COLLINGWOOD,600,206071141,Apartment
163809,"24/115 OXFORD STREET, COLLINGWOOD",-37.802621,144.984866,2.0,1.0,1,$650_per_week,June 2013,3066,2013,6,COLLINGWOOD,650,206071141,Apartment
163810,"2/17 ALEXANDER STREET, COLLINGWOOD",-37.795758,144.991069,1.0,1.0,1,$250_per_week,January 2013,3066,2013,1,COLLINGWOOD,250,206071141,Apartment
163811,"15/15-25 OXFORD STREET, COLLINGWOOD",-37.8076309,144.9840188,2.0,1.0,2,$475_pw,November 2013,3066,2013,11,COLLINGWOOD,475,206071141,Apartment
163812,"274 SMITH STREET, COLLINGWOOD",-37.8010276,144.9839259,3.0,2.0,1,$850_p.w.,March 2013,3066,2013,3,COLLINGWOOD,850,206071141,House
163813,"117/3 HODDLE STREET, COLLINGWOOD",-37.8089283,144.9913524,2.0,1.0,2,$450_per_week,August 2013,3066,2013,8,COLLINGWOOD,450,206071141,Apartment
163814,"108/10 STANLEY STREET, COLLINGWOOD",-37.80182,144.984563,2.0,2.0,1,$550_p.w.,December 2013,3066,2013,12,COLLINGWOOD,550,206071141,House
163815,"301/45 VICTORIA PARADE, COLLINGWOOD",-37.8087039,144.9841198,1.0,1.0,1,$375_pw,February 2013,3066,2013,2,COLLINGWOOD,375,206071141,Apartment
163819,"9/78 OXFORD STREET, COLLINGWOOD",-37.807815,144.983906,1.0,1.0,1,$420_per_week,July 2013,3066,2013,7,COLLINGWOOD,420,206071141,Apartment
163820,"2/9-11 OTTER STREET, COLLINGWOOD",-37.800996,144.985087,2.0,1.0,1,$395_per_week,July 2013,3066,2013,7,COLLINGWOOD,395,206071141,Apartment
163821,"2/9-11 OTTER STREET, COLLINGWOOD",-37.800996,144.985087,2.0,1.0,1,$400_per_week,June 2013,3066,2013,6,COLLINGWOOD,400,206071141,Apartment
163822,"105/40 STANLEY STREET, COLLINGWOOD",-37.8021801,144.9853655,2.0,1.0,1,$480_per_week,December 2013,3066,2013,12,COLLINGWOOD,480,206071141,Apartment
163823,"235 KNIGHTS ROAD, CONGUPNA",-36.323892,145.458638,3.0,1.0,1,$250_pw,November 2013,3633,2013,11,CONGUPNA,250,216031418,House
163831,"13 AMBROSIA DRIVE, CONNEWARRE",-38.3040878,144.3139277,4.0,2.0,2,$380_pw,December 2013,3228,2013,12,CONNEWARRE,380,203031053,House
163833,"29 PROMINENCE BOULEVARD, CONNEWARRE",-38.3040878,144.3139277,4.0,2.0,2,$380_pw,November 2013,3228,2013,11,CONNEWARRE,380,203031053,House
163844,"14 FRESHWATER DRIVE, CONNEWARRE",-38.2368922,144.3694495,4.0,2.0,2,$385_per_week,October 2013,3228,2013,10,CONNEWARRE,385,203031489,House
163845,"5 DAYBREAK AVENUE, CONNEWARRE",-38.2361351,144.3666933,4.0,2.0,2,$365_per_week,October 2013,3228,2013,10,CONNEWARRE,365,203031489,House
163846,"17 CAITLIN CHASE, CONNEWARRE",-38.2362662,144.3742753,4.0,2.0,2,$420_pw,October 2013,3228,2013,10,CONNEWARRE,420,203031489,House
163850,"16 SILVERCREST WAY, CONNEWARRE",-38.2374337,144.3749677,4.0,2.0,2,$430_per_week,October 2013,3228,2013,10,CONNEWARRE,430,203031489,House
163852,"21 CHILDERS CRESCENT, COOLAROO",-37.660879,144.928919,3.0,1.0,1,$320_per_week,April 2013,3048,2013,4,COOLAROO,320,210051243,House
163853,"75 ALMURTA AVENUE, COOLAROO",-37.659898,144.927728,3.0,1.0,1,$320_per_week,October 2013,3048,2013,10,COOLAROO,320,210051243,House
163854,"24 BLIGH ST, COOMA",-36.4117843,145.0682096,3.0,1.0,1,$320_per_week,December 2013,3616,2013,12,COOMA,320,216031419,House
163855,"CARINYA/COTTA... NITHOLM ROAD, COOMA",-36.4117843,145.0682096,3.0,1.0,0,$210_per_week,August 2013,3616,2013,8,COOMA,210,216031419,House
163856,"1 EAST CAMP DR, COOMA",-36.4117843,145.0682096,4.0,2.0,2,$420_per_week,July 2013,3616,2013,7,COOMA,420,216031419,House
163857,"170 KANGAROO DRIVE, COOMOORA",-37.334035,144.200818,2.0,2.0,1,$180_pw,November 2013,3461,2013,11,COOMOORA,180,201021011,House
163858,"210 DAYLESFORD-MALMSBERY ROAD, COOMOORA",-37.325691,144.185619,4.0,1.0,0,$360,June 2013,3461,2013,6,COOMOORA,360,201021011,House
163859,"210 DAYLESFORD-MALMSBERY ROAD, COOMOORA",-37.325691,144.185619,4.0,1.0,0,$360,July 2013,3461,2013,7,COOMOORA,360,201021011,House
163860,"160 KANGAROO DRIVE, COOMOORA",-37.334653,144.19954,3.0,1.0,0,$300_per_week,April 2013,3461,2013,4,COOMOORA,300,201021011,House
163865,"635 BUNYIP RIVER ROAD, CORA LYNN",-38.138998,145.623274,3.0,1.0,2,$395_Weekly,December 2013,3814,2013,12,LYNN,395,212011547,House
163866,"635 BUNYIP RIVER ROAD, CORA LYNN",-38.138998,145.623274,3.0,1.0,2,$440_pw,December 2013,3814,2013,12,LYNN,440,212011547,House
163867,"635 BUNYIP RIVER ROAD, CORA LYNN",-38.138998,145.623274,3.0,1.0,2,$440_pw,August 2013,3814,2013,8,LYNN,440,212011547,House
163870,"12 GRANAULT PARADE, CORIO",-38.075683,144.365084,3.0,1.0,2,$235_per_week,December 2013,3214,2013,12,CORIO,235,203021486,House
163877,"5 CAITHNESS CRESCENT, CORIO",-38.073268,144.356933,3.0,1.0,3,$285_pw,December 2013,3214,2013,12,CORIO,285,203021486,House
163878,"5 CAITHNESS CRESCENT, CORIO",-38.073268,144.356933,3.0,1.0,3,$280_pw,February 2013,3214,2013,2,CORIO,280,203021486,House
163879,"6 ARMALITE COURT, CORIO",-38.069292,144.351343,3.0,1.0,2,$270_p.w.,April 2013,3214,2013,4,CORIO,270,203021486,House
163880,"3/8-9 FIELDMAN COURT, CORIO",-38.068974,144.350346,2.0,1.0,1,$250_pw,October 2013,3214,2013,10,CORIO,250,203021486,Apartment
163881,"4 CHESHIRE STREET, CORIO",-38.073003,144.353327,3.0,1.0,4,$280_per_week,April 2013,3214,2013,4,CORIO,280,203021486,House
163886,"523 CORANGAMITE LAKE ROAD, COROROOKE",-38.2890562,143.5225133,3.0,1.0,2,$185_pw,August 2013,3254,2013,8,COROROOKE,185,217031473,House
163904,"4/35 CHAPEL STREET, COWES",-38.450944,145.24391,2.0,1.0,1,$210_per_week,February 2013,3922,2013,2,COWES,210,205031091,Apartment
163906,"1/4 GRANDVIEW GROVE, COWES",-38.45692444,145.23738098,3.0,2.0,1,$240_pw,October 2013,3922,2013,10,COWES,240,205031091,House
163910,"2813 TRARALGON-MAFFRA ROAD, COWWARR",-38.0146325,146.7008645,3.0,1.0,2,$300_per_week,July 2013,3857,2013,7,COWWARR,300,205051102,House
163913,"2813 TRARALGON MAFFRA ROAD, COWWARR",-38.014632,146.700864,3.0,1.0,2,$300_per_week,February 2013,3857,2013,2,COWWARR,300,205051102,House
163914,"63 THORESBY CIRCLE, CRAIGIE",-37.1039158,143.7758537,3.0,2.0,2,$310,May 2013,3465,2013,5,CRAIGIE,310,201031017,House
163915,"22 STOCKTON STREET, CRAIGIEBURN",-37.605254,144.941661,3.0,1.0,1,$290_per_week,October 2013,3064,2013,10,CRAIGIEBURN,290,210051443,House
163916,"64 CORRINGA WAY, CRAIGIEBURN",-37.585886,144.91407,3.0,2.0,2,$320_pw,December 2013,3064,2013,12,CRAIGIEBURN,320,210051543,House
163917,"64 CORRINGA WAY, CRAIGIEBURN",-37.585886,144.91407,3.0,2.0,2,$320_per_week,May 2013,3064,2013,5,CRAIGIEBURN,320,210051543,House
163918,"64 CORRINGA WAY, CRAIGIEBURN",-37.585886,144.91407,3.0,2.0,2,$320_pw,April 2013,3064,2013,4,CRAIGIEBURN,320,210051543,House
163919,"64 CORRINGA WAY, CRAIGIEBURN",-37.585886,144.91407,3.0,2.0,2,$320_Weekly,March 2013,3064,2013,3,CRAIGIEBURN,320,210051543,House
163920,"2 WOODLANDS COURT, CRAIGIEBURN",-37.592569,144.929748,3.0,1.0,2,$320_p.w.,September 2013,3064,2013,9,CRAIGIEBURN,320,210051441,House
163922,"80A ROYAL TERRACE, CRAIGIEBURN",-37.5721964,144.9272265,3.0,2.0,1,$335_per_week,October 2013,3064,2013,10,CRAIGIEBURN,335,210051442,House
163923,"39 DAYMAR CIRCUIT, CRAIGIEBURN",-37.5847994,144.9099262,3.0,3.0,2,$330_per_week,June 2013,3064,2013,6,CRAIGIEBURN,330,210051543,House
163924,"22 FOLGER ROAD, CRAIGIEBURN",-37.5845781,144.9083648,2.0,1.0,4,$280_pw,March 2013,3064,2013,3,CRAIGIEBURN,280,210051543,House
163925,"3 EGTON COURT, CRAIGIEBURN",-37.59984,144.932267,3.0,2.0,2,$300_per_week,July 2013,3064,2013,7,CRAIGIEBURN,300,210051443,House
163926,"3 EGTON COURT, CRAIGIEBURN",-37.59984,144.932267,3.0,2.0,2,$300_per_week,January 2013,3064,2013,1,CRAIGIEBURN,300,210051443,House
163964,"19 MARNIE DRIVE, CRANBOURNE WEST",-38.102863,145.25812,3.0,1.0,0,$295_pw,December 2013,3977,2013,12,WEST,295,212031304,House
163965,"19 MARNIE DRIVE, CRANBOURNE WEST",-38.102863,145.25812,3.0,1.0,0,$295_per_week,November 2013,3977,2013,11,WEST,295,212031304,House
163967,"3 HARRY STREET, CRANBOURNE",-38.10985,145.276055,3.0,1.0,1,$280_p.w.,January 2013,3977,2013,1,CRANBOURNE,280,212031300,House
163970,"19 JILLIAN STREET, CRANBOURNE",-38.107651,145.274156,3.0,1.0,1,$300_per_week,November 2013,3977,2013,11,CRANBOURNE,300,212031300,House
163987,"40 CUNNINGHAM CHASE, BURNSIDE HEIGHTS",-37.735431,144.761693,3.0,2.0,2,$330_Weekly,November 2013,3023,2013,11,HEIGHTS,330,213041462,House
163989,"1/7 KATRINA DRIVE, BURNSIDE HEIGHTS",-37.729215,144.757724,3.0,2.0,1,$320,April 2013,3023,2013,4,HEIGHTS,320,213041462,House
163990,"1/7 KATRINA DRIVE, BURNSIDE HEIGHTS",-37.729215,144.757724,3.0,2.0,1,$320,February 2013,3023,2013,2,HEIGHTS,320,213041462,House
163993,"181 TENTERFIELD DRIVE, BURNSIDE HEIGHTS",-37.735373,144.749425,3.0,2.0,2,$340_per_week,August 2013,3023,2013,8,HEIGHTS,340,213041462,House
164004,"13 GIVERNY CLOSE, BURNSIDE HEIGHTS",-37.724697,144.750784,4.0,2.0,2,$380_pw,June 2013,3023,2013,6,HEIGHTS,380,213041462,House
164005,"13 GIVERNY CLOSE, BURNSIDE HEIGHTS",-37.724697,144.750784,4.0,2.0,2,$360_per_week,April 2013,3023,2013,4,HEIGHTS,360,213041462,House
164006,"7 BURKE ROAD, BURNSIDE HEIGHTS",-37.733581,144.758083,4.0,2.0,2,$430_per_week,August 2013,3023,2013,8,HEIGHTS,430,213041462,House
164009,"1 CHIFLEY CIRCUIT, BURNSIDE HEIGHTS",-37.726732,144.761692,4.0,3.0,2,$390_per_week,April 2013,3023,2013,4,HEIGHTS,390,213041462,House
164010,"1 CHIFLEY CIRCUIT, BURNSIDE HEIGHTS",-37.726732,144.761692,4.0,3.0,2,$390_per_week,March 2013,3023,2013,3,HEIGHTS,390,213041462,House
164025,"27 BELLEVILLE CLOSE, BURNSIDE HEIGHTS",-37.7264289,144.7530183,3.0,2.0,2,$340_per_week,August 2013,3023,2013,8,HEIGHTS,340,213041462,House
164026,"29 MENZIES DRIVE, BURNSIDE HEIGHTS",-37.728059,144.763555,3.0,2.0,2,$350_p.w.,November 2013,3023,2013,11,HEIGHTS,350,213041462,House
164031,"13 CATANI COURT, BURNSIDE HEIGHTS",-37.727872,144.751261,4.0,2.0,2,$430_pw,June 2013,3023,2013,6,HEIGHTS,430,213041462,House
164032,"13 CATANI COURT, BURNSIDE HEIGHTS",-37.727872,144.751261,4.0,2.0,2,$450_p.w.,June 2013,3023,2013,6,HEIGHTS,450,213041462,House
164033,"13 CATANI COURT, BURNSIDE HEIGHTS",-37.727872,144.751261,4.0,2.0,2,$450_pw,May 2013,3023,2013,5,HEIGHTS,450,213041462,House
164035,"39 BELLEVILLE CLOSE, BURNSIDE HEIGHTS",-37.72506,144.753699,4.0,2.0,2,$360_per_week,May 2013,3023,2013,5,HEIGHTS,360,213041462,House
164040,"5 YELLOWGUM STREET, BURNSIDE HEIGHTS",-37.730507,144.755087,4.0,2.0,2,$420_per_week,May 2013,3023,2013,5,HEIGHTS,420,213041462,House
164044,"155 TENTERFIELD DRIVE, BURNSIDE HEIGHTS",-37.7352514,144.7511745,4.0,2.0,2,$420_per_week,October 2013,3023,2013,10,HEIGHTS,420,213041462,House
164045,"70 CUNNINGHAM CHASE, BURNSIDE HEIGHTS",-37.735367,144.75974,3.0,2.0,2,$375_per_week,May 2013,3023,2013,5,HEIGHTS,375,213041462,House
164046,"70 CUNNINGHAM CHASE, BURNSIDE HEIGHTS",-37.735367,144.75974,3.0,2.0,2,$390_per_week,May 2013,3023,2013,5,HEIGHTS,390,213041462,House
164066,"3 GOULD PLACE, BURNSIDE",-37.751245,144.749376,3.0,1.0,1,$350_per_week,November 2013,3023,2013,11,BURNSIDE,350,213041461,House
164067,"3 GOULD PLACE, BURNSIDE",-37.751245,144.749376,3.0,1.0,1,$325_per_week,January 2013,3023,2013,1,BURNSIDE,325,213041461,House
164071,"2/30 HAWTHORN ROAD, BURWOOD EAST",-37.845777,145.155087,2.0,1.0,2,$375_pw,December 2013,3151,2013,12,EAST,375,207031166,Apartment
164072,"2/30 HAWTHORN ROAD, BURWOOD EAST",-37.845777,145.155087,2.0,1.0,2,$355_pw,November 2013,3151,2013,11,EAST,355,207031166,Apartment
164085,"4 MALLAWA COURT, BURWOOD EAST",-37.858204,145.142978,3.0,1.0,1,$370_per_week,July 2013,3151,2013,7,EAST,370,207031166,House
164086,"68A ROSLYN STREET, BURWOOD",-37.845154,145.103348,1.0,1.0,1,$250,June 2013,3125,2013,6,BURWOOD,250,207031165,Apartment
164087,"68A ROSLYN STREET, BURWOOD",-37.845154,145.103348,1.0,1.0,1,$251_per_week,June 2013,3125,2013,6,BURWOOD,251,207031165,Apartment
164088,"2/6 LA FRANK STREET, BURWOOD",-37.852503,145.127205,2.0,2.0,1,$430_pw,April 2013,3125,2013,4,BURWOOD,430,207031165,House
164089,"42/390 BURWOOD HIGHWAY, BURWOOD",-37.852279,145.130904,1.0,1.0,0,$205_per_week,November 2013,3125,2013,11,BURWOOD,205,207031165,Apartment
164090,"7 UGANDA STREET, BURWOOD",-37.84442,145.109282,4.0,2.0,1,$400_pw,August 2013,3125,2013,8,BURWOOD,400,207031165,House
164091,"58 ROSLYN STREET, BURWOOD",-37.845828,145.103217,4.0,1.0,2,$460_pw,January 2013,3125,2013,1,BURWOOD,460,207031165,House
164094,"6 CROPLEY COURT, BURWOOD",-37.847035,145.110279,3.0,1.0,1,$480_per_week,January 2013,3125,2013,1,BURWOOD,480,207031165,House
164095,"4 MAIDEN COURT, BURWOOD",-37.8577,145.109172,4.0,2.0,2,$730,October 2013,3125,2013,10,BURWOOD,730,212051319,House
164103,"55/390 BURWOOD HIGHWAY, BURWOOD",-37.852279,145.130904,1.0,1.0,0,$220_per_week,September 2013,3125,2013,9,BURWOOD,220,207031165,Apartment
164105,"2/14 WORRALL STREET, BURWOOD",-37.848597,145.13041,3.0,2.0,1,$440_per_week,May 2013,3125,2013,5,BURWOOD,440,207031165,House
164106,"2/14 WORRALL STREET, BURWOOD",-37.848597,145.13041,3.0,2.0,1,$460_per_week,April 2013,3125,2013,4,BURWOOD,460,207031165,House
164109,"208/224 BURWOOD HIGHWAY, BURWOOD",-37.8501171,145.1144686,2.0,2.0,0,$400_per_week,December 2013,3125,2013,12,BURWOOD,400,207031165,House
164110,"94 BRIDGE ROAD, BUSHFIELD",-38.322386,142.495382,3.0,1.0,1,$210_Weekly,October 2013,3281,2013,10,BUSHFIELD,210,217041479,House
164111,"94 BRIDGE ROAD, BUSHFIELD",-38.322386,142.495382,3.0,1.0,1,$300_Weekly,May 2013,3281,2013,5,BUSHFIELD,300,217041479,House
164113,"50 BRIDGE ROAD, BUSHFIELD",-38.322919,142.499847,5.0,2.0,3,$520_Weekly,March 2013,3281,2013,3,BUSHFIELD,520,217041479,House
164114,"50 BRIDGE ROAD, BUSHFIELD",-38.322919,142.499847,5.0,2.0,3,$495_p.w.,February 2013,3281,2013,2,BUSHFIELD,495,217041479,House
164115,"50 BRIDGE RD, BUSHFIELD",-38.322919,142.499847,5.0,3.0,3,$495_Weekly,February 2013,3281,2013,2,BUSHFIELD,495,217041479,House
164117,"19 MAREEBA AVENUE, BUXTON",-37.423476,145.704617,3.0,1.0,2,$280_Weekly,December 2013,3711,2013,12,BUXTON,280,204011054,House
164125,"36 DYAR AVENUE, CABARITA",-34.2113883,142.0910871,4.0,2.0,2,$410_Week,October 2013,3505,2013,10,CABARITA,410,215021396,House
164126,"36 DYAR AVENUE, CABARITA",-34.2113883,142.0910871,4.0,2.0,2,$410_Week,September 2013,3505,2013,9,CABARITA,410,215021396,House
164129,"5 MALIBU DRIVE, CABARITA",-34.197567,142.086052,3.0,2.0,2,$300_pw,January 2013,3505,2013,1,CABARITA,300,215021396,House
164137,"4/348 EAGLEHAWK ROAD, CALIFORNIA GULLY",-36.7282335,144.258592,2.0,1.0,1,$195_pw,January 2013,3556,2013,1,GULLY,195,202011019,Apartment
164138,"96 NELSON STREET, CALIFORNIA GULLY",-36.7254756,144.2710199,3.0,1.0,1,$260,November 2013,3556,2013,11,GULLY,260,202011019,House
164139,"96 NELSON STREET, CALIFORNIA GULLY",-36.7254756,144.2710199,3.0,1.0,1,$270_pw,July 2013,3556,2013,7,GULLY,270,202011019,House
164141,"25 FACTORY ROAD FULLY FURNISHED ROAD, CALLIGNEE",-38.3375648,146.5830184,3.0,2.0,3,$490,July 2013,3844,2013,7,CALLIGNEE,490,205041094,House
164144,"265 BOGGY CREEK ROAD, CALULU",-37.763864,147.497495,3.0,1.0,2,$310_pw,November 2013,3875,2013,11,CALULU,310,205021082,House
164145,"1/249 HIGHFIELD ROAD, CAMBERWELL",-37.84785355,145.08215115,2.0,1.0,2,$410_per_week,December 2013,3124,2013,12,CAMBERWELL,410,207011149,Apartment
164147,"2/35 ACHERON AVENUE, CAMBERWELL",-37.842756,145.066291,2.0,1.0,1,$460_pw,December 2013,3124,2013,12,CAMBERWELL,460,207011149,Apartment
164155,"3 DONNA BUANG STREET, CAMBERWELL",-37.84434,145.064707,4.0,3.0,2,$770_p.w.,September 2013,3124,2013,9,CAMBERWELL,770,207011149,House
164158,"1/126 WATTLE VALLEY ROAD, CAMBERWELL",-37.837583,145.080986,2.0,1.0,1,$370_per_week,July 2013,3124,2013,7,CAMBERWELL,370,207011149,Apartment
164159,"3/894-896 TOORAK ROAD, CAMBERWELL",-37.84629822,145.05543518,3.0,2.0,1,$550_p.w.,November 2013,3124,2013,11,CAMBERWELL,550,207011150,House
164160,"2/28 ALLAMBEE AVENUE, CAMBERWELL",-37.835228,145.077317,2.0,1.0,1,$380_per_week,March 2013,3124,2013,3,CAMBERWELL,380,207011149,Apartment
164163,"6/18 GLENCAIRN AVENUE, CAMBERWELL",-37.846807,145.081541,2.0,1.0,1,$350_pw,May 2013,3124,2013,5,CAMBERWELL,350,207011149,Apartment
164164,"6/18 GLENCAIRN AVENUE, CAMBERWELL",-37.846807,145.081541,2.0,1.0,1,$350_pw,April 2013,3124,2013,4,CAMBERWELL,350,207011149,Apartment
164165,"1 BETHELA STREET, CAMBERWELL",-37.846692,145.08925,2.0,1.0,2,$470,March 2013,3124,2013,3,CAMBERWELL,470,207011149,Apartment
164166,"500 FLINDERS STREET, MELBOURNE",-37.820019,144.957827,1.0,1.0,0,$330_pw,March 2013,3000,2013,3,MELBOURNE,330,206041505,Apartment
164167,"1214/555 FLINDERS STREET, MELBOURNE",-37.8208706,144.9562331,1.0,1.0,0,$350_pw,September 2013,3000,2013,9,MELBOURNE,350,206041505,Apartment
164168,"1214/555 FLINDERS STREET, MELBOURNE",-37.8208706,144.9562331,1.0,1.0,0,$375_per_week,September 2013,3000,2013,9,MELBOURNE,375,206041505,Apartment
164169,"1214/555 FLINDERS STREET, MELBOURNE",-37.8208706,144.9562331,1.0,1.0,0,$400_pw,August 2013,3000,2013,8,MELBOURNE,400,206041505,Apartment
164170,"1510/22-24 JANE BELL LANE, MELBOURNE",-37.8102038,144.9661963,1.0,1.0,1,$480_per_week,September 2013,3000,2013,9,MELBOURNE,480,206041504,Apartment
164171,"2703/8 EXPLORATION LANE, MELBOURNE",-37.8092558,144.9683848,2.0,2.0,0,$550_pw,April 2013,3000,2013,4,MELBOURNE,550,206041503,House
164172,"2703/8 EXPLORATION LANE, MELBOURNE",-37.8092558,144.9683848,2.0,2.0,0,$550_pw,January 2013,3000,2013,1,MELBOURNE,550,206041503,House
164173,"508/455 ELIZABETH STREET, MELBOURNE",-37.808459,144.960167,2.0,1.0,0,$480_per_week,December 2013,3000,2013,12,MELBOURNE,480,206041504,Apartment
164174,"904/422 COLLINS STREET, MELBOURNE",-37.817137,144.96012,1.0,1.0,0,$340_per_week,November 2013,3000,2013,11,MELBOURNE,340,206041505,Apartment
164175,"904/422 COLLINS STREET, MELBOURNE",-37.817137,144.96012,1.0,1.0,0,$350_per_week,August 2013,3000,2013,8,MELBOURNE,350,206041505,Apartment
164176,"3305/483 SWANSTON STREET, MELBOURNE",-37.807218,144.962336,2.0,1.0,1,$570_p.w.,January 2013,3000,2013,1,MELBOURNE,570,206041504,Apartment
164177,"3507/200 SPENCER STREET, MELBOURNE",-37.816257,144.953288,2.0,2.0,1,$650_pw,January 2013,3000,2013,1,MELBOURNE,650,206041505,House
164178,"925/555 FLINDERS STREET, MELBOURNE",-37.821153,144.956585,2.0,2.0,1,$490_per_week,June 2013,3000,2013,6,MELBOURNE,490,206041505,House
164179,"925/555 FLINDERS STREET, MELBOURNE",-37.821153,144.956585,2.0,2.0,1,$530_per_week,April 2013,3000,2013,4,MELBOURNE,530,206041505,House
164180,"428/118 FRANKLIN STREET, MELBOURNE",-37.808357,144.959008,1.0,1.0,1,$310_pw,April 2013,3000,2013,4,MELBOURNE,310,206041504,Apartment
164181,"605/455 ELIZABETH STREET, MELBOURNE",-37.808429,144.960206,2.0,1.0,0,$465_per_week,May 2013,3000,2013,5,MELBOURNE,465,206041504,Apartment
164182,"405/325 COLLINS STREET, MELBOURNE",-37.8168963,144.9634774,2.0,1.0,0,$405_per_week,September 2013,3000,2013,9,MELBOURNE,405,206041505,Apartment
164183,"1011/225 ELIZABETH STREET, MELBOURNE",-37.8131346,144.9624998,1.0,1.0,0,$410_per_week,December 2013,3000,2013,12,MELBOURNE,410,206041505,Apartment
164184,"1011/225 ELIZABETH STREET, MELBOURNE",-37.8131346,144.9624998,1.0,1.0,0,$450_per_week,January 2013,3000,2013,1,MELBOURNE,450,206041505,Apartment
164185,"250 ELIZABETH STREET, MELBOURNE",-37.81278992,144.96253967,1.0,1.0,1,$420_per_week,July 2013,3000,2013,7,MELBOURNE,420,206041503,Apartment
164186,"6B/131 LONSDALE STREET, MELBOURNE",-37.810713,144.968409,1.0,1.0,0,$300_per_week,November 2013,3000,2013,11,MELBOURNE,300,206041503,Apartment
164187,"200 SPENCER STREET, MELBOURNE",-37.81613541,144.95289612,2.0,2.0,1,$590_p.w.,July 2013,3000,2013,7,MELBOURNE,590,206041505,House
164188,"200 SPENCER STREET, MELBOURNE",-37.81613541,144.95289612,2.0,2.0,1,$380_Weekly,May 2013,3000,2013,5,MELBOURNE,380,206041505,House
164189,"200 SPENCER STREET, MELBOURNE",-37.81613541,144.95289612,2.0,2.0,1,$430_pw,March 2013,3000,2013,3,MELBOURNE,430,206041505,House
164190,"31/398 LA TROBE STREET, MELBOURNE",-37.8113441,144.9580525,1.0,1.0,1,$410_per_week,August 2013,3000,2013,8,MELBOURNE,410,206041505,Apartment
164191,"1706/200 SPENCER STREET, MELBOURNE",-37.816257,144.953288,1.0,1.0,1,$730_pw,July 2013,3000,2013,7,MELBOURNE,730,206041505,Apartment
164192,"1706/200 SPENCER STREET, MELBOURNE",-37.816257,144.953288,1.0,1.0,1,$710_pw,April 2013,3000,2013,4,MELBOURNE,710,206041505,Apartment
164193,"2105/39 LONSDALE STREET, MELBOURNE",-37.8097503,144.9711289,2.0,1.0,0,$450_per_week,March 2013,3000,2013,3,MELBOURNE,450,206041503,Apartment
164194,"1712/200 SPENCER STREET, MELBOURNE",-37.8163783,144.9528947,1.0,1.0,1,$550_p.w.,May 2013,3000,2013,5,MELBOURNE,550,206041118,Apartment
164195,"412/87 FRANKLIN STREET, MELBOURNE",-37.80802917,144.96168518,1.0,1.0,0,$380_pw,January 2013,3000,2013,1,MELBOURNE,380,206041504,Apartment
164196,"110/133 BOURKE STREET, MELBOURNE",-37.812912,144.969358,1.0,1.0,1,$820_pw,August 2013,3000,2013,8,MELBOURNE,820,206041503,Apartment
164197,"2803/483 SWANSTON STREET, MELBOURNE",-37.807218,144.962336,2.0,1.0,0,$570_p.w.,December 2013,3000,2013,12,MELBOURNE,570,206041504,Apartment
164198,"303 / 253 FRANKLIN STREET, MELBOURNE",-37.8093919,144.9566185,2.0,1.0,0,$485_pw,September 2013,3000,2013,9,MELBOURNE,485,206041504,Apartment
164199,"1108/68 LA TROBE STREET, MELBOURNE",-37.809552,144.9617995,2.0,1.0,1,$500_per_week,July 2013,3000,2013,7,MELBOURNE,500,206041504,Apartment
164200,"1207/268 FLINDERS STREET, MELBOURNE",-37.817606,144.965626,1.0,1.0,0,$300_per_week,March 2013,3000,2013,3,MELBOURNE,300,206041503,Apartment
164201,"10/17 QUEENS ROAD, MELBOURNE",-37.818427,144.9621,1.0,1.0,1,$349_per_week,July 2013,3000,2013,7,MELBOURNE,349,206041505,Apartment
164202,"233 COLLINS STREET, MELBOURNE",-37.815888,144.965983,2.0,1.0,0,$425_pw,March 2013,3000,2013,3,MELBOURNE,425,206041503,Apartment
164203,"1106/555 FLINDERS STREET, MELBOURNE",-37.8208706,144.9562331,1.0,1.0,1,$350_per_week,December 2013,3000,2013,12,MELBOURNE,350,206041505,Apartment
164204,"1106/555 FLINDERS STREET, MELBOURNE",-37.8208706,144.9562331,1.0,1.0,1,$360_per_week,December 2013,3000,2013,12,MELBOURNE,360,206041505,Apartment
164205,"1106/555 FLINDERS STREET, MELBOURNE",-37.8208706,144.9562331,1.0,1.0,1,$360_per_week,November 2013,3000,2013,11,MELBOURNE,360,206041505,Apartment
164215,"1/162 EXFORD ROAD, MELTON SOUTH",-37.718917,144.572648,3.0,2.0,1,$260_per_week,November 2013,3338,2013,11,SOUTH,260,213041578,House
164216,"64 FAIRHAVEN BOULEVARD, MELTON WEST",-37.6874849,144.5518348,4.0,2.0,1,$310_per_week,November 2013,3337,2013,11,WEST,310,213041358,House
164218,"7 WILLOW COURT, MELTON WEST",-37.667605,144.55156,4.0,2.0,2,$350_p.w.,July 2013,3337,2013,7,WEST,350,213041358,House
164221,"1/32 PAUL HARRIS DRIVE, MELTON WEST",-37.675072,144.547215,3.0,2.0,1,$290_per_week,May 2013,3337,2013,5,WEST,290,213041358,House
164226,"110 PALMERSTON STREET, MELTON",-37.677332,144.583721,4.0,2.0,1,$240_per_week,March 2013,3337,2013,3,MELTON,240,213041577,House
164229,"12/35-47 TULLIDGE STREET, MELTON",-37.688806,144.586444,3.0,2.0,2,$270_per_week,May 2013,3337,2013,5,MELTON,270,213041577,House
164235,"1/492 HIGH STREET, MELTON",-37.683609,144.570489,2.0,1.0,1,$225_per_week,February 2013,3337,2013,2,MELTON,225,213041577,Apartment
164246,"8 FALCON DRIVE, MELTON",-37.674332,144.575417,3.0,1.0,3,$230_per_week,May 2013,3337,2013,5,MELTON,230,213041577,House
164247,"8 FALCON DRIVE, MELTON",-37.674332,144.575417,3.0,1.0,3,$240_pw,May 2013,3337,2013,5,MELTON,240,213041577,House
164248,"8 FALCON DRIVE, MELTON",-37.674332,144.575417,3.0,1.0,3,$240_pw,April 2013,3337,2013,4,MELTON,240,213041577,House
164249,"8 FALCON DRIVE, MELTON",-37.674332,144.575417,3.0,1.0,3,$240_pw,March 2013,3337,2013,3,MELTON,240,213041577,House
164250,"39 ROSINA DRIVE, MELTON",-37.685071,144.569605,3.0,1.0,2,$265_per_week,September 2013,3337,2013,9,MELTON,265,213041577,House
164251,"10/20-24 PALMERSTON STREET, MELTON",-37.688049,144.584038,3.0,1.0,1,$260_per_week,September 2013,3337,2013,9,MELTON,260,213041577,House
164252,"9/20-24 PALMERSTON STREET, MELTON",-37.688049,144.584038,3.0,1.0,1,$275_pw,December 2013,3337,2013,12,MELTON,275,213041577,House
164255,"480 BOGGY CREEK ROAD, MELWOOD",-37.747754,147.501882,3.0,1.0,3,$195_Weekly,November 2013,3875,2013,11,MELWOOD,195,205021082,House
164256,"9/7 VENICE STREET, MENTONE",-37.985406,145.061416,2.0,1.0,1,$300_per_week,March 2013,3194,2013,3,MENTONE,300,208031190,Apartment
164257,"1/46 RIVIERA STREET, MENTONE",-37.977327,145.073659,1.0,1.0,1,$240_per_week,August 2013,3194,2013,8,MENTONE,240,208031190,Apartment
164258,"3/2A FLORENCE STREET, MENTONE",-37.982311,145.059045,1.0,1.0,1,$230_per_week,April 2013,3194,2013,4,MENTONE,230,208031190,Apartment
164259,"1 / 2 SALMON STREET, MENTONE",-37.978751,145.062228,1.0,1.0,1,$250_per_week,February 2013,3194,2013,2,MENTONE,250,208031190,Apartment
164261,"8/35 COLLINS STREET, MENTONE",-37.979053,145.054319,2.0,1.0,1,$320_per_week,August 2013,3194,2013,8,MENTONE,320,208031190,Apartment
164263,"14/70 BEACH ROAD, MENTONE",-37.988562,145.059898,2.0,1.0,1,$320_pw,January 2013,3194,2013,1,MENTONE,320,208031190,Apartment
164264,"8 / 45 VENICE STREET, MENTONE",-37.985708,145.06118,2.0,1.0,1,$300_per_week,November 2013,3194,2013,11,MENTONE,300,208031190,Apartment
164265,"1/35 LEVANTO STREET, MENTONE",-37.978576,145.075432,2.0,1.0,3,$365_pw,October 2013,3194,2013,10,MENTONE,365,208031190,Apartment
164266,"1/35 LEVANTO STREET, MENTONE",-37.978576,145.075432,2.0,1.0,3,$365_pw,September 2013,3194,2013,9,MENTONE,365,208031190,Apartment
164267,"1/35 LEVANTO STREET, MENTONE",-37.978576,145.075432,2.0,1.0,3,$365_pw,August 2013,3194,2013,8,MENTONE,365,208031190,House
164268,"162 BALCOMBE ROAD, MENTONE",-37.980724,145.061653,3.0,1.0,2,$500_pw,December 2013,3194,2013,12,MENTONE,500,208031190,House
164269,"162 BALCOMBE ROAD, MENTONE",-37.980724,145.061653,3.0,1.0,2,$500_pw,February 2013,3194,2013,2,MENTONE,500,208031190,House
164270,"5/84 LATROBE STREET, MENTONE",-37.974858,145.062925,1.0,1.0,1,$240_per_week,April 2013,3194,2013,4,MENTONE,240,208031190,Apartment
164271,"4/53 WARRIGAL ROAD, MENTONE",-37.985406,145.070354,2.0,2.0,1,$400_per_week,July 2013,3194,2013,7,MENTONE,400,208031190,House
164272,"15/173 BALCOMBE ROAD, MENTONE",-37.98028,145.055356,1.0,1.0,1,$245_per_week,June 2013,3194,2013,6,MENTONE,245,208031190,Apartment
164273,"10/12 COLLINS STREET, MENTONE",-37.979114,145.054773,2.0,1.0,1,$295_pw,August 2013,3194,2013,8,MENTONE,295,208031190,Apartment
164276,"4/29 BOURKE STREET, MENTONE",-37.978441,145.056032,2.0,1.0,1,$345_per_week,March 2013,3194,2013,3,MENTONE,345,208031190,Apartment
164277,"58 ALLANDALE ROAD, MENTONE",-37.979973,145.090697,3.0,1.0,2,$420_per_week,February 2013,3194,2013,2,MENTONE,420,208031190,House
164278,"58 ALLANDALE ROAD, MENTONE",-37.979973,145.090697,3.0,1.0,2,$400_p.w.,February 2013,3194,2013,2,MENTONE,400,208031190,House
164280,"1 COOLABAH STREET, MENTONE",-37.982968,145.084236,3.0,1.0,1,$410_p.w.,January 2013,3194,2013,1,MENTONE,410,208031190,House
164281,"3/22 PATTY STREET, MENTONE",-37.977312,145.056972,2.0,1.0,1,$350_pw,January 2013,3194,2013,1,MENTONE,350,208031190,Apartment
164282,"2/5 SWANSTON STREET, MENTONE",-37.980722,145.065357,3.0,2.0,2,$530_per_week,June 2013,3194,2013,6,MENTONE,530,208031190,House
164283,"36/80 BALCOMBE ROAD, MENTONE",-37.9813239,145.065416,2.0,2.0,1,$380_per_week,November 2013,3194,2013,11,MENTONE,380,208031190,House
164284,"36/80 BALCOMBE ROAD, MENTONE",-37.9813239,145.065416,2.0,2.0,1,$399_per_week,September 2013,3194,2013,9,MENTONE,399,208031190,House
164285,"9/52 PLUMMER ROAD, MENTONE",-37.982348,145.05855,1.0,1.0,1,$265_pw,July 2013,3194,2013,7,MENTONE,265,208031190,Apartment
164286,"15/6 ANDERSON COURT, MENTONE",-37.978794,145.060429,1.0,1.0,1,$255_pw,September 2013,3194,2013,9,MENTONE,255,208031190,Apartment
164288,"4/33-35 CHILDERS STREET, MENTONE",-37.982793,145.070435,2.0,2.0,1,$430_per_week,May 2013,3194,2013,5,MENTONE,430,208031190,House
164294,"4383 GREAT OCEAN ROAD, MEPUNGA",-38.442309,142.704546,3.0,1.0,0,$200_per_week,June 2013,3277,2013,6,MEPUNGA,200,217041477,House
164295,"16 COWANNA SOUTH AVENUE, MERBEIN SOUTH",-34.194584,142.031484,4.0,1.0,1,$260_pw,April 2013,3505,2013,4,SOUTH,260,215021396,House
164297,"97A YELTA ROAD, MERBEIN WEST",-34.1701809,142.0246059,3.0,1.0,0,$210_per_week,July 2013,3505,2013,7,WEST,210,215021396,House
164308,"11 GREIG DRIVE, MERNDA",-37.589777,145.099407,4.0,2.0,2,$440_per_week,February 2013,3754,2013,2,MERNDA,440,209041531,House
164309,"26 HILLGROVE WAY, MERNDA",-37.5997647,145.0965625,3.0,2.0,2,$320_Weekly,July 2013,3754,2013,7,MERNDA,320,209041531,House
164314,"41 BELLINI WAY, MERNDA",-37.610723,145.089741,3.0,2.0,2,$320_per_week,May 2013,3754,2013,5,MERNDA,320,209041532,House
164315,"41 BELLINI WAY, MERNDA",-37.610723,145.089741,3.0,2.0,2,$320_per_week,April 2013,3754,2013,4,MERNDA,320,209041532,House
164318,"40 SPRAY STREET, MERRICKS BEACH",-38.397314,145.101943,3.0,1.0,0,$1200_pw,August 2013,3926,2013,8,BEACH,1200,214021379,Apartment
164319,"40 SPRAY STREET, MERRICKS BEACH",-38.397314,145.101943,3.0,1.0,0,$1200_pw,July 2013,3926,2013,7,BEACH,1200,214021379,House
164320,"81 BAYVIEW ROAD, MERRICKS BEACH",-38.398661,145.111708,2.0,1.0,1,$310_pw,March 2013,3926,2013,3,BEACH,310,214021379,Apartment
164321,"1 BLUFF ROAD, MERRICKS BEACH",-38.399725,145.104893,3.0,2.0,2,$445_pw,August 2013,3926,2013,8,BEACH,445,214021379,House
164322,"1 BLUFF ROAD, MERRICKS BEACH",-38.399725,145.104893,3.0,2.0,2,$445_pw,July 2013,3926,2013,7,BEACH,445,214021379,House
164323,"61 MERRICKS BEACH ROAD, MERRICKS BEACH",-38.398846,145.101143,4.0,2.0,0,$450_pw,June 2013,3926,2013,6,BEACH,450,214021379,House
164324,"61 MERRICKS BEACH ROAD, MERRICKS BEACH",-38.398846,145.101143,4.0,2.0,0,$450_pw,May 2013,3926,2013,5,BEACH,450,214021379,House
164325,"49 MERRICKS BEACH ROAD, MERRICKS BEACH",-38.3973,145.101525,4.0,2.0,2,$900_pw,August 2013,3926,2013,8,BEACH,900,214021379,House
164326,"49 MERRICKS BEACH ROAD, MERRICKS BEACH",-38.3973,145.101525,4.0,2.0,2,$900_pw,July 2013,3926,2013,7,BEACH,900,214021379,House
164336,"122 ERSKINE STREET, MIDDLE PARK",-37.850021,144.963697,3.0,2.0,0,$820_pw,October 2013,3206,2013,10,PARK,820,206051128,House
164337,"5/28 PATTERSON STREET, MIDDLE PARK",-37.854557,144.964909,1.0,1.0,1,$399_pw,February 2013,3206,2013,2,PARK,399,206051128,Apartment
164340,"27 WRIGHT STREET, MIDDLE PARK",-37.846915,144.960591,2.0,2.0,0,$650_pw,February 2013,3206,2013,2,PARK,650,206051128,House
164341,"27 WRIGHT STREET, MIDDLE PARK",-37.846915,144.960591,2.0,2.0,0,$650_pw,January 2013,3206,2013,1,PARK,650,206051128,House
164342,"8/267 BEACONSFIELD PARADE, MIDDLE PARK",-37.8544385,144.9628386,2.0,2.0,1,$500_pw,January 2013,3206,2013,1,PARK,500,206051128,House
164343,"9/200 BEACONSFIELD PARADE, MIDDLE PARK",-37.851917,144.957617,2.0,1.0,1,$380_per_week,December 2013,3206,2013,12,PARK,380,206051128,Apartment
164344,"1/61 CANTERBURY ROAD, MIDDLE PARK",-37.847396,144.962504,2.0,1.0,0,$355_pw,March 2013,3206,2013,3,PARK,355,206051128,Apartment
164345,"15 FRASER STREET, MIDDLE PARK",-37.8551694,144.9676324,3.0,2.0,0,$410_pw,August 2013,3206,2013,8,PARK,410,206051514,House
164346,"7/62 HAROLD STREET, MIDDLE PARK",-37.85009,144.95946,3.0,1.0,0,$550_per_week,May 2013,3206,2013,5,PARK,550,206051128,House
164347,"7/62 HAROLD STREET, MIDDLE PARK",-37.85009,144.95946,3.0,1.0,0,$580_per_week,April 2013,3206,2013,4,PARK,580,206051128,House
164348,"84/195 BEACONSFIELD PARADE, MIDDLE PARK",-37.85153,144.957384,1.0,1.0,1,$380_per_week,May 2013,3206,2013,5,PARK,380,206051128,Apartment
164351,"33 MCGREGOR STREET, MIDDLE PARK",-37.852476,144.965114,2.0,1.0,0,$480_per_week,June 2013,3206,2013,6,PARK,480,206051128,Apartment
164352,"33 MCGREGOR STREET, MIDDLE PARK",-37.852476,144.965114,2.0,1.0,0,$490_per_week,May 2013,3206,2013,5,PARK,490,206051128,Apartment
164353,"3/225 BEACONSFIELD PARADE, MIDDLE PARK",-37.85359,144.960535,2.0,2.0,1,$610_per_week,March 2013,3206,2013,3,PARK,610,206051128,House
164354,"48 ARMSTRONG STREET, MIDDLE PARK",-37.851001,144.963431,2.0,1.0,0,$650_per_week,August 2013,3206,2013,8,PARK,650,206051128,Apartment
164355,"48 ARMSTRONG STREET, MIDDLE PARK",-37.851001,144.963431,2.0,1.0,0,$650_per_week,July 2013,3206,2013,7,PARK,650,206051128,Apartment
164356,"9/82 PATTERSON STREET, MIDDLE PARK",-37.855634,144.966932,2.0,1.0,0,$460_pw,October 2013,3206,2013,10,PARK,460,206051128,Apartment
164357,"170 PAGE STREET, MIDDLE PARK",-37.850748,144.960336,3.0,2.0,2,$1175_per_week,December 2013,3206,2013,12,PARK,1175,206051128,House
164360,"17 PATTERSON STREET, MIDDLE PARK",-37.853719,144.964158,3.0,2.0,2,$850_per_week,October 2013,3206,2013,10,PARK,850,206051128,House
164361,"4/251 BEACONSFIELD PARADE, MIDDLE PARK",-37.853342,144.961071,3.0,1.0,1,$600,February 2013,3206,2013,2,PARK,600,206051128,House
164362,"45/225 BEACONSFIELD PARADE, MIDDLE PARK",-37.853032,144.9595977,2.0,2.0,1,$600_pw,April 2013,3206,2013,4,PARK,600,206051128,House
164363,"9/143 CANTERBURY ROAD, MIDDLE PARK",-37.852192,144.967816,1.0,1.0,1,$300_per_week,December 2013,3206,2013,12,PARK,300,206051128,Apartment
164364,"12 ERSKINE STREET, MIDDLE PARK",-37.847212,144.958544,2.0,1.0,1,$795_per_week,August 2013,3206,2013,8,PARK,795,206051128,Apartment
164365,"3/51 NIMMO STREET, MIDDLE PARK",-37.850501,144.962039,2.0,1.0,1,$470_per_week,November 2013,3206,2013,11,PARK,470,206051128,Apartment
164366,"10/72 PATTERSON STREET, MIDDLE PARK",-37.855462,144.966635,1.0,1.0,1,$330_pw,January 2013,3206,2013,1,PARK,330,206051128,Apartment
164367,"14/28 PATTERSON STREET, MIDDLE PARK",-37.854557,144.964909,2.0,1.0,1,$525_per_week,February 2013,3206,2013,2,PARK,525,206051128,Apartment
164368,"12/72 PATTERSON STREET, MIDDLE PARK",-37.85424,144.964316,1.0,1.0,1,$280_per_week,December 2013,3206,2013,12,PARK,280,206051128,Apartment
164369,"12/72 PATTERSON STREET, MIDDLE PARK",-37.85424,144.964316,1.0,1.0,1,$280_per_week,August 2013,3206,2013,8,PARK,280,206051128,Apartment
164370,"117 ERSKINE STREET, MIDDLE PARK",-37.84955,144.963558,3.0,2.0,1,$495_per_week,August 2013,3206,2013,8,PARK,495,206051128,House
164371,"117 ERSKINE STREET, MIDDLE PARK",-37.84955,144.963558,3.0,2.0,1,$495_per_week,January 2013,3206,2013,1,PARK,495,206051128,House
164372,"11/187 BEACONSFIELD PARADE, MIDDLE PARK",-37.8512495,144.9563761,2.0,1.0,1,$400_pw,January 2013,3206,2013,1,PARK,400,206051128,Apartment
164373,"230 RICHARDSON STREET, MIDDLE PARK",-37.848858,144.960031,2.0,1.0,0,$840_pw,June 2013,3206,2013,6,PARK,840,206051128,Apartment
164374,"22/75 PARK ROAD, MIDDLE PARK",-37.854403,144.96796,1.0,1.0,1,$375_pw,November 2013,3206,2013,11,PARK,375,206051128,Apartment
164375,"22/75 PARK ROAD, MIDDLE PARK",-37.854403,144.96796,1.0,1.0,1,$375_per_week,May 2013,3206,2013,5,PARK,375,206051128,Apartment
164376,"22/75 PARK ROAD, MIDDLE PARK",-37.854403,144.96796,1.0,1.0,1,$385_pw,April 2013,3206,2013,4,PARK,385,206051128,Apartment
164379,"326 RICHARDSON STREET, MIDDLE PARK",-37.852041,144.965831,2.0,1.0,1,$455_pw,February 2013,3206,2013,2,PARK,455,206051128,Apartment
164380,"1/5-7 HAROLD STREET, MIDDLE PARK",-37.848481,144.961644,1.0,1.0,1,$340_per_week,January 2013,3206,2013,1,PARK,340,206051128,Apartment
164383,"83/195 BEACONSFIELD PARADE, MIDDLE PARK",-37.85153,144.957384,2.0,2.0,1,$480_per_week,April 2013,3206,2013,4,PARK,480,206051128,House
164384,"83/195 BEACONSFIELD PARADE, MIDDLE PARK",-37.85153,144.957384,2.0,2.0,1,$425_per_week,April 2013,3206,2013,4,PARK,425,206051128,House
164388,"MILAWA BOBINAWARRAH RD, MILAWA",-36.4759144,146.4268577,2.0,1.0,1,$185_pw,August 2013,3678,2013,8,MILAWA,185,204021067,Apartment
164389,"4/185 MILAWA BOBINAWARRAH ROAD, MILAWA",-36.448688,146.432448,2.0,1.0,1,$185_per_week,August 2013,3678,2013,8,MILAWA,185,204021067,Apartment
164390,"421 MILAWA-BOBINAWARRAH ROAD, MILAWA",-36.4773873,146.4266275,4.0,2.0,2,$330_per_week,August 2013,3678,2013,8,MILAWA,330,204021067,House
164391,"421 MILAWA-BOBINAWARRAH ROAD, MILAWA",-36.4773873,146.4266275,4.0,2.0,2,$330_per_week,July 2013,3678,2013,7,MILAWA,330,204021067,House
164392,"421 MILAWA BOBINAWARRAH ROAD, MILAWA",-36.4773873,146.4266275,4.0,2.0,2,$330_per_week,July 2013,3678,2013,7,MILAWA,330,204021067,House
164393,"4A THIRTEENTH ST, MILDURA EAST",-34.200097,142.163322,1.0,1.0,0,$145_Weekly,January 2013,3500,2013,1,EAST,145,215021469,Apartment
164394,"4A THIRTEENTH STREET, MILDURA EAST",-34.200116,142.163296,1.0,1.0,0,$145_pw,January 2013,3500,2013,1,EAST,145,215021469,Apartment
164397,"2/267 CURETON AVENUE, MILDURA",-34.190374,142.175637,2.0,1.0,1,$350_pw,October 2013,3500,2013,10,MILDURA,350,215021469,Apartment
164410,"145 ORANGE AVENUE, MILDURA",-34.190314,142.159996,3.0,1.0,0,$240_per_week,November 2013,3500,2013,11,MILDURA,240,215021469,House
164411,"176 WALNUT AVENUE, MILDURA",-34.186143,142.151655,3.0,2.0,1,$290_per_week,October 2013,3500,2013,10,MILDURA,290,215021469,House
164412,"165A THIRTEENTH STREET, MILDURA",-34.189304,142.149661,3.0,1.0,1,$250_per_week,June 2013,3500,2013,6,MILDURA,250,215021469,House
164413,"2/487 SAN MATEO AVENUE, MILDURA",-34.21249,142.138555,3.0,2.0,2,$280_per_week,May 2013,3500,2013,5,MILDURA,280,215021470,House
164414,"140 MAGNOLIA AVENUE, MILDURA",-34.191765,142.163216,3.0,2.0,2,$280_per_week,May 2013,3500,2013,5,MILDURA,280,215021469,House
164415,"537 WALNUT AVENUE, MILDURA",-34.20245,142.13154,3.0,2.0,2,$300_pw,September 2013,3500,2013,9,MILDURA,300,215021470,House
164416,"2/168 THIRTEENTH STREET, MILDURA",-34.189094,142.150133,2.0,1.0,1,$220_per_week,June 2013,3500,2013,6,MILDURA,220,215021469,Apartment
164417,"2/168 THIRTEENTH STREET, MILDURA",-34.189094,142.150133,2.0,1.0,1,$220_per_week,April 2013,3500,2013,4,MILDURA,220,215021469,Apartment
164418,"134 ORANGE AVENUE, MILDURA",-34.190324,142.160935,3.0,2.0,2,$190_per_week,June 2013,3500,2013,6,MILDURA,190,215021469,House
164438,"1/265 TWELFTH STREET, MILDURA",-34.180731,142.142929,2.0,2.0,1,$270_pw,September 2013,3500,2013,9,MILDURA,270,215021469,House
164442,"10 VALENCIA AVENUE, MILDURA",-34.196553,142.151052,2.0,1.0,1,$180_per_week,December 2013,3500,2013,12,MILDURA,180,215021469,Apartment
164443,"10 VALENCIA AVENUE, MILDURA",-34.196553,142.151052,2.0,1.0,1,$175_per_week,March 2013,3500,2013,3,MILDURA,175,215021469,Apartment
164445,"171A EIGHTH STREET, MILDURA",-34.181585,142.158164,3.0,2.0,2,$235_per_week,February 2013,3500,2013,2,MILDURA,235,215021469,House
164447,"1 HOMEBUSH COURT, MILDURA",-34.193428,142.135766,2.0,1.0,1,$220_pw,June 2013,3500,2013,6,MILDURA,220,215021470,Apartment
164448,"1 HOMEBUSH COURT, MILDURA",-34.193428,142.135766,2.0,1.0,1,$220_per_week,January 2013,3500,2013,1,MILDURA,220,215021470,Apartment
164454,"4 BURNETT COURT, MILL PARK",-37.659915,145.062071,3.0,2.0,1,$310_pw,April 2013,3082,2013,4,PARK,310,209041220,House
164455,"57 MOCKRIDGE DRIVE, MILL PARK",-37.663534,145.054134,3.0,2.0,2,$300_Weekly,October 2013,3082,2013,10,PARK,300,209041221,House
164456,"2/25 BRADLEY DRIVE, MILL PARK",-37.656697,145.074646,3.0,1.0,2,$290_pw,September 2013,3082,2013,9,PARK,290,209041220,House
164457,"2/25 BRADLEY DRIVE, MILL PARK",-37.656697,145.074646,3.0,1.0,2,$290_pw,August 2013,3082,2013,8,PARK,290,209041220,House
164460,"23 CARBON CRESCENT, MILL PARK",-37.66325,145.039753,5.0,2.0,2,$470_Weekly,November 2013,3082,2013,11,PARK,470,209041221,House
164465,"2A MIMOSA ROAD, MILL PARK",-37.674501,145.054915,3.0,1.0,2,$340_pw,February 2013,3082,2013,2,PARK,340,209041221,House
164466,"7 DALRAY CLOSE, MILL PARK",-37.674597,145.061926,3.0,2.0,2,$360_Weekly,October 2013,3082,2013,10,PARK,360,209041221,House
164467,"51 PEUGEOT PURSUIT, MILL PARK",-37.653364,145.064218,3.0,2.0,2,$350_pw,November 2013,3082,2013,11,PARK,350,209041220,House
164474,"1/50 GOLF LINKS DRIVE, MILL PARK",-37.659878,145.048452,3.0,1.0,1,$280_per_week,May 2013,3082,2013,5,PARK,280,209041220,House
164488,"8 PATRICIA STREET, MILLGROVE",-37.745555,145.660904,3.0,2.0,2,$260_pw,April 2013,3799,2013,4,MILLGROVE,260,211051286,House
164489,"8 PATRICK STREET, MILLGROVE",-37.747237,145.660372,3.0,2.0,2,$255_pw,April 2013,3799,2013,4,MILLGROVE,255,211051286,House
164491,"17 PYTHIAS COURT, MILLGROVE",-37.758269,145.654609,3.0,1.0,0,$280_pw,September 2013,3799,2013,9,MILLGROVE,280,211051286,House
164497,"3928 HENTY HIGHWAY, MILLTOWN",-38.055398,141.693289,6.0,2.0,0,$200_per_week,August 2013,3304,2013,8,MILLTOWN,200,217011420,House
164505,"768 MORSES CREEK ROAD, WANDILIGONG",-36.792923,146.97699,4.0,3.0,2,$350_per_week,July 2013,3744,2013,7,WANDILIGONG,350,204031069,House
164513,"38 AFFLECK STREET, WANDONG",-37.360656,145.033012,3.0,1.0,2,$300_Weekly,October 2013,3758,2013,10,WANDONG,300,209041224,House
164517,"32 AFFLECK STREET, WANDONG",-37.360361,145.032367,3.0,1.0,0,$280_per_week,April 2013,3758,2013,4,WANDONG,280,209041224,House
164520,"5/33 EVANS STREET, WANGARATTA",-36.347893,146.312894,2.0,1.0,1,$195_per_week,August 2013,3677,2013,8,WANGARATTA,195,204021066,Apartment
164529,"17 RAYMOND STREET, WANGARATTA",-36.373731,146.321323,3.0,1.0,1,$260,December 2013,3677,2013,12,WANGARATTA,260,204021066,House
164530,"3/81 MURDOCH ROAD, WANGARATTA",-36.369955,146.323462,2.0,1.0,1,$200_per_week,August 2013,3677,2013,8,WANGARATTA,200,204021066,Apartment
164531,"34 MURDOCH ROAD, WANGARATTA",-36.365435,146.3237763,2.0,1.0,1,$220_per_week,May 2013,3677,2013,5,WANGARATTA,220,204021066,House
164534,"2/20-22 MEDOWRA AVENUE, WANGARATTA",-36.357446,146.306496,2.0,1.0,1,$170_per_week,February 2013,3677,2013,2,WANGARATTA,170,204021066,Apartment
164537,"141 BURKE STREET, WANGARATTA",-36.375582,146.311299,2.0,1.0,3,$210_p.w.,March 2013,3677,2013,3,WANGARATTA,210,204021066,House
164538,"7/36 OVENS STREET, WANGARATTA",-36.356681,146.321379,1.0,1.0,1,$190_per_week,April 2013,3677,2013,4,WANGARATTA,190,204021066,Apartment
164542,"34 COLLYNDALE DRIVE, WANGARATTA",-36.344016,146.297687,4.0,2.0,2,$350_per_week,June 2013,3677,2013,6,WANGARATTA,350,204021066,House
164543,"5 / 115 SWAN STREET, WANGARATTA",-36.359832,146.30837,2.0,1.0,1,$170_per_week,November 2013,3677,2013,11,WANGARATTA,170,204021066,Apartment
164544,"2/13 THOMSON STREET, WANGARATTA",-36.368739,146.318901,2.0,1.0,1,$155_per_week,February 2013,3677,2013,2,WANGARATTA,155,204021066,Apartment
164545,"6/32 OVENS STREET, WANGARATTA",-36.356898,146.321031,1.0,1.0,1,$170_per_week,April 2013,3677,2013,4,WANGARATTA,170,204021066,Apartment
164546,"2 / 40 GREEN STREET, WANGARATTA",-36.352979,146.315376,2.0,1.0,1,$145_p.w.,September 2013,3677,2013,9,WANGARATTA,145,204021066,Apartment
164547,"2 / 40 GREEN STREET, WANGARATTA",-36.352979,146.315376,2.0,1.0,1,$145_pw,August 2013,3677,2013,8,WANGARATTA,145,204021066,Apartment
164548,"3 / 40 GREEN STREET, WANGARATTA",-36.352979,146.315376,2.0,1.0,1,$130_pw,May 2013,3677,2013,5,WANGARATTA,130,204021066,House
164549,"42 PHILLIPSON STREET, WANGARATTA",-36.355767,146.304917,3.0,1.0,2,$260_per_week,September 2013,3677,2013,9,WANGARATTA,260,204021066,House
164550,"760 HOPKINS FALLS ROAD, WANGOOM",-38.331343,142.6193907,5.0,2.0,2,$240_Weekly,July 2013,3279,2013,7,WANGOOM,240,217041477,House
164552,"14 MATLOCK ROAD, WANTIRNA SOUTH",-37.858779,145.251664,3.0,1.0,2,$320_per_week,April 2013,3152,2013,4,SOUTH,320,211011260,House
164562,"3 APLIN PLACE, WANTIRNA SOUTH",-37.885394,145.22238,4.0,2.0,2,$515_per_week,June 2013,3152,2013,6,SOUTH,515,211011260,House
164564,"32/3 ASHLEY STREET, WANTIRNA",-37.845945,145.225851,2.0,2.0,2,$330_pw,September 2013,3152,2013,9,WANTIRNA,330,211011259,House
164565,"14/745 BORONIA ROAD, WANTIRNA",-37.8465843,145.2226802,3.0,2.0,1,$370_pw,March 2013,3152,2013,3,WANTIRNA,370,211011259,House
164579,"106 MILPERA CRESCENT, WANTIRNA",-37.858361,145.218404,4.0,2.0,2,$440_pw,October 2013,3152,2013,10,WANTIRNA,440,211011259,House
164582,"2/265 WANTIRNA ROAD, WANTIRNA",-37.8405456,145.227586,2.0,1.0,1,$300_per_week,July 2013,3152,2013,7,WANTIRNA,300,211011259,Apartment
164593,"48 RUTHERFORD PARADE, WARNEET",-38.223649,145.307633,2.0,1.0,2,$270_pw,November 2013,3980,2013,11,WARNEET,270,212031308,Apartment
164594,"48 RUTHERFORD PARADE, WARNEET",-38.223649,145.307633,2.0,1.0,2,$270_pw,August 2013,3980,2013,8,WARNEET,270,212031308,House
164595,"6 BANKS STREET, WARNEET",-38.225168,145.307205,2.0,1.0,0,$210_pw,April 2013,3980,2013,4,WARNEET,210,212031308,Apartment
164597,"46A MOLYNEAUX STREET, WARRACKNABEAL",-36.252546,142.397495,3.0,1.0,2,$190_pw,September 2013,3393,2013,9,WARRACKNABEAL,190,215011394,House
164599,"181 SCOTT STREET, WARRACKNABEAL",-36.254197,142.395463,4.0,1.0,3,$210_per_week,November 2013,3393,2013,11,WARRACKNABEAL,210,215011394,House
164613,"4/4 CHURCHILL STREET, WARRAGUL",-38.1511811,145.9391954,2.0,1.0,1,$170_p.w.,February 2013,3820,2013,2,WARRAGUL,170,205011079,Apartment
164623,"53 HARRIS GULLY ROAD, WARRANDYTE",-37.753441,145.208222,4.0,3.0,5,$420_-_$450_per_week,January 2013,3113,2013,1,WARRANDYTE,450,211021262,House
164625,"182 WONGA ROAD, WARRANWOOD",-37.780166,145.249549,3.0,2.0,2,$532_pw,September 2013,3134,2013,9,WARRANWOOD,532,211031265,House
164626,"182 WONGA ROAD, WARRANWOOD",-37.780166,145.249549,3.0,2.0,2,$580_pw,June 2013,3134,2013,6,WARRANWOOD,580,211031265,House
164627,"6 PENSHURST PLACE, WARRANWOOD",-37.770081,145.25229,3.0,2.0,1,$390_pw,April 2013,3134,2013,4,WARRANWOOD,390,211031265,House
164628,"6 PENSHURST PLACE, WARRANWOOD",-37.770081,145.25229,3.0,2.0,1,$390_pw,March 2013,3134,2013,3,WARRANWOOD,390,211031265,House
164630,"309 BENALLA WARRENBAYNE ROAD, WARRENBAYNE",-36.6063747,145.9074283,5.0,2.0,2,$450_pw,February 2013,3670,2013,2,WARRENBAYNE,450,204021064,House
164634,"400 TI-TREE ROAD, WARRENHEIP",-37.583319,143.934879,4.0,1.0,2,$375_Weekly,January 2013,3352,2013,1,WARRENHEIP,375,201011481,House
164636,"8 BELMORE RD, WARRNAMBOOL EAST",-38.392187,142.504323,4.0,1.0,1,$300_Weekly,March 2013,3280,2013,3,EAST,300,217041480,House
164637,"5 ALSTON COURT, WARRNAMBOOL",-38.369766,142.473061,3.0,2.0,2,$350_Weekly,December 2013,3280,2013,12,WARRNAMBOOL,350,217041479,House
164638,"8 CLEVELAND STREET, WARRNAMBOOL",-38.3586367,142.5068036,4.0,2.0,2,$460_p.w.,April 2013,3280,2013,4,WARRNAMBOOL,460,217041479,House
164639,"4 ROWLEY STREET, WARRNAMBOOL",-38.375067,142.499504,3.0,1.0,1,$320_pw,April 2013,3280,2013,4,WARRNAMBOOL,320,217041479,House
164640,"3/2 LIVINGSTON COURT, WARRNAMBOOL",-38.372032,142.490952,2.0,1.0,2,$200_pw,December 2013,3280,2013,12,WARRNAMBOOL,200,217041479,Apartment
164644,"1/5 NELSON STREET, WARRNAMBOOL",-38.378095,142.492039,1.0,1.0,1,$145_p.w.,April 2013,3280,2013,4,WARRNAMBOOL,145,217041479,Apartment
164646,"17 CLANCEY CRT, WARRNAMBOOL",-38.37021,142.465959,3.0,1.0,2,$320_p.w.,March 2013,3280,2013,3,WARRNAMBOOL,320,217041480,House
164649,"23 MORRISS ROAD, WARRNAMBOOL",-38.368615,142.463551,3.0,1.0,2,$260_Weekly,November 2013,3280,2013,11,WARRNAMBOOL,260,217041480,House
164650,"23 MORRISS ROAD, WARRNAMBOOL",-38.368615,142.463551,3.0,1.0,2,$260_Weekly,May 2013,3280,2013,5,WARRNAMBOOL,260,217041480,House
164651,"23 MORRISS ROAD, WARRNAMBOOL",-38.368615,142.463551,3.0,1.0,2,$290_Weekly,March 2013,3280,2013,3,WARRNAMBOOL,290,217041480,House
164653,"11 HOBAN STREET, WATCHEM",-36.146331,142.861031,2.0,1.0,2,$130_per_week,March 2013,3482,2013,3,WATCHEM,130,215031400,Apartment
164654,"11 HOBAN STREET, WATCHEM",-36.146331,142.861031,2.0,1.0,2,$130_per_week,February 2013,3482,2013,2,WATCHEM,130,215031400,Apartment
164655,"6 ELIZABETH COURT, WATERFORD PARK",-37.301767,145.066365,3.0,1.0,0,$205_per_week,March 2013,3658,2013,3,PARK,205,209041224,House
164656,"88 WOODLANDS BLVD, WATERFORD",-37.516238,147.201491,4.0,2.0,2,$410_Weekly,July 2013,3862,2013,7,WATERFORD,410,205021082,House
164657,"13 JUBILEE BOULEVARD, WATERWAYS",-38.016403198242,145.123321533203,3.0,2.0,2,$460_per_week,September 2013,3195,2013,9,WATERWAYS,460,208031183,House
164658,"13 JUBILEE BOULEVARD, WATERWAYS",-38.016403198242,145.123321533203,3.0,2.0,2,$500_per_week,May 2013,3195,2013,5,WATERWAYS,500,208031183,House
164663,"74 SELLARS STREET, WATSONIA NORTH",-37.697276,145.090541,4.0,2.0,2,$380_Weekly,September 2013,3087,2013,9,NORTH,380,209011204,House
164664,"74 SELLARS STREET, WATSONIA NORTH",-37.697276,145.090541,4.0,2.0,2,$400_per_week,September 2013,3087,2013,9,NORTH,400,209011204,House
164678,"2 CHURCH STREET, GIRGARRE",-36.397921,144.977917,3.0,1.0,1,$200_per_week,May 2013,3624,2013,5,GIRGARRE,200,216011410,House
164679,"79 BERRIE ROAD, GISBORNE SOUTH",-37.548655,144.646863,3.0,1.0,0,$270_per_week,August 2013,3437,2013,8,SOUTH,270,210021232,House
164680,"23 BENSON ROAD, GISBORNE SOUTH",-37.541477,144.607353,3.0,1.0,1,$450_per_week,February 2013,3437,2013,2,SOUTH,450,210021232,House
164681,"49 GLENHAVEN COURT, GISBORNE SOUTH",-37.516347,144.601446,4.0,2.0,2,$650_per_week,February 2013,3437,2013,2,SOUTH,650,210021232,House
164683,"5/6 FRANCIS CRESCENT, GISBORNE",-37.501492,144.596075,2.0,1.0,1,$320_per_week,October 2013,3437,2013,10,GISBORNE,320,210021232,Apartment
164686,"19 STATION ROAD, GISBORNE",-37.48233,144.591432,3.0,1.0,3,$300_pw,September 2013,3437,2013,9,GISBORNE,300,210021232,House
164687,"10/6-8 RODNEY STREET, GISBORNE",-37.49146,144.595589,2.0,1.0,1,$295_pw,January 2013,3437,2013,1,GISBORNE,295,210021232,Apartment
164688,"12 MCKIM ROAD, GISBORNE",-37.477794,144.599099,4.0,2.0,2,$360_pw,June 2013,3437,2013,6,GISBORNE,360,210021232,House
164689,"6/26 GOODE STREET, GISBORNE",-37.487929,144.585792,2.0,2.0,1,$300_per_week,May 2013,3437,2013,5,GISBORNE,300,210021232,House
164690,"6/26 GOODE STREET, GISBORNE",-37.487929,144.585792,2.0,2.0,1,$300_per_week,April 2013,3437,2013,4,GISBORNE,300,210021232,House
164691,"44 BURNLEIGH DRIVE, GLADSTONE PARK",-37.692938,144.892083,4.0,1.0,1,$330_per_week,April 2013,3043,2013,4,PARK,330,210051245,House
164694,"9 SUTTON CLOSE, GLADSTONE PARK",-37.6909998,144.8850615,3.0,1.0,1,$360_per_week,April 2013,3043,2013,4,PARK,360,210051245,House
164708,"KORRINE ROAD, GLEN ALVIE",-38.5146347,145.6425315,4.0,2.0,1,$300_pw,May 2013,3979,2013,5,ALVIE,300,205031093,House
164709,"32 EDEN ROAD, GLEN FORBES",-38.468387,145.534117,3.0,1.0,2,$300_pw,July 2013,3990,2013,7,FORBES,300,205031093,House
164711,"2/8 ROSEDALE AVENUE, GLEN HUNTLY",-37.891087,145.043896,1.0,1.0,1,$250_per_week,March 2013,3163,2013,3,HUNTLY,250,208021182,Apartment
164712,"6/8 WARATAH AVENUE, GLEN HUNTLY",-37.892039,145.043672,2.0,1.0,1,$350_per_week,May 2013,3163,2013,5,HUNTLY,350,208021182,Apartment
164713,"6/8 WARATAH AVENUE, GLEN HUNTLY",-37.892039,145.043672,2.0,1.0,1,$350_per_week,March 2013,3163,2013,3,HUNTLY,350,208021182,Apartment
164716,"13/2 ROSEDALE AVENUE, GLEN HUNTLY",-37.890842,145.043169,1.0,1.0,1,$275_per_week,September 2013,3163,2013,9,HUNTLY,275,208021182,Apartment
164717,"13/2 ROSEDALE AVENUE, GLEN HUNTLY",-37.890842,145.043169,1.0,1.0,1,$280_per_week,July 2013,3163,2013,7,HUNTLY,280,208021182,Apartment
164718,"2/11 ROTHSCHILD STREET, GLEN HUNTLY",-37.890577,145.03815,2.0,1.0,1,$330_per_week,March 2013,3163,2013,3,HUNTLY,330,208021182,Apartment
164719,"8/15 WARATAH AVENUE, GLEN HUNTLY",-37.891661,145.042483,1.0,1.0,1,$262_pw,May 2013,3163,2013,5,HUNTLY,262,208021182,Apartment
164720,"167/115 NEERIM ROAD, GLEN HUNTLY",-37.886764,145.042038,2.0,1.0,1,$420_per_week,December 2013,3163,2013,12,HUNTLY,420,208021182,Apartment
164721,"3 / 1017 GLEN HUNTLY ROAD, GLEN HUNTLY",-37.8893318,145.0414672,2.0,1.0,2,$370_per_week,February 2013,3163,2013,2,HUNTLY,370,208021182,Apartment
164722,"7/123 GRANGE ROAD, GLEN HUNTLY",-37.890364,145.044944,1.0,1.0,2,$262_pw,July 2013,3163,2013,7,HUNTLY,262,208021182,Apartment
164723,"5/12 MAROONA ROAD, GLEN HUNTLY",-37.888887,145.04761,2.0,1.0,1,$345,October 2013,3163,2013,10,HUNTLY,345,208021176,Apartment
164725,"3/28 ROYAL AVENUE, GLEN HUNTLY",-37.893857,145.042092,2.0,2.0,1,$400_per_week,June 2013,3163,2013,6,HUNTLY,400,208021182,House
164726,"3/28 ROYAL AVENUE, GLEN HUNTLY",-37.893857,145.042092,2.0,2.0,1,$400_per_week,May 2013,3163,2013,5,HUNTLY,400,208021182,House
164727,"3/28 ROYAL AVENUE, GLEN HUNTLY",-37.893857,145.042092,2.0,2.0,1,$400_per_week,April 2013,3163,2013,4,HUNTLY,400,208021182,House
164728,"3/15 MACKAY AVENUE, GLEN HUNTLY",-37.897025,145.044063,2.0,1.0,1,$360_pw,August 2013,3163,2013,8,HUNTLY,360,208021182,Apartment
164729,"2/17 PARK AVENUE, GLEN HUNTLY",-37.895694,145.044542,2.0,1.0,1,$370_per_week,February 2013,3163,2013,2,HUNTLY,370,208021182,Apartment
164730,"2/17 PARK AVENUE, GLEN HUNTLY",-37.895694,145.044542,2.0,1.0,1,$380_per_week,February 2013,3163,2013,2,HUNTLY,380,208021182,Apartment
164731,"14/1110 GLENHUNTLY ROAD, GLEN HUNTLY",-37.889449,145.040298,2.0,1.0,1,$370_pw,January 2013,3163,2013,1,HUNTLY,370,208021182,Apartment
164732,"2/142 BOORAN ROAD, GLEN HUNTLY",-37.891969,145.037461,2.0,2.0,1,$575_per_week,May 2013,3163,2013,5,HUNTLY,575,208021182,House
164733,"4/14 JAMES STREET, GLEN HUNTLY",-37.890733,145.040679,3.0,1.0,1,$495_per_week,January 2013,3163,2013,1,HUNTLY,495,208021182,House
164734,"4/22 ROSEBERRY GROVE, GLEN HUNTLY",-37.88731,145.039976,2.0,1.0,1,$335_per_week,November 2013,3163,2013,11,HUNTLY,335,208021182,Apartment
164736,"6/187 GRANGE ROAD, GLEN HUNTLY",-37.8948751,145.0456244,2.0,1.0,1,$350_per_week,November 2013,3163,2013,11,HUNTLY,350,208021182,Apartment
164737,"5/97 NEERIM ROAD, GLEN HUNTLY",-37.886743,145.040594,2.0,1.0,1,$340_per_week,April 2013,3163,2013,4,HUNTLY,340,208021182,Apartment
164738,"5/97 NEERIM ROAD, GLEN HUNTLY",-37.886743,145.040594,2.0,1.0,1,$340_per_week,March 2013,3163,2013,3,HUNTLY,340,208021182,Apartment
164739,"3/16 ROYAL AVENUE, GLEN HUNTLY",-37.891358,145.04228,2.0,1.0,1,$340_pw,January 2013,3163,2013,1,HUNTLY,340,208021182,Apartment
164740,"15/4 ROSEDALE AVENUE, GLEN HUNTLY",-37.891027,145.043399,1.0,1.0,1,$257_pw,January 2013,3163,2013,1,HUNTLY,257,208021182,Apartment
164741,"51/1501 MALVERN ROAD, GLEN IRIS",-37.852892,145.044382,1.0,1.0,1,$320_pw,February 2013,3146,2013,2,IRIS,320,208041194,Apartment
164742,"22 ELLIS ROAD, GLEN IRIS",-37.86,145.046815,4.0,2.0,2,$700_per_week,April 2013,3146,2013,4,IRIS,700,208041194,House
164744,"1/22 BRIXTON RISE, GLEN IRIS",-37.858998,145.059877,1.0,1.0,1,$270_per_week,August 2013,3146,2013,8,IRIS,270,208041194,Apartment
164747,"102 VALLEY PARADE, GLEN IRIS",-37.852303,145.067499,2.0,1.0,1,$380_pw,March 2013,3146,2013,3,IRIS,380,207011150,Apartment
164748,"4/1705 MALVERN ROAD, GLEN IRIS",-37.8584051,145.0560896,1.0,1.0,1,$391_pw,February 2013,3146,2013,2,IRIS,391,208041194,Apartment
164749,"7/19 CLYDE STREET, GLEN IRIS",-37.86202,145.049581,2.0,1.0,1,$295_per_week,December 2013,3146,2013,12,IRIS,295,208041194,Apartment
164750,"5/15 BELMONT AVENUE, GLEN IRIS",-37.857064,145.047995,1.0,1.0,1,$310_pw,February 2013,3146,2013,2,IRIS,310,208041194,Apartment
164753,"5/68 ERICA AVENUE, GLEN IRIS",-37.859557,145.0482,2.0,1.0,1,$310_per_week,February 2013,3146,2013,2,IRIS,310,208041194,Apartment
164754,"2/76 MARTIN ROAD, GLEN IRIS",-37.851987,145.058529,2.0,1.0,1,$415_per_week,December 2013,3146,2013,12,IRIS,415,207011150,Apartment
164755,"2/76 MARTIN ROAD, GLEN IRIS",-37.851987,145.058529,2.0,1.0,1,$415_per_week,November 2013,3146,2013,11,IRIS,415,207011150,Apartment
164756,"8 ALLAVILLE AVENUE, GLEN IRIS",-37.849986,145.047762,3.0,2.0,3,$925_pw,September 2013,3146,2013,9,IRIS,925,208041194,House
164757,"10/69 EDGAR STREET NORTH, GLEN IRIS",-37.850022,145.046113,2.0,1.0,0,$375_per_week,August 2013,3146,2013,8,IRIS,375,208041194,Apartment
164758,"10/69 EDGAR STREET NORTH, GLEN IRIS",-37.850022,145.046113,2.0,1.0,0,$375_per_week,July 2013,3146,2013,7,IRIS,375,208041194,Apartment
164759,"10/69 EDGAR STREET NORTH, GLEN IRIS",-37.850022,145.046113,2.0,1.0,0,$385_per_week,July 2013,3146,2013,7,IRIS,385,208041194,Apartment
164760,"10/69 EDGAR STREET NORTH, GLEN IRIS",-37.850022,145.046113,2.0,1.0,0,$390_per_week,July 2013,3146,2013,7,IRIS,390,208041194,Apartment
164761,"803/770D TOORAK ROAD, GLEN IRIS",-37.846562,145.0469112,2.0,1.0,1,$480_pw,February 2013,3146,2013,2,IRIS,480,207011150,Apartment
164762,"21 RIX STREET, GLEN IRIS",-37.846888,145.051886,2.0,1.0,1,$485_pw,April 2013,3146,2013,4,IRIS,485,207011150,Apartment
164763,"9/39 OSBORNE AVENUE, GLEN IRIS",-37.854935,145.046966,1.0,1.0,1,$280_pw,June 2013,3146,2013,6,IRIS,280,208041194,Apartment
164764,"2/15 DICKENS STREET, GLEN IRIS",-37.848568,145.070208,3.0,1.0,2,$595,December 2013,3146,2013,12,IRIS,595,207011150,House
164766,"1/19 MAVERSTON STREET, GLEN IRIS",-37.851759,145.079557,2.0,1.0,3,$375_per_week,April 2013,3146,2013,4,IRIS,375,207011150,Apartment
164767,"1/19 MAVERSTON STREET, GLEN IRIS",-37.851759,145.079557,2.0,1.0,3,$400_per_week,April 2013,3146,2013,4,IRIS,400,207011150,Apartment
164768,"1/19 MAVERSTON STREET, GLEN IRIS",-37.851759,145.079557,2.0,1.0,3,$400_per_week,March 2013,3146,2013,3,IRIS,400,207011150,Apartment
164769,"4/46 MAITLAND STREET, GLEN IRIS",-37.855073,145.0432,3.0,1.0,1,$450_per_week,July 2013,3146,2013,7,IRIS,450,208041194,House
164770,"603/770D TOORAK ROAD, GLEN IRIS",-37.846562,145.0469112,2.0,1.0,1,$450_pw,May 2013,3146,2013,5,IRIS,450,207011150,Apartment
164771,"9/32 EDGAR STREET, GLEN IRIS",-37.855204,145.045635,2.0,1.0,1,$350_pw,September 2013,3146,2013,9,IRIS,350,208041194,Apartment
164772,"9/32 EDGAR STREET, GLEN IRIS",-37.855204,145.045635,2.0,1.0,1,$350_pw,August 2013,3146,2013,8,IRIS,350,208041194,Apartment
164773,"9/32 EDGAR STREET, GLEN IRIS",-37.855204,145.045635,2.0,1.0,1,$370_pw,July 2013,3146,2013,7,IRIS,370,208041194,Apartment
164774,"7/24 BRIXTON RISE, GLEN IRIS",-37.858843,145.059634,1.0,1.0,1,$275_pw,February 2013,3146,2013,2,IRIS,275,208041194,Apartment
164775,"3/43 CARROLL CRESCENT, GLEN IRIS",-37.851441,145.047474,1.0,1.0,1,$290_per_week,February 2013,3146,2013,2,IRIS,290,208041194,Apartment
164776,"3/43 CARROLL CRESCENT, GLEN IRIS",-37.851441,145.047474,1.0,1.0,1,$315_per_week,January 2013,3146,2013,1,IRIS,315,208041194,Apartment
164778,"11/11 BELMONT AVENUE, GLEN IRIS",-37.85782,145.04799,1.0,1.0,1,$240_per_week,April 2013,3146,2013,4,IRIS,240,208041194,Apartment
164779,"2/3 MILLS STREET, GLEN IRIS",-37.849508,145.082836,3.0,2.0,2,$550,December 2013,3146,2013,12,IRIS,550,207011150,House
164783,"6/40 OSBORNE AVENUE, GLEN IRIS",-37.854567,145.047562,2.0,1.0,1,$360_per_week,October 2013,3146,2013,10,IRIS,360,208041194,Apartment
164784,"5/23 NETHERLEE STREET, GLEN IRIS",-37.86124,145.05061,2.0,1.0,1,$350_per_week,August 2013,3146,2013,8,IRIS,350,208041194,Apartment
164785,"15 WEBB STREET, GLEN IRIS",-37.848619,145.067073,3.0,1.0,2,$430_pw,September 2013,3146,2013,9,IRIS,430,207011150,House
164788,"12/37 OSBORNE AVENUE, GLEN IRIS",-37.855063,145.046941,1.0,1.0,1,$260_-_$1130_pw,August 2013,3146,2013,8,IRIS,1130,208041194,Apartment
164790,"9/6 OSBORNE AVENUE, GLEN IRIS",-37.8578,145.046737,2.0,1.0,1,$340_per_week,August 2013,3146,2013,8,IRIS,340,208041194,Apartment
164791,"7 TAWONGA COURT, GLEN WAVERLEY",-37.868192,145.152902,3.0,2.0,2,$400_pw,November 2013,3150,2013,11,WAVERLEY,400,212051322,House
164792,"7 TAWONGA COURT, GLEN WAVERLEY",-37.868192,145.152902,3.0,2.0,2,$400_pw,October 2013,3150,2013,10,WAVERLEY,400,212051322,House
164793,"7 TAWONGA COURT, GLEN WAVERLEY",-37.868192,145.152902,3.0,2.0,2,$400_pw,April 2013,3150,2013,4,WAVERLEY,400,212051322,House
164795,"13 THOMPSON STREET, GLEN WAVERLEY",-37.867436,145.170246,3.0,1.0,2,$375_p.w.,June 2013,3150,2013,6,WAVERLEY,375,212051321,House
164802,"839 HIGH STREET ROAD, GLEN WAVERLEY",-37.874321,145.169842,3.0,2.0,1,$390_per_week,October 2013,3150,2013,10,WAVERLEY,390,212051321,House
164803,"839 HIGH STREET ROAD, GLEN WAVERLEY",-37.874321,145.169842,3.0,2.0,1,$420_pw,May 2013,3150,2013,5,WAVERLEY,420,212051321,House
164804,"839 HIGH STREET ROAD, GLEN WAVERLEY",-37.874321,145.169842,3.0,2.0,1,$420_Weekly,April 2013,3150,2013,4,WAVERLEY,420,212051321,House
164806,"1/1 BROWNING DRIVE, GLEN WAVERLEY",-37.8647007,145.1752388,2.0,1.0,1,$370_p.w.,July 2013,3150,2013,7,WAVERLEY,370,212051321,Apartment
164835,"2/22 GARRISSON DRIVE, GLEN WAVERLEY",-37.879004,145.174557,2.0,1.0,1,$375_per_week,December 2013,3150,2013,12,WAVERLEY,375,212051321,Apartment
164836,"2/22 GARRISSON DRIVE, GLEN WAVERLEY",-37.879004,145.174557,2.0,1.0,1,$375_per_week,January 2013,3150,2013,1,WAVERLEY,375,212051321,Apartment
164841,"2/3 WOODLEA DRIVE, GLEN WAVERLEY",-37.900577,145.157803,3.0,2.0,1,$430_pw,August 2013,3150,2013,8,WAVERLEY,430,212051322,House
164849,"3 VINE COURT, GLEN WAVERLEY",-37.883298,145.182509,3.0,2.0,4,$420_pw,August 2013,3150,2013,8,WAVERLEY,420,212051321,House
164850,"360 THE BRIDAL TRACK, GLENAROUA",-37.036421,144.950334,3.0,1.0,0,$350_per_week,May 2013,3764,2013,5,GLENAROUA,350,204011060,House
164851,"360 THE BRIDLE TRACK, GLENAROUA",-37.091334,144.991296,4.0,3.0,3,$380_pw,April 2013,3764,2013,4,GLENAROUA,380,204011060,House
164853,"820 BREAK O'DAY ROAD, GLENBURN",-37.381102,145.357668,3.0,1.0,1,$330_per_week,October 2013,3717,2013,10,GLENBURN,330,204011062,House
164854,"820 BREAK O'DAY ROAD, GLENBURN",-37.381102,145.357668,3.0,1.0,1,$330_per_week,September 2013,3717,2013,9,GLENBURN,330,204011062,House
164855,"820 BREAK O DAY ROAD, GLENBURN",-37.405891418457,145.453720092773,3.0,3.0,0,$330_per_week,April 2013,3717,2013,4,GLENBURN,330,204011062,House
164859,"3/9 ACACIA STREET, BENDIGO",-36.755722,144.271259,3.0,2.0,1,$430_pw,February 2013,3550,2013,2,BENDIGO,430,202011018,House
164861,"885 BENGWORDEN ROAD, BENGWORDEN",-37.926911,147.545657,1.0,3.0,1,$340,July 2013,3875,2013,7,BENGWORDEN,340,205021086,House
164862,"885 BENGWORDEN ROAD, BENGWORDEN",-37.926911,147.545657,1.0,3.0,1,$320,July 2013,3875,2013,7,BENGWORDEN,320,205021086,House
164863,"630 AITKENS, BENGWORDEN",-38.012793,147.4854,1.0,3.0,0,$800,September 2013,3875,2013,9,BENGWORDEN,800,205021086,Apartment
164864,"123 TAMBET STREET, BENTLEIGH EAST",-37.908844,145.072481,3.0,1.0,1,$375_per_week,May 2013,3165,2013,5,EAST,375,208021426,House
164865,"123 TAMBET STREET, BENTLEIGH EAST",-37.908844,145.072481,3.0,1.0,1,$375_per_week,April 2013,3165,2013,4,EAST,375,208021426,House
164866,"123 TAMBET STREET, BENTLEIGH EAST",-37.908844,145.072481,3.0,1.0,1,$375_per_week,March 2013,3165,2013,3,EAST,375,208021426,House
164868,"5A MIAMI COURT, BENTLEIGH EAST",-37.922115,145.080671,3.0,1.0,1,$365_pw,February 2013,3165,2013,2,EAST,365,208021426,House
164869,"1/23-25 CHARLES STREET, BENTLEIGH EAST",-37.917226,145.05554,2.0,1.0,1,$350_per_week,March 2013,3165,2013,3,EAST,350,208021426,Apartment
164870,"8A CARINYA ROAD, BENTLEIGH EAST",-37.921844,145.078186,3.0,2.0,3,$580_Weekly,December 2013,3165,2013,12,EAST,580,208021426,House
164871,"8A CARINYA ROAD, BENTLEIGH EAST",-37.921844,145.078186,3.0,2.0,3,$580_p.w.,November 2013,3165,2013,11,EAST,580,208021426,House
164875,"2/41 EAST BOUNDARY ROAD, BENTLEIGH EAST",-37.931576,145.056226,3.0,1.0,1,$390_pw,March 2013,3165,2013,3,EAST,390,208021427,House
164876,"1/9A ARGYLE STREET, BENTLEIGH EAST",-37.91064453,145.07124329,2.0,1.0,1,$340_pw,February 2013,3165,2013,2,EAST,340,208021426,Apartment
164882,"2B HUON GROVE, BENTLEIGH EAST",-37.9287827,145.0724203,1.0,1.0,1,$275_per_week,May 2013,3165,2013,5,EAST,275,208021427,Apartment
164884,"14 ROWLAND STREET, BENTLEIGH EAST",-37.934546,145.059897,2.0,1.0,1,$380_pw,March 2013,3165,2013,3,EAST,380,208021427,Apartment
164885,"64 MAWBY ROAD, BENTLEIGH EAST",-37.92962,145.055771,4.0,2.0,2,$600_Weekly,October 2013,3165,2013,10,EAST,600,208021427,House
164886,"12 CARINYA ROAD, BENTLEIGH EAST",-37.921553,145.078111,3.0,1.0,2,$480_per_week,August 2013,3165,2013,8,EAST,480,208021426,House
164889,"18 LILAC STREET, BENTLEIGH EAST",-37.917745,145.057551,4.0,3.0,2,$365_per_week,July 2013,3165,2013,7,EAST,365,208021426,House
164890,"2 / 27 POET ROAD, BENTLEIGH EAST",-37.910614,145.073811,2.0,1.0,1,$370_per_week,October 2013,3165,2013,10,EAST,370,208021426,Apartment
164892,"2/19 GRAY STREET, BENTLEIGH EAST",-37.920506,145.052804,2.0,1.0,1,$370_per_week,October 2013,3165,2013,10,EAST,370,208021427,Apartment
164893,"4 / 20 VICKERY STREET, BENTLEIGH",-37.916501,145.039396,2.0,1.0,1,$300_Weekly,January 2013,3204,2013,1,BENTLEIGH,300,208021174,Apartment
164894,"1/7-9 SOUTH AVENUE, BENTLEIGH",-37.93121,145.034818,2.0,1.0,1,$350_pw,March 2013,3204,2013,3,BENTLEIGH,350,208021174,Apartment
164895,"1/7-9 SOUTH AVENUE, BENTLEIGH",-37.93121,145.034818,2.0,1.0,1,$355_pw,February 2013,3204,2013,2,BENTLEIGH,355,208021174,Apartment
164896,"1/7 BRENTWOOD STREET, BENTLEIGH",-37.933218,145.044503,2.0,1.0,1,$265_pw,August 2013,3204,2013,8,BENTLEIGH,265,208021174,Apartment
164897,"5/80 ROBERT STREET, BENTLEIGH",-37.919798,145.040559,2.0,1.0,1,$350_per_week,September 2013,3204,2013,9,BENTLEIGH,350,208021174,Apartment
164898,"5/80 ROBERT STREET, BENTLEIGH",-37.919798,145.040559,2.0,1.0,1,$350_pw,August 2013,3204,2013,8,BENTLEIGH,350,208021174,Apartment
164899,"64 RAILWAY CRESCENT, BENTLEIGH",-37.926024,145.035754,2.0,2.0,1,$395_pw,February 2013,3204,2013,2,BENTLEIGH,395,208021174,House
164900,"64 RAILWAY CRESCENT, BENTLEIGH",-37.926024,145.035754,2.0,2.0,1,$395_pw,January 2013,3204,2013,1,BENTLEIGH,395,208021174,House
164901,"4 / 8 DULCIE GROVE, BENTLEIGH",-37.933316,145.045502,2.0,1.0,1,$310_pw,November 2013,3204,2013,11,BENTLEIGH,310,208021174,Apartment
164902,"4 / 8 DULCIE GROVE, BENTLEIGH",-37.933316,145.045502,2.0,1.0,1,$310_per_week,October 2013,3204,2013,10,BENTLEIGH,310,208021174,Apartment
164903,"8 / 12 CUSHING AVENUE, BENTLEIGH",-37.918002,145.045304,2.0,1.0,1,$310_per_week,June 2013,3204,2013,6,BENTLEIGH,310,208021174,Apartment
164904,"8 / 12 CUSHING AVENUE, BENTLEIGH",-37.918002,145.045304,2.0,1.0,1,$310_per_week,May 2013,3204,2013,5,BENTLEIGH,310,208021174,Apartment
164911,"10/2-4 FAULKNER STREET, BENTLEIGH",-37.932558,145.037865,3.0,2.0,2,$620,April 2013,3204,2013,4,BENTLEIGH,620,208021174,House
164912,"7/114-120 PATTERSON ROAD, BENTLEIGH",-37.925877,145.036126,2.0,1.0,1,$400_pw,January 2013,3204,2013,1,BENTLEIGH,400,208021174,Apartment
164918,"6/13 PHILLIP STREET, BENTLEIGH",-37.92409,145.034414,2.0,1.0,1,$300_per_week,October 2013,3204,2013,10,BENTLEIGH,300,208021174,Apartment
164919,"3/1 BARRY STREET, BENTLEIGH",-37.932622,145.036259,2.0,1.0,1,$460,October 2013,3204,2013,10,BENTLEIGH,460,208021174,Apartment
164920,"36 GILBERT GROVE, BENTLEIGH",-37.918607,145.031854,4.0,2.0,1,$700_pw,November 2013,3204,2013,11,BENTLEIGH,700,208021174,House
164921,"10/7-9 SOUTH AVENUE, BENTLEIGH",-37.931085,145.034682,2.0,1.0,1,$340_Weekly,December 2013,3204,2013,12,BENTLEIGH,340,208021174,Apartment
164922,"10/7-9 SOUTH AVENUE, BENTLEIGH",-37.931085,145.034682,2.0,1.0,1,$350_p.w.,March 2013,3204,2013,3,BENTLEIGH,350,208021174,Apartment
164923,"10/7-9 SOUTH AVENUE, BENTLEIGH",-37.931085,145.034682,2.0,1.0,1,$370_pw,March 2013,3204,2013,3,BENTLEIGH,370,208021174,Apartment
164924,"9/21 BENT STREET, BENTLEIGH",-37.916875,145.03769,2.0,1.0,1,$315_pw,May 2013,3204,2013,5,BENTLEIGH,315,208021174,Apartment
164925,"9/21 BENT STREET, BENTLEIGH",-37.916875,145.03769,2.0,1.0,1,$330_pw,April 2013,3204,2013,4,BENTLEIGH,330,208021174,Apartment
164926,"9/21 BENT STREET, BENTLEIGH",-37.916875,145.03769,2.0,1.0,1,$340_pw,March 2013,3204,2013,3,BENTLEIGH,340,208021174,Apartment
164927,"9/21 BENT STREET, BENTLEIGH",-37.916875,145.03769,2.0,1.0,1,$350_pw,January 2013,3204,2013,1,BENTLEIGH,350,208021174,Apartment
164930,"2/47 GILMOUR ROAD, BENTLEIGH",-37.929585,145.041701,3.0,2.0,1,$470_pw,December 2013,3204,2013,12,BENTLEIGH,470,208021174,House
164969,"55 LODGE CRESCENT, BERWICK",-38.031961,145.331511,4.0,2.0,1,$375_pw,August 2013,3806,2013,8,BERWICK,375,212021293,House
164971,"4/1 MILLER STREET, BERWICK",-38.028027,145.351571,3.0,3.0,1,$340,August 2013,3806,2013,8,BERWICK,340,212021293,House
164972,"4/1 MILLER STREET, BERWICK",-38.028027,145.351571,3.0,3.0,1,$340,July 2013,3806,2013,7,BERWICK,340,212021293,House
164973,"1/6 CLARK COURT, BERWICK",-38.031632,145.328884,2.0,1.0,1,$300_Weekly,September 2013,3806,2013,9,BERWICK,300,212021293,Apartment
164974,"2/53 COLLINS CRESCENT, BERWICK",-38.032873,145.327065,2.0,1.0,1,$285_pw,October 2013,3806,2013,10,BERWICK,285,212021293,Apartment
164975,"2/53 COLLINS CRESCENT, BERWICK",-38.032873,145.327065,2.0,1.0,1,$285_Weekly,February 2013,3806,2013,2,BERWICK,285,212021293,Apartment
164994,"10 DUCKWORTH CLOSE, BERWICK",-38.031107,145.333105,4.0,2.0,2,$350_per_week,April 2013,3806,2013,4,BERWICK,350,212021293,House
164995,"36 COUNTY DRIVE, BERWICK",-38.04531,145.338196,4.0,2.0,2,$380_pw,June 2013,3806,2013,6,BERWICK,380,212021554,House
164997,"13/10 PARKHILL DRIVE, BERWICK",-38.026654,145.328017,2.0,2.0,1,$310_pw,May 2013,3806,2013,5,BERWICK,310,212021293,House
165019,"3/45 MCLACHLAN STREET, BIG HILL",-36.800608,144.247474,2.0,1.0,1,$180_Weekly,September 2013,3555,2013,9,HILL,180,202011022,Apartment
165032,".5528 CALDER HIGHWAY, BIG HILL",-36.8396187,144.23555733,4.0,2.0,0,$350_pw,October 2013,3555,2013,10,HILL,350,202011022,House
165033,"5528. CALDER HIGHWAY, BIG HILL",-36.839245,144.240599,4.0,2.0,0,$350_pw,September 2013,3555,2013,9,HILL,350,202011022,House
165038,"30 LOCKWOOD ST, BIRCHIP",-35.981972,142.913458,4.0,1.0,0,$135_per_week,June 2013,3483,2013,6,BIRCHIP,135,215031400,House
165039,"30 LOCKWOOD ST, BIRCHIP",-35.981972,142.913458,4.0,1.0,0,$135_per_week,July 2013,3483,2013,7,BIRCHIP,135,215031400,House
165040,"30 LOCKWOOD STREET, BIRCHIP",-35.982127,142.913429,4.0,1.0,0,$135_per_week,June 2013,3483,2013,6,BIRCHIP,135,215031400,House
165042,"454 MCEDWARD STREET, BIRDWOODTON",-34.203883,142.068501,3.0,1.0,1,$220_Weekly,November 2013,3505,2013,11,BIRDWOODTON,220,215021396,House
165047,"45 BEAL STREET, BIRREGURRA",-38.338767,143.78834,3.0,1.0,2,$190_pw,August 2013,3242,2013,8,BIRREGURRA,190,217031473,House
165048,"2A SKINNER STREET, BITTERN",-38.337437,145.174356,3.0,2.0,4,$350_per_week,November 2013,3918,2013,11,BITTERN,350,214021379,House
165049,"48 FLINDERS STREET, BITTERN",-38.342925,145.175299,3.0,1.0,2,$295_per_week,May 2013,3918,2013,5,BITTERN,295,214021379,House
165050,"2558 FRANKSTON FLINDERS ROAD, BITTERN",-38.344115,145.168131,3.0,1.0,1,$310_per_week,September 2013,3918,2013,9,BITTERN,310,214021379,House
165051,"2558 FRANKSTON FLINDERS ROAD, BITTERN",-38.344115,145.168131,3.0,1.0,1,$310_pw,August 2013,3918,2013,8,BITTERN,310,214021379,House
165052,"2558 FRANKSTON FLINDERS ROAD, BITTERN",-38.344115,145.168131,3.0,1.0,1,$340_p.w.,August 2013,3918,2013,8,BITTERN,340,214021379,House
165054,"7/603 PEEL STREET NORTH, BLACK HILL",-37.548047,143.866547,1.0,1.0,1,$160_per_week,January 2013,3350,2013,1,HILL,160,201011482,Apartment
165057,"3 / 54 EBDEN AVENUE, BLACK ROCK",-37.980008,145.019228,2.0,1.0,1,$390,February 2013,3193,2013,2,ROCK,390,208011173,Apartment
165059,"32A BLUFF ROAD, BLACK ROCK",-37.974502,145.016574,2.0,2.0,3,$475_per_week,May 2013,3193,2013,5,ROCK,475,208011173,House
165060,"1 GLENMORE CRESCENT, BLACK ROCK",-37.97183,145.013619,3.0,3.0,1,$895_pw,July 2013,3193,2013,7,ROCK,895,208011173,House
165062,"3 / 27 THIRD STREET, BLACK ROCK",-37.979452,145.022664,2.0,1.0,1,$450_pw,August 2013,3193,2013,8,ROCK,450,208011173,Apartment
165063,"13 / 310 BEACH ROAD, BLACK ROCK",-37.9769696,145.0167273,2.0,1.0,1,$340_pw,January 2013,3193,2013,1,ROCK,340,208011173,Apartment
165066,"4/332 BEACH ROAD, BLACK ROCK",-37.97990036,145.01794434,3.0,2.0,2,$650_per_week,June 2013,3193,2013,6,ROCK,650,208011173,House
165067,"4/332 BEACH ROAD, BLACK ROCK",-37.97990036,145.01794434,3.0,2.0,2,$700_per_week,April 2013,3193,2013,4,ROCK,700,208011173,House
165068,"3 / 312 BEACH ROAD, BLACK ROCK",-37.977138,145.017049,3.0,3.0,2,$500_per_week,January 2013,3193,2013,1,ROCK,500,208011173,House
165069,"55 ELIZA STREET, BLACK ROCK",-37.9650803,145.0176068,4.0,3.0,2,$895_per_week,February 2013,3193,2013,2,ROCK,895,208011173,House
165070,"55 ELIZA STREET, BLACK ROCK",-37.9650803,145.0176068,4.0,3.0,2,$925_pw,January 2013,3193,2013,1,ROCK,925,208011173,House
165071,"9 / 1 KARRAKATTA STREET, BLACK ROCK",-37.9742667,145.0165898,2.0,1.0,1,$552_pw,August 2013,3193,2013,8,ROCK,552,208011173,Apartment
165072,"9 ARDOYNE STREET, BLACK ROCK",-37.971436,145.018559,4.0,2.0,2,$695_pw,May 2013,3193,2013,5,ROCK,695,208011173,House
165073,"2/17 CENTRAL AVENUE, BLACK ROCK",-37.978699,145.021743,2.0,1.0,1,$370_per_week,July 2013,3193,2013,7,ROCK,370,208011173,Apartment
165075,"2/263 BEACH ROAD, BLACK ROCK",-37.971028,145.01282,3.0,1.0,2,$525_pw,June 2013,3193,2013,6,ROCK,525,208011173,House
165076,"6/54 EBDEN AVENUE, BLACK ROCK",-37.980008,145.019228,2.0,1.0,1,$390_pw,November 2013,3193,2013,11,ROCK,390,208011173,Apartment
165077,"2/19 HIBISCUS ROAD, BLACKBURN NORTH",-37.804972,145.144811,2.0,1.0,0,$315_pw,January 2013,3130,2013,1,NORTH,315,207031161,Apartment
165078,"7 POLYDOR PLACE, BLACKBURN NORTH",-37.806168,145.151397,3.0,1.0,1,$360_pw,January 2013,3130,2013,1,NORTH,360,207031161,House
165080,"6/8 FITHIE STREET, BLACKBURN NORTH",-37.802973,145.155306,1.0,1.0,1,$280_pw,April 2013,3130,2013,4,NORTH,280,207031161,Apartment
165084,"44 MORRIE CRESCENT, BLACKBURN NORTH",-37.806044,145.145671,3.0,1.0,1,$410_pw,August 2013,3130,2013,8,NORTH,410,207031161,House
165085,"16 PRIMULA STREET, BLACKBURN NORTH",-37.804495,145.143834,3.0,1.0,2,$410_per_week,January 2013,3130,2013,1,NORTH,410,207031161,House
165087,"18 LILAC COURT, BLACKBURN NORTH",-37.804781,145.147543,3.0,1.0,1,$420_per_week,January 2013,3130,2013,1,NORTH,420,207031161,House
165088,"2/44 JUNCTION ROAD, BLACKBURN NORTH",-37.80728,145.164051,2.0,2.0,1,$460_per_week,September 2013,3130,2013,9,NORTH,460,207031161,House
165089,"2/44 JUNCTION ROAD, BLACKBURN NORTH",-37.80728,145.164051,2.0,2.0,1,$460_p.w.,August 2013,3130,2013,8,NORTH,460,207031161,House
165090,"8 MCCRACKEN AVENUE, BLACKBURN SOUTH",-37.836831,145.14811,4.0,1.0,2,$400_per_week,April 2013,3130,2013,4,SOUTH,400,207031162,House
165098,"50 SHAWLANDS AVENUE, BLACKBURN SOUTH",-37.836394,145.1509,3.0,2.0,2,$350_pw,April 2013,3130,2013,4,SOUTH,350,207031162,House
165099,"1/42 MAPLE STREET, BLACKBURN",-37.815201,145.158955,2.0,1.0,1,$330_per_week,March 2013,3130,2013,3,BLACKBURN,330,207031161,Apartment
165100,"4/10 LAKE ROAD, BLACKBURN",-37.824938,145.15808,1.0,1.0,1,$245_per_week,March 2013,3130,2013,3,BLACKBURN,245,207031161,Apartment
165101,"2/1 PAKENHAM STREET, BLACKBURN",-37.821352,145.142141,1.0,1.0,1,$360_pw,September 2013,3130,2013,9,BLACKBURN,360,207031161,Apartment
165102,"2/1 PAKENHAM STREET, BLACKBURN",-37.821352,145.142141,1.0,1.0,1,$360_pw,August 2013,3130,2013,8,BLACKBURN,360,207031161,Apartment
165103,"2/1 PAKENHAM STREET, BLACKBURN",-37.821352,145.142141,1.0,1.0,1,$380_p.w.,August 2013,3130,2013,8,BLACKBURN,380,207031161,Apartment
165108,"306/2 QUEEN STREET, BLACKBURN",-37.818016,145.151142,1.0,1.0,1,$345_per_week,December 2013,3130,2013,12,BLACKBURN,345,207031161,Apartment
165112,"2/6 DEWRANG CRESCENT, BLACKBURN",-37.817348,145.141342,3.0,2.0,2,$370_pw,May 2013,3130,2013,5,BLACKBURN,370,207031161,House
165113,"7 DECKER STREET, BLACKWOOD",-37.4730539,144.3029965,2.0,1.0,1,$200,October 2013,3458,2013,10,BLACKWOOD,200,201021009,Apartment
165114,"1062 MARTIN STREET, BLACKWOOD",-37.469199,144.30743,3.0,1.0,0,$220,March 2013,3458,2013,3,BLACKWOOD,220,201021009,House
165115,"30 PARK STREET, ABBOTSFORD",-37.8080365,144.9941885,3.0,2.0,1,$670_per_week,July 2013,3067,2013,7,ABBOTSFORD,670,206071139,House
165117,"G01/38-40 YARRA STREET, ABBOTSFORD",-37.80185,144.994536,2.0,2.0,1,$570_pw,December 2013,3067,2013,12,ABBOTSFORD,570,206071139,House
165118,"G01/38-40 YARRA STREET, ABBOTSFORD",-37.80185,144.994536,2.0,2.0,1,$580_pw,October 2013,3067,2013,10,ABBOTSFORD,580,206071139,House
165122,"103/88 TRENERRY CRESCENT, ABBOTSFORD",-37.7975866,144.9977659,2.0,2.0,1,$580_pw,August 2013,3067,2013,8,ABBOTSFORD,580,206071139,House
165123,"103/88 TRENERRY CRESCENT, ABBOTSFORD",-37.7975866,144.9977659,2.0,2.0,1,$595_pw,July 2013,3067,2013,7,ABBOTSFORD,595,206071139,House
165127,"17 ALLAN STREET, ABERFELDIE",-37.760729,144.893815,4.0,3.0,3,$380_pw,August 2013,3040,2013,8,ABERFELDIE,380,206031501,House
165128,"17 ALLAN STREET, ABERFELDIE",-37.760729,144.893815,4.0,3.0,3,$400_pw,August 2013,3040,2013,8,ABERFELDIE,400,206031501,House
165129,"2A ALMA STREET, ABERFELDIE",-37.757287,144.903672,2.0,1.0,1,$430_pw,December 2013,3040,2013,12,ABERFELDIE,430,206031501,Apartment
165130,"2A ALMA STREET, ABERFELDIE",-37.757287,144.903672,2.0,1.0,1,$430_p.w.,November 2013,3040,2013,11,ABERFELDIE,430,206031501,Apartment
165134,"23 BEATRICE AVENUE, ABERFELDIE",-37.756043,144.889515,3.0,1.0,1,$350_p.w.,July 2013,3040,2013,7,ABERFELDIE,350,206031501,House
165135,"2/2 INLET CRESCENT, AIREYS INLET",-38.4667161,144.1011443,2.0,1.0,2,$320,June 2013,3231,2013,6,INLET,320,203031049,Apartment
165137,"4 ALICE ROAD, AIREYS INLET",-38.457279,144.107816,3.0,1.0,2,$350_pw,December 2013,3231,2013,12,INLET,350,203031049,House
165140,"2/32 GREEN STREET, AIRPORT WEST",-37.728013,144.887551,1.0,1.0,1,$240_per_week,May 2013,3042,2013,5,WEST,240,210011226,Apartment
165141,"2/32 GREEN STREET, AIRPORT WEST",-37.728013,144.887551,1.0,1.0,1,$240_per_week,April 2013,3042,2013,4,WEST,240,210011226,Apartment
165142,"8 SOUTH ROAD, AIRPORT WEST",-37.722404,144.87988,3.0,1.0,2,$350_per_week,July 2013,3042,2013,7,WEST,350,210011226,House
165146,"1/51 CRESWELL AVENUE, AIRPORT WEST",-37.730881,144.887229,3.0,1.0,1,$385_per_week,September 2013,3042,2013,9,WEST,385,210011226,House
165151,"9/93-95 MCNAMARA AVENUE, AIRPORT WEST",-37.723781,144.88129,2.0,1.0,1,$370_pw,November 2013,3042,2013,11,WEST,370,210011226,Apartment
165157,"6 SEXTON STREET, AIRPORT WEST",-37.717246,144.881292,3.0,1.0,1,$350_per_week,July 2013,3042,2013,7,WEST,350,210011226,House
165158,"3 / 59 ELSTONE AVENUE, AIRPORT WEST",-37.730866,144.888297,2.0,1.0,1,$380_pw,September 2013,3042,2013,9,WEST,380,210011226,Apartment
165163,"40 OAKWOOD ROAD, ALBANVALE",-37.744835,144.770513,3.0,1.0,0,$310_Weekly,July 2013,3021,2013,7,ALBANVALE,310,213011333,House
165164,"104/87-89 DUNDAS PLACE, ALBERT PARK",-37.841361,144.955559,1.0,1.0,0,$450_pw,May 2013,3206,2013,5,PARK,450,206051128,Apartment
165165,"18 FINLAY STREET, ALBERT PARK",-37.84327,144.955776,2.0,1.0,0,$595_per_week,July 2013,3206,2013,7,PARK,595,206051128,Apartment
165166,"18 FINLAY STREET, ALBERT PARK",-37.84327,144.955776,2.0,1.0,0,$620_per_week,July 2013,3206,2013,7,PARK,620,206051128,Apartment
165167,"15 LITTLE PAGE STREET, ALBERT PARK",-37.845978,144.950894,2.0,1.0,1,$735_pw,January 2013,3206,2013,1,PARK,735,206051128,Apartment
165169,"24 KERFERD ROAD, ALBERT PARK",-37.842865,144.957654,2.0,1.0,1,$560_per_week,August 2013,3206,2013,8,PARK,560,206051128,Apartment
165170,"64 REED STREET, ALBERT PARK",-37.846064,144.947017,2.0,1.0,1,$600_per_week,April 2013,3206,2013,4,PARK,600,206051128,Apartment
165171,"64 REED STREET, ALBERT PARK",-37.846064,144.947017,2.0,1.0,1,$650_per_week,March 2013,3206,2013,3,PARK,650,206051128,Apartment
165175,"12 MERTON PLACE, ALBERT PARK",-37.844814,144.954348,2.0,1.0,1,$715_per_week,December 2013,3206,2013,12,PARK,715,206051128,Apartment
165176,"108 VICTORIA AVENUE, ALBERT PARK",-37.844717,144.950273,4.0,2.0,0,$950_per_week,April 2013,3206,2013,4,PARK,950,206051128,House
165178,"30A MILLS STREET, ALBERT PARK",-37.844919,144.959267,3.0,2.0,0,$730_per_week,July 2013,3206,2013,7,PARK,730,206051128,House
165179,"30A MILLS STREET, ALBERT PARK",-37.844919,144.959267,3.0,2.0,0,$730_per_week,February 2013,3206,2013,2,PARK,730,206051128,House
165180,"30A MILLS STREET, ALBERT PARK",-37.844919,144.959267,3.0,2.0,0,$730_per_week,January 2013,3206,2013,1,PARK,730,206051128,House
165182,"6 FAUSSETT STREET, ALBERT PARK",-37.841665,144.95473,2.0,1.0,0,$500_per_week,August 2013,3206,2013,8,PARK,500,206051128,Apartment
165183,"3/119 DANKS STREET, ALBERT PARK",-37.84621048,144.95018005,2.0,1.0,0,$460_per_week,December 2013,3206,2013,12,PARK,460,206051128,Apartment
165184,"3/119 DANKS STREET, ALBERT PARK",-37.84621048,144.95018005,2.0,1.0,0,$480_per_week,November 2013,3206,2013,11,PARK,480,206051128,Apartment
165185,"78 REED STREET, ALBERT PARK",-37.846641,144.948076,3.0,1.0,0,$650_per_week,April 2013,3206,2013,4,PARK,650,206051128,House
165186,"78 REED STREET, ALBERT PARK",-37.846641,144.948076,3.0,1.0,0,$700_per_week,March 2013,3206,2013,3,PARK,700,206051128,House
165187,"103/87-89 DUNDAS PLACE, ALBERT PARK",-37.841361,144.955559,2.0,1.0,1,$575_pw,September 2013,3206,2013,9,PARK,575,206051128,Apartment
165188,"103/87-89 DUNDAS PLACE, ALBERT PARK",-37.841361,144.955559,2.0,1.0,1,$575_pw,August 2013,3206,2013,8,PARK,575,206051128,Apartment
165189,"6/122 DANKS STREET, ALBERT PARK",-37.846757,144.950055,2.0,1.0,1,$440_pw,September 2013,3206,2013,9,PARK,440,206051128,Apartment
165190,"321 MONTAGUE STREET, ALBERT PARK",-37.841549,144.956358,3.0,3.0,2,$850_per_week,September 2013,3206,2013,9,PARK,850,206051128,House
165191,"321 MONTAGUE STREET, ALBERT PARK",-37.841549,144.956358,3.0,3.0,2,$950_per_week,May 2013,3206,2013,5,PARK,950,206051128,House
165192,"321 MONTAGUE STREET, ALBERT PARK",-37.841549,144.956358,3.0,3.0,2,$1200_pw,February 2013,3206,2013,2,PARK,1200,206051128,House
165193,"7/87 MERTON STREET, ALBERT PARK",-37.844007,144.955165,1.0,1.0,1,$280_per_week,July 2013,3206,2013,7,PARK,280,206051128,Apartment
165194,"7/87 MERTON STREET, ALBERT PARK",-37.844007,144.955165,1.0,1.0,1,$290_per_week,June 2013,3206,2013,6,PARK,290,206051128,Apartment
165195,"7/87 MERTON STREET, ALBERT PARK",-37.844007,144.955165,1.0,1.0,1,$290_per_week,May 2013,3206,2013,5,PARK,290,206051128,Apartment
165196,"44 DANKS STREET, ALBERT PARK",-37.845077,144.946783,2.0,1.0,1,$600_per_week,August 2013,3206,2013,8,PARK,600,206051128,Apartment
165197,"14/52 MOUBRAY STREET, ALBERT PARK",-37.8422,144.951703,1.0,1.0,1,$310_per_week,July 2013,3206,2013,7,PARK,310,206051128,Apartment
165198,"14/52 MOUBRAY STREET, ALBERT PARK",-37.8422,144.951703,1.0,1.0,1,$310_per_week,June 2013,3206,2013,6,PARK,310,206051128,Apartment
165199,"4/84 REED STREET, ALBERT PARK",-37.846762,144.948304,1.0,1.0,0,$250_pw,February 2013,3206,2013,2,PARK,250,206051128,Apartment
165200,"18/122 BEACONSFIELD PARADE, ALBERT PARK",-37.848601,144.950892,1.0,1.0,1,$320_pw,April 2013,3206,2013,4,PARK,320,206051128,Apartment
165203,"11/84 BEACONSFIELD PARADE, ALBERT PARK",-37.847124,144.947874,1.0,1.0,1,$230_per_week,April 2013,3206,2013,4,PARK,230,206051128,Apartment
165204,"11/84 BEACONSFIELD PARADE, ALBERT PARK",-37.847124,144.947874,1.0,1.0,1,$240_per_week,March 2013,3206,2013,3,PARK,240,206051128,Apartment
165205,"11/217 BRIDPORT STREET WEST, ALBERT PARK",-37.842523,144.950559,1.0,1.0,1,$350_per_week,July 2013,3206,2013,7,PARK,350,206051128,Apartment
165206,"32 BARRETT STREET, ALBERT PARK",-37.843976,144.948906,3.0,2.0,1,$1025_per_week,July 2013,3206,2013,7,PARK,1025,206051128,House
165210,"26 PHILIPSON STREET, ALBERT PARK",-37.846285,144.951454,2.0,1.0,0,$575_pw,February 2013,3206,2013,2,PARK,575,206051128,Apartment
165211,"13 DINSDALE STREET, ALBERT PARK",-37.844924,144.951958,2.0,1.0,0,$575_per_week,July 2013,3206,2013,7,PARK,575,206051128,Apartment
165213,"1/72 WITHERS STREET, ALBERT PARK",-37.846409,144.947363,1.0,1.0,1,$300_per_week,August 2013,3206,2013,8,PARK,300,206051128,Apartment
165214,"5/53-55 FINLAY STREET, ALBERT PARK",-37.844258,144.953556,1.0,1.0,1,$400_per_week,May 2013,3206,2013,5,PARK,400,206051128,Apartment
165217,"116 GRAHAM STREET, ALBERT PARK",-37.845542,144.949441,2.0,1.0,1,$485_per_week,December 2013,3206,2013,12,PARK,485,206051128,Apartment
165218,"116 GRAHAM STREET, ALBERT PARK",-37.845542,144.949441,2.0,1.0,1,$500_per_week,November 2013,3206,2013,11,PARK,500,206051128,Apartment
165219,"7/122 BEACONSFIELD PARADE, ALBERT PARK",-37.848601,144.950892,1.0,1.0,1,$350,August 2013,3206,2013,8,PARK,350,206051128,Apartment
165221,"7/24 FOOTE STREET, ALBERT PARK",-37.844668,144.946033,1.0,1.0,1,$295_per_week,November 2013,3206,2013,11,PARK,295,206051128,Apartment
165230,"67C DYSON DRIVE, ALFREDTON",-37.551552,143.785905,3.0,2.0,2,$264,September 2013,3350,2013,9,ALFREDTON,264,201011001,House
