,address,latitude,longitude,nbed,nbath,ncar,price,historical_dates,postcode,year,month,suburb,weekly_rent,SA2_CODE,residence_type
126868,"7 SCOTT STREET, CHILTERN",-36.153794,146.592627,2.0,1.0,4,$200_per_week,August 2016,3683,2016,8,CHILTERN,200,204031070,House
126871,"13 BURKE STREET, CHILTERN",-36.152878,146.607758,2.0,1.0,1,$250_Weekly,July 2016,3683,2016,7,CHILTERN,250,204031070,House
126882,"30 O'SHEAS ROAD, CHRISTMAS HILLS",-37.643953,145.309304,4.0,2.0,1,$600_per_week,November 2016,3775,2016,11,HILLS,600,209031212,House
126883,"30 O'SHEAS ROAD, CHRISTMAS HILLS",-37.643953,145.309304,4.0,2.0,1,$600_per_week,December 2016,3775,2016,12,HILLS,600,209031212,House
126885,"90 WESTERING ROAD, CHRISTMAS HILLS",-37.677565,145.269523,3.0,1.0,0,$550_per_week,August 2016,3775,2016,8,HILLS,550,209031212,House
126889,"731 CHUM CREEK ROAD, CHUM CREEK",-37.64491085,145.49757232,3.0,2.0,0,$385_per_week,December 2016,3777,2016,12,CREEK,385,211051276,House
126893,"5 INALA CLOSE, CHURCHILL",-38.323757,146.424585,4.0,1.0,0,$200_pw,June 2016,3842,2016,6,CHURCHILL,200,205041094,House
126894,"15 CURRINGA COURT, CHURCHILL",-38.319109,146.420642,4.0,2.0,2,$300_per_week,January 2016,3842,2016,1,CHURCHILL,300,205041094,House
126896,"27 CHURINGA DRIVE, CHURCHILL",-38.3210366,146.4247311,3.0,1.0,1,$280_per_week,May 2016,3842,2016,5,CHURCHILL,280,205041094,House
126899,"59 LEONARD CLOSE, CLARINDA",-37.940496,145.106509,5.0,3.0,2,$410_Weekly,May 2016,3169,2016,5,CLARINDA,410,212041309,House
126908,"3/36 DENNIS STREET, CLAYTON NORTH",-37.918364,145.138747,4.0,3.0,0,$680_per_week,October 2016,3168,2016,10,NORTH,680,212051567,House
126909,"1/36 DENNIS STREET, CLAYTON NORTH",-37.918364,145.138747,3.0,3.0,0,$640_per_week,October 2016,3168,2016,10,NORTH,640,212051567,House
126910,"2/36 DENNIS STREET, CLAYTON NORTH",-37.918364,145.138747,3.0,3.0,0,$640_per_week,October 2016,3168,2016,10,NORTH,640,212051567,House
126911,"7 MURDO ROAD, CLAYTON NORTH",-37.917569,145.14094,3.0,1.0,0,$450_per_week,September 2016,3168,2016,9,NORTH,450,212051567,House
126912,"UNIT 3/22 WRIGHT STREET, CLAYTON NORTH",-37.92221,145.124686,2.0,1.0,1,$330_Weekly,April 2016,3168,2016,4,NORTH,330,212051568,Apartment
126914,"1/19 BURNS AVENUE, CLAYTON SOUTH",-37.936444,145.134354,2.0,1.0,1,$300_Week,September 2016,3169,2016,9,SOUTH,300,212041310,Apartment
126915,"3 JORDAN ST, CLAYTON SOUTH",-37.930814,145.116963,3.0,2.0,2,$370_Weekly,December 2016,3169,2016,12,SOUTH,370,212041310,House
126916,"1/31 SPRINGS ROAD, CLAYTON SOUTH",-37.930285,145.109556,2.0,1.0,1,$340_per_week,August 2016,3169,2016,8,SOUTH,340,212041310,Apartment
126918,"B218/60 AUTUMN TERRACE, CLAYTON SOUTH",-37.9393196,145.1384859,2.0,2.0,1,$370_per_week,February 2016,3169,2016,2,SOUTH,370,212041310,House
126919,"2/33 BROWNING AVENUE, CLAYTON SOUTH",-37.9389684,145.1327188,3.0,1.0,1,$340_Weekly,November 2016,3169,2016,11,SOUTH,340,212041310,House
126921,"8/31-33 FIRST STREET, CLAYTON SOUTH",-37.933051,145.134866,2.0,1.0,1,$290,November 2016,3169,2016,11,SOUTH,290,212041310,Apartment
126931,"4/1452 NORTH ROAD, CLAYTON",-37.914125,145.1205265,2.0,1.0,1,$310_pw,July 2016,3168,2016,7,CLAYTON,310,212051568,Apartment
126968,"6/10 HILLTOP AVENUE, CLAYTON",-37.905826,145.127234,2.0,1.0,1,$335_per_week,May 2016,3168,2016,5,CLAYTON,335,212051567,Apartment
126970,"2 / 1452-1454 NORTH ROAD, CLAYTON",-37.914125,145.1205265,2.0,1.0,1,$350_pw,October 2016,3168,2016,10,CLAYTON,350,212051568,Apartment
126971,"9/34 WELLINGTON ROAD, CLAYTON",-37.915995,145.133951,1.0,1.0,1,$245,May 2016,3168,2016,5,CLAYTON,245,212051567,Apartment
126973,"9 SHADY MEWS, CLAYTON",-37.922424,145.12782,2.0,1.0,2,$380_Weekly,September 2016,3168,2016,9,CLAYTON,380,212051568,Apartment
126974,"198 CLAYTON ROAD, CLAYTON",-37.917008,145.121634,4.0,1.0,0,$500_per_week,June 2016,3168,2016,6,CLAYTON,500,212051568,House
126976,"8/20-22 NEWPORT ROAD, CLAYTON",-37.932574,145.114313,2.0,1.0,2,$360,November 2016,3168,2016,11,CLAYTON,360,212041310,Apartment
126977,"8/20-22 NEWPORT ROAD, CLAYTON",-37.932574,145.114313,2.0,1.0,2,$360,October 2016,3168,2016,10,CLAYTON,360,212041310,Apartment
126978,"8/20-22 NEWPORT ROAD, CLAYTON",-37.932574,145.114313,2.0,1.0,2,$360,September 2016,3168,2016,9,CLAYTON,360,212041310,Apartment
126981,"10/10 ARNOTT STREET, CLAYTON",-37.9169379,145.1348441,2.0,1.0,1,$340_pw,February 2016,3168,2016,2,CLAYTON,340,212051567,Apartment
126993,"1/12 MADELEINE ROAD, CLAYTON",-37.915266,145.120158,3.0,1.0,1,$450_per_week,March 2016,3168,2016,3,CLAYTON,450,212051568,House
126994,"1/12 MADELEINE ROAD, CLAYTON",-37.915266,145.120158,3.0,1.0,1,$470,March 2016,3168,2016,3,CLAYTON,470,212051568,House
126996,"6 VICTOR ROAD, CLEMATIS",-37.929987,145.420214,2.0,1.0,1,$310_pw,September 2016,3782,2016,9,CLEMATIS,310,212011289,Apartment
127005,"12/82 ROSENEATH STREET, CLIFTON HILL",-37.793089,144.99717,3.0,2.0,1,$710_Week,February 2016,3068,2016,2,HILL,710,206071145,House
127007,"8/32 DWYER STREET, CLIFTON HILL",-37.787239,145.002994,1.0,1.0,1,$330_pw,October 2016,3068,2016,10,HILL,330,206071145,Apartment
127008,"650 SMITH STREET, CLIFTON HILL",-37.79212,144.985634,3.0,2.0,1,$795_per_week,April 2016,3068,2016,4,HILL,795,206071145,House
127009,"650 SMITH STREET, CLIFTON HILL",-37.79212,144.985634,3.0,2.0,1,$795_per_week,March 2016,3068,2016,3,HILL,795,206071145,House
127010,"18/14 THE ESPLANADE, CLIFTON HILL",-37.788057,145.005844,1.0,1.0,1,$315_pw,August 2016,3068,2016,8,HILL,315,206071145,Apartment
127011,"18/14 THE ESPLANADE, CLIFTON HILL",-37.788057,145.005844,1.0,1.0,1,$330_Week,July 2016,3068,2016,7,HILL,330,206071145,Apartment
127012,"5/200 NOONE STREET, CLIFTON HILL",-37.793351,144.98911,2.0,2.0,1,$590_pw,February 2016,3068,2016,2,HILL,590,206071145,House
127014,"144 GOLD STREET, CLIFTON HILL",-37.793178,144.990398,2.0,1.0,0,$550_Week,May 2016,3068,2016,5,HILL,550,206071145,Apartment
127018,"7/41 FENWICK STREET, CLIFTON HILL",-37.788821,144.999765,2.0,1.0,1,$420_pw,January 2016,3068,2016,1,HILL,420,206071145,Apartment
127019,"1 CLIFTON STREET, CLIFTON HILL",-37.787337,145.00483,2.0,1.0,0,$600_per_week,May 2016,3068,2016,5,HILL,600,206071145,Apartment
127020,"1/81 FIELD STREET, CLIFTON HILL",-37.7921964,145.0022619,2.0,1.0,1,$500_pw,April 2016,3068,2016,4,HILL,500,206071145,Apartment
127021,"4/15 ANDERSON STREET, CLIFTON HILL",-37.792677,144.99261,2.0,1.0,1,$395_pw,May 2016,3068,2016,5,HILL,395,206071145,House
127022,"4/15 ANDERSON STREET, CLIFTON HILL",-37.792677,144.99261,2.0,1.0,1,$400_Week,March 2016,3068,2016,3,HILL,400,206071145,Apartment
127024,"6 BARRIES PLACE, CLIFTON HILL",-37.7949562,144.9986966,3.0,3.0,1,$710_pw,June 2016,3068,2016,6,HILL,710,206071145,House
127025,"6 BARRIES PLACE, CLIFTON HILL",-37.7949562,144.9986966,3.0,3.0,1,$710_Week,May 2016,3068,2016,5,HILL,710,206071145,House
127027,"30 WRIGHT STREET, CLIFTON HILL",-37.78906,145.00174,2.0,1.0,1,$600_Week,December 2016,3068,2016,12,HILL,600,206071145,Apartment
127029,"8/56 JOHN STREET, CLIFTON HILL",-37.787359,144.995813,2.0,1.0,1,$425_per_week,July 2016,3068,2016,7,HILL,425,206071145,Apartment
127030,"78 RAMSDEN STREET, CLIFTON HILL",-37.79056,144.999593,3.0,1.0,2,$790_per_week,May 2016,3068,2016,5,HILL,790,206071145,House
127031,"4/41 FENWICK STREET, CLIFTON HILL",-37.788821,144.999765,2.0,1.0,1,$375_per_week,May 2016,3068,2016,5,HILL,375,206071145,House
127032,"7/18 SOUTH TERRACE STREET, CLIFTON HILL",-37.792683,144.993377,3.0,1.0,1,$560_pw,May 2016,3068,2016,5,HILL,560,206071145,House
127033,"5/56 JOHN STREET, CLIFTON HILL",-37.78723145,144.99583435,1.0,1.0,1,$350_per_week,January 2016,3068,2016,1,HILL,350,206071145,Apartment
127034,"5/56 JOHN STREET, CLIFTON HILL",-37.78723145,144.99583435,1.0,1.0,1,$360_per_week,January 2016,3068,2016,1,HILL,360,206071145,Apartment
127038,"3/264 ALEXANDRA PARADE EAST, CLIFTON HILL",-37.7951262,144.9995113,1.0,1.0,1,$350_pw,February 2016,3068,2016,2,HILL,350,206071145,Apartment
127040,"363 WELLINGTON STREET, CLIFTON HILL",-37.793646,144.987995,3.0,2.0,1,$710_per_week,August 2016,3068,2016,8,HILL,710,206071145,House
127041,"363 WELLINGTON STREET, CLIFTON HILL",-37.793646,144.987995,3.0,2.0,1,$740_per_week,July 2016,3068,2016,7,HILL,740,206071145,House
127042,"363 WELLINGTON STREET, CLIFTON HILL",-37.793646,144.987995,3.0,2.0,1,$790_per_week,March 2016,3068,2016,3,HILL,790,206071145,House
127043,"14 YARRAMUNDI DRIVE, CLIFTON SPRINGS",-38.1579965,144.5571227,3.0,1.0,2,$320_Weekly,December 2016,3222,2016,12,SPRINGS,320,203031048,House
127044,"5 BOGAN STREET, CLIFTON SPRINGS",-38.155787,144.562809,3.0,2.0,4,$420_Weekly,May 2016,3222,2016,5,SPRINGS,420,203031048,House
127053,"45 THORNTON STREET, CLUNES",-37.300119,143.782084,3.0,1.0,1,$260,January 2016,3370,2016,1,CLUNES,260,201021010,House
127056,"6 CAMERON STREET, CLUNES",-37.292247,143.791814,2.0,1.0,2,$215_per_week,October 2016,3370,2016,10,CLUNES,215,201021010,Apartment
127057,"6 CAMERON STREET, CLUNES",-37.292247,143.791814,2.0,1.0,2,$215_per_week,July 2016,3370,2016,7,CLUNES,215,201021010,House
127070,"8 PELION AVENUE, CLYDE",-38.133137,145.330643,4.0,2.0,2,$410_Wk,November 2016,3978,2016,11,CLYDE,410,212031303,House
127074,"328 BENGWORDEN ROAD, COBAINS",-38.072845,147.110754,2.0,1.0,2,$230_per_week,May 2016,3851,2016,5,COBAINS,230,205051100,House
127075,"328 BENGWORDEN ROAD, COBAINS",-38.072845,147.110754,2.0,1.0,2,$180_per_week,March 2016,3851,2016,3,COBAINS,180,205051100,House
127079,"2 / 51 CURDIE STREET, COBDEN",-38.328759,143.075471,3.0,1.0,1,$210_pw,September 2016,3266,2016,9,COBDEN,210,217031475,House
127080,"2 / 51 CURDIE STREET, COBDEN",-38.328759,143.075471,3.0,1.0,1,$210,August 2016,3266,2016,8,COBDEN,210,217031475,House
127081,"2 / 51 CURDIE STREET, COBDEN",-38.328759,143.075471,3.0,1.0,1,$210_pw,July 2016,3266,2016,7,COBDEN,210,217031475,House
127082,"2 / 51 CURDIE STREET, COBDEN",-38.328759,143.075471,3.0,1.0,1,$210,May 2016,3266,2016,5,COBDEN,210,217031475,House
127083,"397 STONEYFORD ROAD, COBDEN",-38.332701,143.126845,3.0,1.0,1,$240_per_week,July 2016,3266,2016,7,COBDEN,240,217031475,House
127084,"397 STONEYFORD ROAD, COBDEN",-38.332701,143.126845,3.0,1.0,1,$220_per_week,January 2016,3266,2016,1,COBDEN,220,217031475,House
127089,"2A MANLY COURT, COBURG NORTH",-37.720577,144.970207,3.0,2.0,1,$490_pw,February 2016,3058,2016,2,NORTH,490,210031236,House
127090,"2A MANLY COURT, COBURG NORTH",-37.720577,144.970207,3.0,2.0,1,$490_Week,January 2016,3058,2016,1,NORTH,490,210031236,House
127094,"30 SNAPSHOT DRIVE, COBURG NORTH",-37.7298475,144.9822987,3.0,2.0,2,$500_Week,August 2016,3058,2016,8,NORTH,500,210031236,House
127095,"3/13 MARAMA STREET, COBURG NORTH",-37.719332,144.958411,2.0,1.0,1,$290_pw,March 2016,3058,2016,3,NORTH,290,210031236,Apartment
127096,"3/41 ARTHUR STREET, COBURG NORTH",-37.723567,144.980436,2.0,1.0,1,$310_Weekly,November 2016,3058,2016,11,NORTH,310,210031236,Apartment
127098,"10/23 BAXTER STREET, COBURG",-37.746319,144.963475,1.0,1.0,1,$260_Week,August 2016,3058,2016,8,COBURG,260,206011497,Apartment
127099,"10/23 BAXTER STREET, COBURG",-37.746319,144.963475,1.0,1.0,1,$260_pw,July 2016,3058,2016,7,COBURG,260,206011497,Apartment
127100,"1/40 LINSEY STREET, COBURG",-37.741183,144.953617,3.0,2.0,2,$580_per_week,August 2016,3058,2016,8,COBURG,580,206011498,House
127101,"41 LINSEY STREET, COBURG",-37.741145,144.952948,3.0,1.0,1,$390_pw,November 2016,3058,2016,11,COBURG,390,206011498,House
127102,"1/203 NICHOLSON STREET, COBURG",-37.7428029,144.9776612,2.0,1.0,1,$350_pw,December 2016,3058,2016,12,COBURG,350,206011497,Apartment
127103,"9 BIGGS STREET, COBURG",-37.7309959,144.9814667,3.0,2.0,2,$510_per_week,January 2016,3058,2016,1,COBURG,510,210031236,House
127105,"14 ROLLS STREET, COBURG",-37.749829,144.968644,2.0,1.0,0,$550_per_week,May 2016,3058,2016,5,COBURG,550,206011497,Apartment
127106,"14 ROLLS STREET, COBURG",-37.749829,144.968644,2.0,1.0,0,$550_per_week,April 2016,3058,2016,4,COBURG,550,206011497,Apartment
127111,"2/7-9 BELL STREET, COBURG",-37.742764,144.977229,2.0,2.0,1,$390,September 2016,3058,2016,9,COBURG,390,206011497,House
127115,"1/626 SYDNEY ROAD, COBURG",-37.735539,144.96646,2.0,1.0,1,$440_Weekly,November 2016,3058,2016,11,COBURG,440,206011497,Apartment
127116,"1/626 SYDNEY ROAD, COBURG",-37.735539,144.96646,2.0,1.0,1,$310_per_week,February 2016,3058,2016,2,COBURG,310,206011497,Apartment
127118,"2/56 THE AVENUE, COBURG",-37.752826,144.968178,2.0,2.0,1,$480_per_week,June 2016,3058,2016,6,COBURG,480,206011497,House
127119,"32A LOCH STREET, COBURG",-37.74664,144.962241,4.0,2.0,2,$600,October 2016,3058,2016,10,COBURG,600,206011498,House
127127,"274 BELL STREET, COBURG",-37.73991,144.95405,3.0,1.0,2,$420_per_week,November 2016,3058,2016,11,COBURG,420,206011498,House
127128,"237/14-20 NICHOLSON STREET, COBURG",-37.755441,144.975716,1.0,1.0,0,$300_Weekly,May 2016,3058,2016,5,COBURG,300,206011497,Apartment
127129,"42 PATTERSON STREET, COBURG",-37.748713,144.972564,3.0,2.0,2,$550_per_week,November 2016,3058,2016,11,COBURG,550,206011497,House
127130,"1 BECKWITH STREET, COBURG",-37.738086,144.965278,3.0,1.0,3,$470_per_week,April 2016,3058,2016,4,COBURG,470,206011497,House
127131,"41/14 BELL STREET, COBURG",-37.74239,144.977185,2.0,1.0,1,$380_pw,December 2016,3058,2016,12,COBURG,380,206011497,Apartment
127132,"3/33 SHAFTSBURY STREET, COBURG",-37.751325,144.953636,3.0,1.0,1,$400_per_week,April 2016,3058,2016,4,COBURG,400,206011498,House
127133,"3/33 SHAFTSBURY STREET, COBURG",-37.751325,144.953636,3.0,1.0,1,$420_pw,February 2016,3058,2016,2,COBURG,420,206011498,House
127134,"3/33 SHAFTSBURY ST., COBURG",-37.751293,144.95336,3.0,1.0,1,$400_per_week,April 2016,3058,2016,4,COBURG,400,206011498,House
127138,"109A/41-43 STOCKADE AVENUE, COBURG",-37.7390664,144.9698398,1.0,1.0,1,$270_per_week,December 2016,3058,2016,12,COBURG,270,206011497,Apartment
127139,"109A/41-43 STOCKADE AVENUE, COBURG",-37.7390664,144.9698398,1.0,1.0,1,$260_per_week,February 2016,3058,2016,2,COBURG,260,206011497,Apartment
127140,"20/1 MANNA GUM COURT, COBURG",-37.737353,144.976093,3.0,2.0,2,$500_pw,December 2016,3058,2016,12,COBURG,500,206011497,House
127141,"69A MORELAND ROAD, COBURG",-37.756399,144.97422,3.0,1.0,1,$380_pw,February 2016,3058,2016,2,COBURG,380,206011497,House
127142,"27 HARDING STREET, COBURG",-37.745161,144.969769,2.0,1.0,1,$495_pw,June 2016,3058,2016,6,COBURG,495,206011497,Apartment
127143,"26 SNAPSHOT DRIVE, COBURG",-37.72998,144.9824245,3.0,2.0,2,$500_per_week,July 2016,3058,2016,7,COBURG,500,210031236,House
127149,"3/11 METHVEN STREET, COBURG",-37.746901,144.963811,2.0,1.0,1,$370_per_week,February 2016,3058,2016,2,COBURG,370,206011497,Apartment
127150,"332/12-20 NICHOLSON STREET, COBURG",-37.75544,144.975529,2.0,1.0,1,$340_pw,February 2016,3058,2016,2,COBURG,340,206011497,Apartment
127151,"5/144 NICHOLSON STREET, COBURG",-37.745681,144.977713,2.0,1.0,1,$290_pw,December 2016,3058,2016,12,COBURG,290,206011497,Apartment
127152,"5/144 NICHOLSON STREET, COBURG",-37.745681,144.977713,2.0,1.0,1,$290_pw,November 2016,3058,2016,11,COBURG,290,206011497,Apartment
127153,"5/144 NICHOLSON STREET, COBURG",-37.745681,144.977713,2.0,1.0,1,$310_per_week,May 2016,3058,2016,5,COBURG,310,206011497,House
127154,"5/144 NICHOLSON STREET, COBURG",-37.745681,144.977713,2.0,1.0,1,$300_pw,April 2016,3058,2016,4,COBURG,300,206011497,Apartment
127155,"46 BERRY STREET, COBURG",-37.746066,144.95825,3.0,1.0,3,$460_pw,February 2016,3058,2016,2,COBURG,460,206011498,House
127156,"4/15 BRUCE STREET, COBURG",-37.745675,144.947684,3.0,1.0,1,$430_per_week,June 2016,3058,2016,6,COBURG,430,206011498,House
127157,"23A MURRAY STREET, COBURG",-37.738829,144.958816,3.0,1.0,1,$450_pw,June 2016,3058,2016,6,COBURG,450,206011498,House
127158,"23A MURRAY STREET, COBURG",-37.738829,144.958816,3.0,1.0,1,$450_Week,May 2016,3058,2016,5,COBURG,450,206011498,House
127160,"28 SARGOOD STREET, COBURG",-37.747845,144.963683,2.0,1.0,1,$450_Week,November 2016,3058,2016,11,COBURG,450,206011497,Apartment
127161,"28 LINDA STREET, COBURG",-37.750645,144.960192,3.0,1.0,2,$630_per_week,February 2016,3058,2016,2,COBURG,630,206011498,House
127163,"3/618 SYDNEY ROAD, COBURG",-37.735994,144.966585,3.0,1.0,1,$350_Weekly,June 2016,3058,2016,6,COBURG,350,206011497,House
127164,"27 SAUNDERS STREET, COBURG",-37.751542,144.950563,2.0,1.0,0,$430_per_week,January 2016,3058,2016,1,COBURG,430,206011498,Apartment
127165,"3/22 CHAMBERS STREET, COBURG",-37.747267,144.96884,2.0,1.0,1,$370_pw,March 2016,3058,2016,3,COBURG,370,206011497,Apartment
127166,"3/22 CHAMBERS STREET, COBURG",-37.747267,144.96884,2.0,1.0,1,$370_pw,February 2016,3058,2016,2,COBURG,370,206011497,Apartment
127169,"8/9 THE GROVE, COBURG",-37.7513113,144.9665701,2.0,1.0,1,$350_Week,February 2016,3058,2016,2,COBURG,350,206011497,Apartment
127170,"18/2 ALICE STREET, COBURG",-37.743803,144.957178,2.0,1.0,1,$260_p.w.,January 2016,3058,2016,1,COBURG,260,206011498,Apartment
127171,"22 BELGRAVE-GEMBROOK ROAD, COCKATOO",-37.936065,145.494084,3.0,1.0,0,$350_per_week,February 2016,3781,2016,2,COCKATOO,350,212011289,House
127172,"2 BELGRAVE AVENUE, COCKATOO",-37.92732,145.495818,4.0,2.0,6,$380,January 2016,3781,2016,1,COCKATOO,380,212011289,House
127178,"55 FIRST AVENUE, COCKATOO",-37.941172,145.486123,3.0,1.0,3,$335_per_week,April 2016,3781,2016,4,COCKATOO,335,212011289,House
127181,"1/27 DOWLING STREET, COLAC",-38.351997,143.582613,3.0,1.0,1,$280_per_week,July 2016,3250,2016,7,COLAC,280,217031472,House
127189,"22 GRAVESEND STREET, COLAC",-38.346357,143.5853,3.0,2.0,1,$300_per_week,November 2016,3250,2016,11,COLAC,300,217031472,House
127197,"21 KILLARA ROAD, COLDSTREAM",-37.722431,145.390804,4.0,1.0,2,$450_p.w.,October 2016,3770,2016,10,COLDSTREAM,450,211051278,House
127200,"33 CHURCH STREET, COLERAINE",-37.60373,141.696369,3.0,1.0,1,$150_per_week,September 2016,3315,2016,9,COLERAINE,150,217011423,House
127201,"3844 GLENELG HIGHWAY, COLERAINE",-37.59233633,141.6458652,3.0,1.0,2,$250_pw,July 2016,3315,2016,7,COLERAINE,250,217011423,House
127204,"3844 GLENELG HWY, COLERAINE",-37.591537,141.645956,3.0,1.0,2,$250_p.w.,August 2016,3315,2016,8,COLERAINE,250,217011423,House
127205,"3844 GLENELG HWY, COLERAINE",-37.591537,141.645956,3.0,1.0,2,$250_Weekly,July 2016,3315,2016,7,COLERAINE,250,217011423,House
127206,"24 WHYTE STREET, COLERAINE",-37.598971,141.698224,3.0,1.0,0,$160_per_week,July 2016,3315,2016,7,COLERAINE,160,217011423,House
127207,"2620 GLENELG HIGHWAY, COLERAINE",-37.621716,141.773629,3.0,1.0,2,$200_per_week,June 2016,3315,2016,6,COLERAINE,200,217011423,House
127208,"51 MCCONOCHIE STREET, COLERAINE",-37.602501,141.694156,3.0,1.0,1,$170,January 2016,3315,2016,1,COLERAINE,170,217011423,House
127209,"51 MCCONOCHIE ST, COLERAINE",-37.602501,141.694156,3.0,1.0,1,$170_Weekly,January 2016,3315,2016,1,COLERAINE,170,217011423,House
127210,"3 MCCONOCHIE ST, COLERAINE",-37.603077,141.700024,2.0,1.0,0,$150_Weekly,January 2016,3315,2016,1,COLERAINE,150,217011423,Apartment
127212,"2/19-23 BENDIGO STREET, COLLINGWOOD",-37.795915,144.992664,1.0,1.0,1,$240_per_week,June 2016,3066,2016,6,COLLINGWOOD,240,206071141,Apartment
127213,"501/41 PEEL STREET, COLLINGWOOD",-37.8054248,144.985715,2.0,2.0,1,$575_pw,October 2016,3066,2016,10,COLLINGWOOD,575,206071141,House
127214,"2/136 OXFORD STREET, COLLINGWOOD",-37.803526,144.985039,2.0,1.0,1,$695_Week,September 2016,3066,2016,9,COLLINGWOOD,695,206071141,Apartment
127215,"305/10 STANLEY STREET, COLLINGWOOD",-37.80182,144.984563,3.0,1.0,1,$630_pw,February 2016,3066,2016,2,COLLINGWOOD,630,206071141,House
127216,"18/34 SMITH STREET, COLLINGWOOD",-37.807413,144.983606,1.0,1.0,1,$395_pw,January 2016,3066,2016,1,COLLINGWOOD,395,206071141,Apartment
127217,"14/34 SMITH STREET, COLLINGWOOD",-37.8072953,144.9828207,1.0,1.0,1,$395_per_week,February 2016,3066,2016,2,COLLINGWOOD,395,206071142,Apartment
127222,"2/45 DERBY STREET, COLLINGWOOD",-37.807164,144.984949,2.0,1.0,0,$450_pw,September 2016,3066,2016,9,COLLINGWOOD,450,206071141,Apartment
127223,"304/44 BEDFORD STREET, COLLINGWOOD",-37.801579,144.98484,2.0,1.0,1,$530_per_week,May 2016,3066,2016,5,COLLINGWOOD,530,206071141,Apartment
127224,"405/50 STANLEY STREET, COLLINGWOOD",-37.8022316,144.9857042,1.0,1.0,0,$350,October 2016,3066,2016,10,COLLINGWOOD,350,206071141,Apartment
127230,"506/103-107 OXFORD STREET, COLLINGWOOD",-37.80316,144.984807,2.0,1.0,1,$560_pw,April 2016,3066,2016,4,COLLINGWOOD,560,206071141,Apartment
127231,"9/78 OXFORD STREET, COLLINGWOOD",-37.807815,144.983906,1.0,1.0,1,$395_per_week,January 2016,3066,2016,1,COLLINGWOOD,395,206071141,Apartment
127232,"3/20 BEDFORD STREET, COLLINGWOOD",-37.800633,144.984904,2.0,1.0,1,$700_per_week,September 2016,3066,2016,9,COLLINGWOOD,700,206071141,Apartment
127233,"4GF/50 STANLEY STREET, COLLINGWOOD",-37.8022219,144.9857824,2.0,1.0,1,$530_pw,June 2016,3066,2016,6,COLLINGWOOD,530,206071141,Apartment
127234,"1/119A JOHNSTON STREET, COLLINGWOOD",-37.799669,144.988681,3.0,1.0,0,$500,June 2016,3066,2016,6,COLLINGWOOD,500,206071141,House
127235,"55 CAMPBELL STREET, COLLINGWOOD",-37.802631,144.988995,3.0,1.0,0,$650_pw,October 2016,3066,2016,10,COLLINGWOOD,650,206071141,House
127236,"G01/40 STANLEY STREET, COLLINGWOOD",-37.8021816,144.9853665,1.0,1.0,1,$350_per_week,June 2016,3066,2016,6,COLLINGWOOD,350,206071141,Apartment
127237,"625/45 VICTORIA PARADE, COLLINGWOOD",-37.808835,144.984151,1.0,1.0,0,$255_per_week,June 2016,3066,2016,6,COLLINGWOOD,255,206071141,Apartment
127238,"625/45 VICTORIA PARADE, COLLINGWOOD",-37.808835,144.984151,1.0,1.0,0,$240_per_week,June 2016,3066,2016,6,COLLINGWOOD,240,206071141,Apartment
127240,"6/15-25 OXFORD STREET, COLLINGWOOD",-37.807803,144.984175,2.0,1.0,1,$520_pw,September 2016,3066,2016,9,COLLINGWOOD,520,206071141,Apartment
127241,"6/15-25 OXFORD STREET, COLLINGWOOD",-37.807803,144.984175,2.0,1.0,1,$540_Week,July 2016,3066,2016,7,COLLINGWOOD,540,206071141,Apartment
127247,"235 KNIGHTS ROAD, CONGUPNA",-36.323892,145.458638,3.0,1.0,1,$280_pw,October 2016,3633,2016,10,CONGUPNA,280,216031418,House
127248,"170 KNIGHTS ROAD, CONGUPNA",-36.3242917,145.4508308,4.0,2.0,2,$320_per_week,September 2016,3633,2016,9,CONGUPNA,320,216031418,House
127249,"836 LEMNOS NORTH ROAD, CONGUPNA",-36.290174,145.465332,5.0,2.0,3,$500_Weekly,February 2016,3633,2016,2,CONGUPNA,500,216031418,House
127251,"6 BAENSCHS LANE, CONNEWARRE",-38.2503698,144.3885202,2.0,1.0,0,$320_per_week,October 2016,3228,2016,10,CONNEWARRE,320,203031489,Apartment
127257,"4 EDI COURT, COOLAROO",-37.663448,144.931865,3.0,1.0,1,$315,February 2016,3048,2016,2,COOLAROO,315,210051243,House
127258,"6 LOVAT COURT, COOLAROO",-37.654336,144.930513,3.0,1.0,2,$290_pw,February 2016,3048,2016,2,COOLAROO,290,210051243,House
127265,"26 RYANS ROAD, COONGULLA",-37.892289,146.786497,3.0,2.0,0,$310_pw,February 2016,3860,2016,2,COONGULLA,310,205051101,House
127266,"SKENE COURT, COONGULLA",-37.8948988,146.7843062,3.0,2.0,2,$200_pw,January 2016,3860,2016,1,COONGULLA,200,205051101,House
127268,"635 BUNYIP RIVER ROAD, CORA LYNN",-38.138998,145.623274,3.0,1.0,2,$440,October 2016,3814,2016,10,LYNN,440,212011547,House
127270,"140 CORAGULAC BEEAC ROAD, CORAGULAC",-38.250218,143.5406638,3.0,1.0,0,$200_per_week,June 2016,3249,2016,6,CORAGULAC,200,217031473,House
127271,"170 LINEENS ROAD, CORAGULAC",-38.26738169,143.49958124,4.0,2.0,2,$175,April 2016,3249,2016,4,CORAGULAC,175,217031473,House
127273,"20 WRIGHT STREET, CORINELLA",-38.413258,145.426706,1.0,1.0,2,$200,August 2016,3984,2016,8,CORINELLA,200,205031093,Apartment
127274,"20 WRIGHT STREET, CORINELLA",-38.413258,145.426706,1.0,1.0,2,$180_pw,March 2016,3984,2016,3,CORINELLA,180,205031093,Apartment
127277,"30 INDIANA AVENUE, CORIO",-38.079434,144.357227,3.0,1.0,2,$230,January 2016,3214,2016,1,CORIO,230,203021486,House
127280,"15 GLENELG AVENUE, CORIO",-38.07539,144.352513,3.0,1.0,2,$270_per_week,April 2016,3214,2016,4,CORIO,270,203021486,House
127284,"42 MICHIGAN AVENUE, CORIO",-38.075924,144.366588,3.0,1.0,3,$250,August 2016,3214,2016,8,CORIO,250,203021486,House
127285,"42 MICHIGAN AVENUE, CORIO",-38.075924,144.366588,3.0,1.0,3,$250_pw,July 2016,3214,2016,7,CORIO,250,203021486,House
127289,"5 CAITHNESS CRESCENT, CORIO",-38.073268,144.356933,3.0,1.0,3,$285_pw,March 2016,3214,2016,3,CORIO,285,203021486,House
127290,"5 CAITHNESS CRESCENT, CORIO",-38.073268,144.356933,3.0,1.0,3,$285_pw,February 2016,3214,2016,2,CORIO,285,203021486,House
127291,"72 ONTARIO AVENUE, CORIO",-38.074901,144.360334,3.0,1.0,1,$270_Weekly,August 2016,3214,2016,8,CORIO,270,203021486,House
127292,"3/8-9 FIELDMAN COURT, CORIO",-38.068974,144.350346,2.0,1.0,1,$265_per_week,March 2016,3214,2016,3,CORIO,265,203021486,Apartment
127293,"4 CHESHIRE STREET, CORIO",-38.073003,144.353327,3.0,1.0,4,$285_per_week,February 2016,3214,2016,2,CORIO,285,203021486,House
127294,"4 CHESHIRE STREET, CORIO",-38.073003,144.353327,3.0,1.0,4,$285_per_week,January 2016,3214,2016,1,CORIO,285,203021486,House
127301,"1 BASS HORIZON PROMENADE, CORONET BAY",-38.4384754,145.4448245,3.0,1.0,1,$275,November 2016,3984,2016,11,BAY,275,205031093,House
127302,"32-34 GELLIBRAND STREET, CORONET BAY",-38.435015,145.441309,3.0,2.0,2,$400_Weekly,December 2016,3984,2016,12,BAY,400,205031093,House
127303,"31 SEMAPHORE STREET, CORONET BAY",-38.435789,145.442779,2.0,1.0,1,$250_pw,May 2016,3984,2016,5,BAY,250,205031093,House
127304,"31 SEMAPHORE STREET, CORONET BAY",-38.435789,145.442779,2.0,1.0,1,$250_per_week,April 2016,3984,2016,4,BAY,250,205031093,House
127306,"521 CORANGAMITE LAKE ROAD, COROROOKE",-38.289201,143.522132,3.0,1.0,1,$180_per_week,March 2016,3254,2016,3,COROROOKE,180,217031473,House
127308,"523 CORANGAMITE LAKE ROAD, COROROOKE",-38.2890562,143.5225133,3.0,1.0,2,$190_per_week,August 2016,3254,2016,8,COROROOKE,190,217031473,House
127309,"523 CORANGAMITE LAKE ROAD, COROROOKE",-38.2890562,143.5225133,3.0,1.0,2,$190_per_week,July 2016,3254,2016,7,COROROOKE,190,217031473,House
127312,"406 LAKE CORANGAMITE ROAD, COROROOKE",-38.301174,143.525917,3.0,1.0,3,$220,November 2016,3254,2016,11,COROROOKE,220,217031473,House
127313,"406 LAKE CORANGAMITE ROAD, COROROOKE",-38.301174,143.525917,3.0,1.0,3,$220_Weekly,October 2016,3254,2016,10,COROROOKE,220,217031473,House
127314,"406 LAKE CORANGAMITE ROAD, COROROOKE",-38.301174,143.525917,3.0,1.0,3,$220,July 2016,3254,2016,7,COROROOKE,220,217031473,House
127315,"406 LAKE CORANGAMITE ROAD, COROROOKE",-38.301174,143.525917,3.0,1.0,3,$210_Weekly,February 2016,3254,2016,2,COROROOKE,210,217031473,House
127316,"406 LAKE CORANGAMITE ROAD, COROROOKE",-38.301174,143.525917,3.0,1.0,3,$220,February 2016,3254,2016,2,COROROOKE,220,217031473,House
127317,"406 LAKE CORANGAMITE ROAD, COROROOKE",-38.301174,143.525917,3.0,1.0,3,$210_Weekly,January 2016,3254,2016,1,COROROOKE,210,217031473,House
127318,"280 SHEEHANS ROAD, COROROOKE",-38.292783,143.539885,3.0,1.0,2,$275_per_week,June 2016,3254,2016,6,COROROOKE,275,217031473,House
127327,"5 WARD LANE, COSTERFIELD",-36.878089,144.79851,2.0,1.0,7,$250,April 2016,3523,2016,4,COSTERFIELD,250,202021029,House
127348,"32 TI TREE DRIVE, COWES",-38.456758,145.211969,3.0,2.0,4,$330_per_week,February 2016,3922,2016,2,COWES,330,205031091,House
127352,"39 VENTNOR ROAD, COWES",-38.4633336,145.2319682,5.0,2.0,4,$430,June 2016,3922,2016,6,COWES,430,205031091,House
127355,"8 MELDRUM COURT, COWES",-38.461217,145.231884,4.0,2.0,2,$400,September 2016,3922,2016,9,COWES,400,205031091,House
127357,"2813 TRARALGON-MAFFRA ROAD, COWWARR",-38.0146325,146.7008645,3.0,1.0,2,$295_Weekly,November 2016,3857,2016,11,COWWARR,295,205051102,House
127361,"37 BRENTWICK DRIVE, CRAIGIEBURN",-37.5984433,144.9418164,4.0,2.0,2,$400_per_week,October 2016,3064,2016,10,CRAIGIEBURN,400,210051441,House
127362,"30/8 MORESBY COURT, CRAIGIEBURN",-37.592416,144.905724,2.0,1.0,1,$310_pw,November 2016,3064,2016,11,CRAIGIEBURN,310,210051543,Apartment
127382,"236 CASEY FIELDS BOULEVARD, CRANBOURNE EAST",-38.1088604,145.3099996,4.0,2.0,2,$400_Weekly,January 2016,3977,2016,1,EAST,400,212031557,House
127385,"12 CANMORE STREET, CRANBOURNE EAST",-38.1168705,145.2979864,3.0,2.0,1,$370_Wk,October 2016,3977,2016,10,EAST,370,212031558,House
127389,"6 KARLSON WAY, CRANBOURNE NORTH",-38.0753605,145.3139665,3.0,2.0,2,$380_per_week,June 2016,3977,2016,6,NORTH,380,212031559,House
127390,"6 KARLSON WAY, CRANBOURNE NORTH",-38.0753605,145.3139665,3.0,2.0,2,$380,May 2016,3977,2016,5,NORTH,380,212031559,House
127391,"6 KARLSON WAY, CRANBOURNE NORTH",-38.0753605,145.3139665,3.0,2.0,2,$380_per_week,April 2016,3977,2016,4,NORTH,380,212031559,House
127399,"10 NELSE STREET, CRANBOURNE NORTH",-38.07,145.291,4.0,2.0,2,$400_per_week,July 2016,3977,2016,7,NORTH,400,212031560,House
127408,"18 HARVARD STREET, CRANBOURNE WEST",-38.0960867,145.2678755,3.0,2.0,2,$380_pw,December 2016,3977,2016,12,WEST,380,212031304,House
127410,"1 BAILDOR COURT, CRANBOURNE",-38.121676,145.257406,4.0,2.0,2,$380_per_week,August 2016,3977,2016,8,CRANBOURNE,380,212031300,House
127411,"1 BAILDOR COURT, CRANBOURNE",-38.121676,145.257406,4.0,2.0,2,$380_per_week,July 2016,3977,2016,7,CRANBOURNE,380,212031300,House
127412,"3 TAMWORTH COURT, CRANBOURNE",-38.082578,145.266685,3.0,2.0,2,$330_p.w.,September 2016,3977,2016,9,CRANBOURNE,330,212031300,House
127413,"3 TAMWORTH COURT, CRANBOURNE",-38.082578,145.266685,3.0,2.0,2,$340_pw,July 2016,3977,2016,7,CRANBOURNE,340,212031300,House
127414,"3 TAMWORTH COURT, CRANBOURNE",-38.082578,145.266685,3.0,2.0,2,$345_p.w.,March 2016,3977,2016,3,CRANBOURNE,345,212031300,House
127415,"3 TAMWORTH COURT, CRANBOURNE",-38.082578,145.266685,3.0,2.0,2,$320_p.w.,March 2016,3977,2016,3,CRANBOURNE,320,212031300,House
127423,"4 JAMIE CLOSE, CRANBOURNE",-38.09651947,145.28605652,3.0,1.0,3,$320_per_week,December 2016,3977,2016,12,CRANBOURNE,320,212031300,House
127444,"40 CUNNINGHAM CHASE, BURNSIDE HEIGHTS",-37.735431,144.761693,3.0,2.0,2,$345_Weekly,September 2016,3023,2016,9,HEIGHTS,345,213041462,House
127445,"40 CUNNINGHAM CHASE, BURNSIDE HEIGHTS",-37.735431,144.761693,3.0,2.0,2,$345_Weekly,January 2016,3023,2016,1,HEIGHTS,345,213041462,House
127449,"181 TENTERFIELD DRIVE, BURNSIDE HEIGHTS",-37.735373,144.749425,3.0,2.0,2,$365_per_week,August 2016,3023,2016,8,HEIGHTS,365,213041462,House
127479,"3 SAVIOUR ROAD, BURNSIDE HEIGHTS",-37.7263099,144.7571593,3.0,2.0,1,$395_per_week,August 2016,3023,2016,8,HEIGHTS,395,213041462,House
127480,"3 SAVIOUR ROAD, BURNSIDE HEIGHTS",-37.7263099,144.7571593,3.0,2.0,1,$395_per_week,July 2016,3023,2016,7,HEIGHTS,395,213041462,House
127481,"3 SAVIOUR ROAD, BURNSIDE HEIGHTS",-37.7263099,144.7571593,3.0,2.0,1,$400,June 2016,3023,2016,6,HEIGHTS,400,213041462,House
127482,"3 SAVIOUR ROAD, BURNSIDE HEIGHTS",-37.7263099,144.7571593,3.0,2.0,1,$395_per_week,May 2016,3023,2016,5,HEIGHTS,395,213041462,House
127483,"3 SAVIOUR ROAD, BURNSIDE HEIGHTS",-37.7263099,144.7571593,3.0,2.0,1,$400_pw,March 2016,3023,2016,3,HEIGHTS,400,213041462,House
127491,"14 BARTON ROAD, BURNSIDE HEIGHTS",-37.7262084,144.7576957,4.0,2.0,2,$420_per_week,February 2016,3023,2016,2,HEIGHTS,420,213041462,House
127502,"27 BELLEVILLE CLOSE, BURNSIDE HEIGHTS",-37.7264289,144.7530183,3.0,2.0,2,$390_per_week,September 2016,3023,2016,9,HEIGHTS,390,213041462,House
127503,"120 TENTERFIELD DRIVE, BURNSIDE HEIGHTS",-37.7353732,144.7566062,4.0,2.0,2,$500_per_week,November 2016,3023,2016,11,HEIGHTS,500,213041462,House
127505,"3 COOMA PLACE, BURNSIDE HEIGHTS",-37.73637348,144.74979565,4.0,2.0,2,$450,December 2016,3023,2016,12,HEIGHTS,450,213041462,House
127508,"38 BELLEVILLE CLOSE, BURNSIDE HEIGHTS",-37.7254185,144.7535818,3.0,2.0,1,$380,October 2016,3023,2016,10,HEIGHTS,380,213041462,House
127509,"4 HARWOOD COURT, BURNSIDE HEIGHTS",-37.737019,144.749881,3.0,2.0,2,$370_pw,August 2016,3023,2016,8,HEIGHTS,370,213041462,House
127514,"13 CATANI COURT, BURNSIDE HEIGHTS",-37.727872,144.751261,4.0,2.0,2,$500_pw,December 2016,3023,2016,12,HEIGHTS,500,213041462,House
127517,"39 BELLEVILLE CLOSE, BURNSIDE HEIGHTS",-37.72506,144.753699,4.0,2.0,2,$390_per_week,December 2016,3023,2016,12,HEIGHTS,390,213041462,House
127524,"27 CONNOR DRIVE, BURNSIDE HEIGHTS",-37.7273365,144.7548291,3.0,2.0,2,$450_per_week,November 2016,3023,2016,11,HEIGHTS,450,213041462,House
127530,"12 ROKEWOOD ROAD, BURNSIDE HEIGHTS",-37.7289333,144.754989,4.0,2.0,2,$350_Weekly,November 2016,3023,2016,11,HEIGHTS,350,213041462,House
127544,"9 WYLIE CIRCUIT, BURNSIDE HEIGHTS",-37.732371,144.754002,3.0,2.0,2,$410_per_week,June 2016,3023,2016,6,HEIGHTS,410,213041462,House
127545,"9 WYLIE CIRCUIT, BURNSIDE HEIGHTS",-37.732371,144.754002,3.0,2.0,2,$410_per_week,May 2016,3023,2016,5,HEIGHTS,410,213041462,House
127549,"14 INVERELL STREET, BURNSIDE HEIGHTS",-37.73392925,144.75780529,3.0,2.0,2,$400_Week,May 2016,3023,2016,5,HEIGHTS,400,213041462,House
127550,"14 INVERELL STREET, BURNSIDE HEIGHTS",-37.73392925,144.75780529,3.0,2.0,2,$400_per_week,April 2016,3023,2016,4,HEIGHTS,400,213041462,House
127551,"14 BRUCE STREET, BURNSIDE HEIGHTS",-37.7291705,144.75946184,3.0,2.0,1,$365_per_week,April 2016,3023,2016,4,HEIGHTS,365,213041462,House
127552,"14 BRUCE STREET, BURNSIDE HEIGHTS",-37.7291705,144.75946184,3.0,2.0,1,$365_per_week,May 2016,3023,2016,5,HEIGHTS,365,213041462,House
127553,"61 CONNOR DRIVE, BURNSIDE HEIGHTS",-37.725212,144.7551567,4.0,2.0,2,$430,April 2016,3023,2016,4,HEIGHTS,430,213041462,House
127554,"51 KATRINA DRIVE, BURNSIDE HEIGHTS",-37.72654043,144.75699688,3.0,2.0,1,$420,April 2016,3023,2016,4,HEIGHTS,420,213041462,House
127555,"51 KATRINA DRIVE, BURNSIDE HEIGHTS",-37.72654043,144.75699688,3.0,2.0,1,$420,February 2016,3023,2016,2,HEIGHTS,420,213041462,House
127558,"22 RED BOX CRESCENT, BURNSIDE HEIGHTS",-37.7264289,144.7530183,3.0,2.0,2,$400,March 2016,3023,2016,3,HEIGHTS,400,213041462,House
127560,"5 YELLOWGUM STREET, BURNSIDE HEIGHTS",-37.730507,144.755087,4.0,2.0,2,$450,January 2016,3023,2016,1,HEIGHTS,450,213041462,House
127563,"18 FLEMMING AVENUE, BURNSIDE",-37.748634,144.74286,3.0,1.0,1,$340_per_week,May 2016,3023,2016,5,BURNSIDE,340,213041461,House
127564,"18 FLEMMING AVENUE, BURNSIDE",-37.748634,144.74286,3.0,1.0,1,$340_per_week,April 2016,3023,2016,4,BURNSIDE,340,213041461,House
127566,"13 GRIGORIEVA COURT, BURNSIDE",-37.746501,144.747487,3.0,2.0,1,$325_Weekly,March 2016,3023,2016,3,BURNSIDE,325,213041461,House
127569,"26 BO PEEP ROAD, BURRUMBEET",-37.499055,143.674931,3.0,2.0,2,$475_per_week,January 2016,3352,2016,1,BURRUMBEET,475,201031014,House
127573,"42 BARRY ROAD, BURWOOD EAST",-37.857015,145.152045,3.0,1.0,1,$390_Weekly,April 2016,3151,2016,4,EAST,390,207031166,House
127585,"16 HIGHVIEW GROVE, BURWOOD EAST",-37.853441,145.145522,3.0,1.0,2,$500_pw,May 2016,3151,2016,5,EAST,500,207031166,House
127586,"12/113 BURWOOD HIGHWAY, BURWOOD EAST",-37.851149,145.141632,2.0,1.0,1,$320_per_week,November 2016,3151,2016,11,EAST,320,207031166,Apartment
127587,"12/113 BURWOOD HIGHWAY, BURWOOD EAST",-37.851149,145.141632,2.0,1.0,1,$300,November 2016,3151,2016,11,EAST,300,207031166,Apartment
127591,"2/6 LA FRANK STREET, BURWOOD",-37.852503,145.127205,2.0,2.0,1,$475_per_week,May 2016,3125,2016,5,BURWOOD,475,207031165,House
127592,"140/386 BURWOOD HIGHWAY, BURWOOD",-37.852243,145.130583,1.0,1.0,0,$220_per_week,January 2016,3125,2016,1,BURWOOD,220,207031165,Apartment
127593,"118/386 BURWOOD HIGHWAY, BURWOOD",-37.852243,145.130583,1.0,1.0,0,$220_per_week,November 2016,3125,2016,11,BURWOOD,220,207031165,Apartment
127594,"118/386 BURWOOD HIGHWAY, BURWOOD",-37.852243,145.130583,1.0,1.0,0,$220_per_week,January 2016,3125,2016,1,BURWOOD,220,207031165,Apartment
127595,"1A KEOGH STREET, BURWOOD",-37.855697,145.110241,2.0,1.0,1,$320,October 2016,3125,2016,10,BURWOOD,320,212051319,Apartment
127596,"1A KEOGH STREET, BURWOOD",-37.855697,145.110241,2.0,1.0,1,$320,June 2016,3125,2016,6,BURWOOD,320,212051319,Apartment
127597,"1A KEOGH STREET, BURWOOD",-37.855697,145.110241,2.0,1.0,1,$360,April 2016,3125,2016,4,BURWOOD,360,212051319,Apartment
127599,"127/386 BURWOOD HIGHWAY, BURWOOD",-37.852243,145.130583,1.0,1.0,0,$220_per_week,January 2016,3125,2016,1,BURWOOD,220,207031165,Apartment
127600,"1/5 PEACOCK STREET, BURWOOD",-37.851069,145.116225,4.0,2.0,2,$680_pw,May 2016,3125,2016,5,BURWOOD,680,207031165,House
127601,"1/5 PEACOCK STREET, BURWOOD",-37.851069,145.116225,4.0,2.0,2,$700_pw,May 2016,3125,2016,5,BURWOOD,700,207031165,House
127605,"2/13 CROMWELL STREET, BURWOOD",-37.851928,145.105213,2.0,1.0,2,$430_pw,November 2016,3125,2016,11,BURWOOD,430,207031165,Apartment
127607,"6 CROPLEY COURT, BURWOOD",-37.847035,145.110279,3.0,1.0,1,$490_p.w.,November 2016,3125,2016,11,BURWOOD,490,207031165,House
127609,"4 MAIDEN COURT, BURWOOD",-37.8577,145.109172,4.0,2.0,2,$700_pw,May 2016,3125,2016,5,BURWOOD,700,212051319,House
127610,"4 MAIDEN COURT, BURWOOD",-37.8577,145.109172,4.0,2.0,2,$750_pw,April 2016,3125,2016,4,BURWOOD,750,212051319,House
127636,"1/66 BRIDGE ROAD, BUSHFIELD",-38.323566,142.498116,1.0,1.0,1,$195_pw,March 2016,3281,2016,3,BUSHFIELD,195,217041479,Apartment
127637,"220 SPRING FLAT ROAD, BUSHFIELD",-38.3298325,142.5339478,5.0,3.0,2,$330_per_week,May 2016,3281,2016,5,BUSHFIELD,330,217041477,House
127639,"11 BARRIES ROAD, BUSHFIELD",-38.327009,142.508475,4.0,1.0,2,$310,February 2016,3281,2016,2,BUSHFIELD,310,217041479,House
127641,"4 STEAVENSON ROAD, BUXTON",-37.418685,145.700959,2.0,1.0,0,$310_Weekly,September 2016,3711,2016,9,BUXTON,310,204011054,Apartment
127642,"4 STEAVENSON ROAD, BUXTON",-37.418685,145.700959,2.0,1.0,0,$310_Weekly,February 2016,3711,2016,2,BUXTON,310,204011054,Apartment
127643,"4 STEAVENSON ROAD, BUXTON",-37.418685,145.700959,2.0,1.0,0,$300_per_week,January 2016,3711,2016,1,BUXTON,300,204011054,Apartment
127648,"13 DARBYSHIRE STREET, BYADUK NORTH",-37.893047,141.956628,3.0,2.0,3,$240,June 2016,3300,2016,6,NORTH,240,217011423,House
127649,"5370 MIDLAND HIGHWAY, BYRNESIDE",-36.423507,145.171182,4.0,2.0,2,$300_pw,April 2016,3617,2016,4,BYRNESIDE,300,216031419,House
127658,"22 FLOWERDALE ROAD, CAIRNLEA",-37.757928,144.780529,3.0,2.0,2,$400_pw,September 2016,3023,2016,9,CAIRNLEA,400,213011329,House
127660,"9 SILVERDALE WALK, CAIRNLEA",-37.765551,144.797567,4.0,2.0,2,$450_per_week,September 2016,3023,2016,9,CAIRNLEA,450,213011329,House
127663,"0 EDENS ROAD, CALDERMEADE",-38.2375242,145.5486417,3.0,2.0,2,$350_per_week,October 2016,3984,2016,10,CALDERMEADE,350,212011548,House
127664,"24 ALIZA AVENUE, CALIFORNIA GULLY",-36.722933,144.271314,4.0,2.0,2,$310_pw,December 2016,3556,2016,12,GULLY,310,202011019,House
127665,"24 ALIZA AVENUE, CALIFORNIA GULLY",-36.722933,144.271314,4.0,2.0,2,$310_pw,February 2016,3556,2016,2,GULLY,310,202011019,House
127667,"2/14A NELSON STREET, CALIFORNIA GULLY",-36.7296362,144.2607154,2.0,2.0,1,$270_per_week,November 2016,3556,2016,11,GULLY,270,202011019,House
127668,"96 NELSON STREET, CALIFORNIA GULLY",-36.7254756,144.2710199,3.0,1.0,1,$260,April 2016,3556,2016,4,GULLY,260,202011019,House
127676,"1/2 CALLANISH ROAD, CAMBERWELL",-37.846033,145.08801,2.0,1.0,1,$550_per_week,November 2016,3124,2016,11,CAMBERWELL,550,207011149,Apartment
127677,"1/2 CALLANISH ROAD, CAMBERWELL",-37.846033,145.08801,2.0,1.0,1,$550_per_week,August 2016,3124,2016,8,CAMBERWELL,550,207011149,Apartment
127678,"1/3 HALLEY AVENUE, CAMBERWELL",-37.846282,145.069709,3.0,2.0,2,$525_per_week,July 2016,3124,2016,7,CAMBERWELL,525,207011149,House
127680,"502/1101 TOORAK ROAD, CAMBERWELL",-37.847719,145.075153,1.0,1.0,1,$370_pw,April 2016,3124,2016,4,CAMBERWELL,370,207011149,Apartment
127681,"3/171 WATTLE VALLEY ROAD, CAMBERWELL",-37.844802,145.079919,3.0,1.0,2,$650_pw,November 2016,3124,2016,11,CAMBERWELL,650,207011149,House
127682,"32 BRINSLEY ROAD, CAMBERWELL",-37.8289031,145.0683588,3.0,2.0,1,$850_pw,October 2016,3124,2016,10,CAMBERWELL,850,207011149,House
127683,"9/5 FERMANAGH ROAD, CAMBERWELL",-37.8295344,145.0610323,2.0,1.0,1,$490_pw,November 2016,3124,2016,11,CAMBERWELL,490,207011149,Apartment
127684,"G09/1011 TOORAK ROAD, CAMBERWELL",-37.846539,145.066323,2.0,2.0,1,$490_pw,December 2016,3124,2016,12,CAMBERWELL,490,207011149,House
127685,"22 ACHERON AVENUE, CAMBERWELL",-37.841322,145.065559,3.0,1.0,1,$520,November 2016,3124,2016,11,CAMBERWELL,520,207011149,House
127686,"206/6 BUTLER STREET, CAMBERWELL",-37.83304,145.059682,2.0,1.0,1,$500_per_week,May 2016,3124,2016,5,CAMBERWELL,500,207011149,Apartment
127687,"15 WARBURTON ROAD, CAMBERWELL",-37.825922,145.070219,3.0,1.0,1,$680_pw,April 2016,3124,2016,4,CAMBERWELL,680,207011149,House
127688,"15 WARBURTON ROAD, CAMBERWELL",-37.825922,145.070219,3.0,1.0,1,$680_pw,March 2016,3124,2016,3,CAMBERWELL,680,207011149,House
127689,"7 OBERWYL ROAD, CAMBERWELL",-37.846258,145.085261,4.0,2.0,3,$850_pw,December 2016,3124,2016,12,CAMBERWELL,850,207011149,House
127690,"7 OBERWYL ROAD, CAMBERWELL",-37.846258,145.085261,4.0,2.0,3,$850_pw,November 2016,3124,2016,11,CAMBERWELL,850,207011149,House
127691,"41 CHRISTOWEL STREET, CAMBERWELL",-37.83778,145.067185,4.0,2.0,3,$1020_pw,December 2016,3124,2016,12,CAMBERWELL,1020,207011149,House
127692,"2/5 ACHERON AVENUE, CAMBERWELL",-37.840754,145.066327,2.0,1.0,1,$400_per_week,March 2016,3124,2016,3,CAMBERWELL,400,207011149,Apartment
127698,"102 ROWELL AVE, CAMBERWELL",-37.84411,145.059724,3.0,2.0,2,$1100_pw,May 2016,3124,2016,5,CAMBERWELL,1100,207011149,House
127699,"1 LOCKHART STREET, CAMBERWELL",-37.835306,145.088024,4.0,2.0,2,$720_pw,June 2016,3124,2016,6,CAMBERWELL,720,207011149,House
127700,"58 TRAFALGAR ROAD, CAMBERWELL",-37.8341672,145.0631205,3.0,2.0,2,$620_pw,August 2016,3124,2016,8,CAMBERWELL,620,207011149,House
127701,"72 SPENCER ROAD, CAMBERWELL",-37.82643,145.070918,3.0,2.0,2,$790_pw,November 2016,3124,2016,11,CAMBERWELL,790,207011149,House
127702,"555 BURKE ROAD, CAMBERWELL",-37.843145,145.054238,5.0,2.0,2,$900_pw,December 2016,3124,2016,12,CAMBERWELL,900,207011152,House
127703,"3 DONNA BUANG STREET, CAMBERWELL",-37.84434,145.064707,4.0,3.0,2,$780_pw,March 2016,3124,2016,3,CAMBERWELL,780,207011149,House
127705,"3/894-896 TOORAK ROAD, CAMBERWELL",-37.84629822,145.05543518,3.0,2.0,1,$570_per_week,March 2016,3124,2016,3,CAMBERWELL,570,207011150,House
127706,"68A HUNTER ROAD, CAMBERWELL",-37.838237,145.090443,4.0,3.0,2,$1100_pw,May 2016,3124,2016,5,CAMBERWELL,1100,207011149,House
127709,"500 FLINDERS STREET, MELBOURNE",-37.820019,144.957827,1.0,1.0,0,$290_per_week,May 2016,3000,2016,5,MELBOURNE,290,206041505,Apartment
127710,"215/181 EXHIBITION STREET, MELBOURNE",-37.811484,144.969898,1.0,1.0,1,$550_pw,June 2016,3000,2016,6,MELBOURNE,550,206041503,Apartment
127711,"3405/500 ELIZABETH STREET, MELBOURNE",-37.8071889,144.9603559,3.0,2.0,1,$800_per_week,May 2016,3000,2016,5,MELBOURNE,800,206041504,House
127712,"2612/500 ELIZABETH STREET, MELBOURNE",-37.8071889,144.9603559,2.0,1.0,0,$580_per_week,April 2016,3000,2016,4,MELBOURNE,580,206041504,Apartment
127713,"5106/318 RUSSELL STREET, MELBOURNE",-37.809259,144.9665674,2.0,2.0,0,$690_per_week,March 2016,3000,2016,3,MELBOURNE,690,206041503,House
127714,"1204/31 SPRING STREET, MELBOURNE",-37.814523,144.974164,1.0,1.0,1,$485_per_week,March 2016,3000,2016,3,MELBOURNE,485,206041503,Apartment
127715,"502/5 SUTHERLAND STREET, MELBOURNE",-37.8113855,144.9609182,1.0,1.0,0,$430_per_week,November 2016,3000,2016,11,MELBOURNE,430,206041504,Apartment
127716,"627/118 FRANKLIN STREET, MELBOURNE",-37.808192,144.958953,1.0,1.0,0,$360_pw,August 2016,3000,2016,8,MELBOURNE,360,206041504,Apartment
127717,"627/118 FRANKLIN STREET, MELBOURNE",-37.808192,144.958953,1.0,1.0,0,$360_per_week,July 2016,3000,2016,7,MELBOURNE,360,206041504,Apartment
127718,"627/118 FRANKLIN STREET, MELBOURNE",-37.808192,144.958953,1.0,1.0,0,$330_per_week,June 2016,3000,2016,6,MELBOURNE,330,206041504,Apartment
127719,"1214/555 FLINDERS STREET, MELBOURNE",-37.8208706,144.9562331,1.0,1.0,0,$380_Weekly,November 2016,3000,2016,11,MELBOURNE,380,206041505,Apartment
127720,"511/547 FLINDERS LANE, MELBOURNE",-37.820018,144.955842,1.0,1.0,0,$350_pw,May 2016,3000,2016,5,MELBOURNE,350,206041505,Apartment
127721,"1510/22-24 JANE BELL LANE, MELBOURNE",-37.8102038,144.9661963,1.0,1.0,1,$480_pw,March 2016,3000,2016,3,MELBOURNE,480,206041504,Apartment
127722,"2703/8 EXPLORATION LANE, MELBOURNE",-37.8092558,144.9683848,2.0,2.0,0,$600_per_week,January 2016,3000,2016,1,MELBOURNE,600,206041503,House
127723,"508/455 ELIZABETH STREET, MELBOURNE",-37.808459,144.960167,2.0,1.0,0,$500_per_week,April 2016,3000,2016,4,MELBOURNE,500,206041504,Apartment
127724,"508/455 ELIZABETH STREET, MELBOURNE",-37.808459,144.960167,2.0,1.0,0,$500_per_week,March 2016,3000,2016,3,MELBOURNE,500,206041504,Apartment
127725,"907/5 SUTHERLAND STREET, MELBOURNE",-37.8113855,144.9609182,1.0,1.0,0,$480_per_week,January 2016,3000,2016,1,MELBOURNE,480,206041504,Apartment
127726,"3305/483 SWANSTON STREET, MELBOURNE",-37.807218,144.962336,2.0,1.0,1,$575_per_week,December 2016,3000,2016,12,MELBOURNE,575,206041504,Apartment
127727,"3410/33 ROSE LANE, MELBOURNE",-37.8154272,144.9542392,2.0,1.0,1,$520_per_week,August 2016,3000,2016,8,MELBOURNE,520,206041505,Apartment
127728,"4706/500 ELIZABETH STREET, MELBOURNE",-37.8072345,144.960246,2.0,2.0,1,$650_per_week,October 2016,3000,2016,10,MELBOURNE,650,206041504,House
127729,"4706/500 ELIZABETH STREET, MELBOURNE",-37.8072345,144.960246,2.0,2.0,1,$650_per_week,September 2016,3000,2016,9,MELBOURNE,650,206041504,House
127730,"4706/500 ELIZABETH STREET, MELBOURNE",-37.8072345,144.960246,2.0,2.0,1,$751_per_week,September 2016,3000,2016,9,MELBOURNE,751,206041504,House
127731,"504/639 LONSDALE STREET, MELBOURNE",-37.8148688,144.9532843,2.0,1.0,0,$475,April 2016,3000,2016,4,MELBOURNE,475,206041505,Apartment
127732,"504/639 LONSDALE STREET, MELBOURNE",-37.8148688,144.9532843,2.0,1.0,0,$475_per_week,March 2016,3000,2016,3,MELBOURNE,475,206041505,Apartment
127733,"925/555 FLINDERS STREET, MELBOURNE",-37.821153,144.956585,2.0,2.0,1,$500_per_week,June 2016,3000,2016,6,MELBOURNE,500,206041505,House
127734,"925/555 FLINDERS STREET, MELBOURNE",-37.821153,144.956585,2.0,2.0,1,$500_per_week,May 2016,3000,2016,5,MELBOURNE,500,206041505,House
127735,"2113/33 MACKENZIE STREET, MELBOURNE",-37.8076818,144.9668306,1.0,1.0,0,$430_pw,July 2016,3000,2016,7,MELBOURNE,430,206041503,Apartment
127736,"2910/668 BOURKE STREET, MELBOURNE",-37.8166424,144.9543066,2.0,1.0,1,$600_per_week,November 2016,3000,2016,11,MELBOURNE,600,206041505,Apartment
127737,"1707/243 FRANKLIN STREET, MELBOURNE",-37.809699,144.956682,2.0,1.0,0,$540_per_week,July 2016,3000,2016,7,MELBOURNE,540,206041504,Apartment
127738,"1602/270 KING STREET, MELBOURNE",-37.813723,144.954929,3.0,2.0,0,$770_per_week,January 2016,3000,2016,1,MELBOURNE,770,206041505,House
127739,"403/95 BERKELEY STREET, MELBOURNE",-37.8033332,144.9588121,2.0,2.0,1,$560_pw,May 2016,3000,2016,5,MELBOURNE,560,206041117,House
127740,"305/441 LONSDALE STREET, MELBOURNE",-37.813267,144.959325,1.0,1.0,0,$330_pw,April 2016,3000,2016,4,MELBOURNE,330,206041505,Apartment
127741,"2002/25 WILLS STREET, MELBOURNE",-37.8107426,144.956997,1.0,1.0,0,$420_per_week,October 2016,3000,2016,10,MELBOURNE,420,206041504,Apartment
127742,"605/455 ELIZABETH STREET, MELBOURNE",-37.808429,144.960206,2.0,1.0,0,$500_per_week,August 2016,3000,2016,8,MELBOURNE,500,206041504,Apartment
127743,"405/325 COLLINS STREET, MELBOURNE",-37.8168963,144.9634774,2.0,1.0,0,$405_per_week,March 2016,3000,2016,3,MELBOURNE,405,206041505,Apartment
127744,"405/325 COLLINS STREET, MELBOURNE",-37.8168963,144.9634774,2.0,1.0,0,$405_per_week,February 2016,3000,2016,2,MELBOURNE,405,206041505,Apartment
127745,"102/8 BLIGH PLACE, MELBOURNE",-37.817169,144.963782,2.0,2.0,2,$750_per_week,February 2016,3000,2016,2,MELBOURNE,750,206041505,House
127746,"102/8 BLIGH PLACE, MELBOURNE",-37.817169,144.963782,2.0,2.0,2,$845_per_week,January 2016,3000,2016,1,MELBOURNE,845,206041505,House
127747,"5/181 FRANKLIN STREET, MELBOURNE",-37.8086122,144.9590044,2.0,1.0,1,$500_per_week,December 2016,3000,2016,12,MELBOURNE,500,206041504,Apartment
127748,"1011/225 ELIZABETH STREET, MELBOURNE",-37.8131346,144.9624998,1.0,1.0,0,$450_per_week,October 2016,3000,2016,10,MELBOURNE,450,206041505,Apartment
127749,"1011/225 ELIZABETH STREET, MELBOURNE",-37.8131346,144.9624998,1.0,1.0,0,$450_per_week,June 2016,3000,2016,6,MELBOURNE,450,206041505,Apartment
127750,"1011/225 ELIZABETH STREET, MELBOURNE",-37.8131346,144.9624998,1.0,1.0,0,$450_per_week,May 2016,3000,2016,5,MELBOURNE,450,206041505,Apartment
127751,"250 ELIZABETH STREET, MELBOURNE",-37.81278992,144.96253967,1.0,1.0,1,$600_pw,January 2016,3000,2016,1,MELBOURNE,600,206041503,Apartment
127752,"6B/131 LONSDALE STREET, MELBOURNE",-37.810713,144.968409,1.0,1.0,0,$350_per_week,August 2016,3000,2016,8,MELBOURNE,350,206041503,Apartment
127753,"148/139 LONSDALE STREET, MELBOURNE",-37.8114399,144.9685942,2.0,1.0,0,$400_per_week,February 2016,3000,2016,2,MELBOURNE,400,206041503,Apartment
127754,"7/7 DREWERY LANE, MELBOURNE",-37.811101,144.963802,2.0,2.0,1,$650_per_week,March 2016,3000,2016,3,MELBOURNE,650,206041504,House
127755,"1007/565 FLINDERS STREET, MELBOURNE",-37.8210683,144.9558995,2.0,2.0,1,$640_pw,September 2016,3000,2016,9,MELBOURNE,640,206041505,House
127756,"1007/565 FLINDERS STREET, MELBOURNE",-37.8210683,144.9558995,2.0,2.0,1,$675_pw,August 2016,3000,2016,8,MELBOURNE,675,206041505,House
127757,"200 SPENCER STREET, MELBOURNE",-37.81613541,144.95289612,2.0,2.0,1,$50_Weekly,March 2016,3000,2016,3,MELBOURNE,50,206041505,House
127758,"200 SPENCER STREET, MELBOURNE",-37.81613541,144.95289612,2.0,2.0,1,$450_Weekly,January 2016,3000,2016,1,MELBOURNE,450,206041505,House
127759,"1216/199 WILLIAM STREET, MELBOURNE",-37.81456,144.9574098,2.0,1.0,0,$490_per_week,November 2016,3000,2016,11,MELBOURNE,490,206041505,Apartment
127760,"31/398 LA TROBE STREET, MELBOURNE",-37.8113441,144.9580525,1.0,1.0,1,$420_per_week,February 2016,3000,2016,2,MELBOURNE,420,206041505,Apartment
127761,"1404/568 COLLINS STREET, MELBOURNE",-37.8185925,144.9554384,2.0,1.0,0,$485_Weekly,December 2016,3000,2016,12,MELBOURNE,485,206041505,Apartment
127762,"1404/568 COLLINS STREET, MELBOURNE",-37.8185925,144.9554384,2.0,1.0,0,$470_pw,June 2016,3000,2016,6,MELBOURNE,470,206041505,Apartment
127763,"1404/568 COLLINS STREET, MELBOURNE",-37.8185925,144.9554384,2.0,1.0,0,$485,June 2016,3000,2016,6,MELBOURNE,485,206041505,Apartment
127764,"1404/568 COLLINS STREET, MELBOURNE",-37.8185925,144.9554384,2.0,1.0,0,$485_pw,May 2016,3000,2016,5,MELBOURNE,485,206041505,Apartment
127765,"1706/200 SPENCER STREET, MELBOURNE",-37.816257,144.953288,1.0,1.0,1,$812_pw,October 2016,3000,2016,10,MELBOURNE,812,206041505,Apartment
127766,"1706/200 SPENCER STREET, MELBOURNE",-37.816257,144.953288,1.0,1.0,1,$805_pw,September 2016,3000,2016,9,MELBOURNE,805,206041505,Apartment
127767,"1706/200 SPENCER STREET, MELBOURNE",-37.816257,144.953288,1.0,1.0,1,$805_pw,August 2016,3000,2016,8,MELBOURNE,805,206041505,Apartment
127768,"1706/200 SPENCER STREET, MELBOURNE",-37.816257,144.953288,1.0,1.0,1,$805_pw,February 2016,3000,2016,2,MELBOURNE,805,206041505,Apartment
127769,"1706/200 SPENCER STREET, MELBOURNE",-37.816257,144.953288,1.0,1.0,1,$805_pw,January 2016,3000,2016,1,MELBOURNE,805,206041505,Apartment
127770,"2105/39 LONSDALE STREET, MELBOURNE",-37.8097503,144.9711289,2.0,1.0,0,$480_per_week,February 2016,3000,2016,2,MELBOURNE,480,206041503,Apartment
127771,"2803/318 RUSSELL STREET, MELBOURNE",-37.809259,144.9665674,2.0,2.0,0,$650_per_week,January 2016,3000,2016,1,MELBOURNE,650,206041503,House
127772,"412/87 FRANKLIN STREET, MELBOURNE",-37.80802917,144.96168518,1.0,1.0,0,$360_per_week,October 2016,3000,2016,10,MELBOURNE,360,206041504,Apartment
127773,"412/87 FRANKLIN STREET, MELBOURNE",-37.80802917,144.96168518,1.0,1.0,0,$350_pw,April 2016,3000,2016,4,MELBOURNE,350,206041504,Apartment
127774,"110/133 BOURKE STREET, MELBOURNE",-37.812912,144.969358,1.0,1.0,1,$960_pw,November 2016,3000,2016,11,MELBOURNE,960,206041503,Apartment
127775,"110/133 BOURKE STREET, MELBOURNE",-37.812912,144.969358,1.0,1.0,1,$890_pw,November 2016,3000,2016,11,MELBOURNE,890,206041503,Apartment
127776,"110/133 BOURKE STREET, MELBOURNE",-37.812912,144.969358,1.0,1.0,1,$890_pw,August 2016,3000,2016,8,MELBOURNE,890,206041503,Apartment
127777,"110/133 BOURKE STREET, MELBOURNE",-37.812912,144.969358,1.0,1.0,1,$890_pw,June 2016,3000,2016,6,MELBOURNE,890,206041503,Apartment
127778,"110/133 BOURKE STREET, MELBOURNE",-37.812912,144.969358,1.0,1.0,1,$890_pw,April 2016,3000,2016,4,MELBOURNE,890,206041503,Apartment
127779,"110/133 BOURKE STREET, MELBOURNE",-37.812912,144.969358,1.0,1.0,1,$890_pw,February 2016,3000,2016,2,MELBOURNE,890,206041503,Apartment
127780,"110/250 ELIZABETH STREET, MELBOURNE",-37.81261,144.962885,1.0,1.0,1,$1085_pw,December 2016,3000,2016,12,MELBOURNE,1085,206041503,Apartment
127781,"110/250 ELIZABETH STREET, MELBOURNE",-37.81261,144.962885,1.0,1.0,1,$840_pw,November 2016,3000,2016,11,MELBOURNE,840,206041503,Apartment
127782,"110/250 ELIZABETH STREET, MELBOURNE",-37.81261,144.962885,1.0,1.0,1,$840_pw,August 2016,3000,2016,8,MELBOURNE,840,206041503,Apartment
127783,"110/250 ELIZABETH STREET, MELBOURNE",-37.81261,144.962885,1.0,1.0,1,$840_pw,June 2016,3000,2016,6,MELBOURNE,840,206041503,Apartment
127784,"110/250 ELIZABETH STREET, MELBOURNE",-37.81261,144.962885,1.0,1.0,1,$840_pw,April 2016,3000,2016,4,MELBOURNE,840,206041503,Apartment
127785,"110/250 ELIZABETH STREET, MELBOURNE",-37.81261,144.962885,1.0,1.0,1,$840_pw,February 2016,3000,2016,2,MELBOURNE,840,206041503,Apartment
127786,"1206/118 RUSSELL STREET, MELBOURNE",-37.8137175,144.9686425,2.0,1.0,0,$600_per_week,January 2016,3000,2016,1,MELBOURNE,600,206041503,Apartment
127787,"11 ROSE LANE, MELBOURNE",-37.8154577,144.9542662,2.0,1.0,1,$470_-_$490,December 2016,3000,2016,12,MELBOURNE,490,206041505,Apartment
127788,"11 ROSE LANE, MELBOURNE",-37.8154577,144.9542662,2.0,1.0,1,$520_Weekly,January 2016,3000,2016,1,MELBOURNE,520,206041505,Apartment
127789,"11 ROSE LANE, MELBOURNE",-37.8154577,144.9542662,2.0,1.0,1,$570_Weekly,January 2016,3000,2016,1,MELBOURNE,570,206041505,Apartment
127790,"2712/500 ELIZABETH STREET, MELBOURNE",-37.807359,144.960425,2.0,1.0,0,$550_per_week,March 2016,3000,2016,3,MELBOURNE,550,206041504,Apartment
127791,"1207/268 FLINDERS STREET, MELBOURNE",-37.817606,144.965626,1.0,1.0,0,$280_pw,February 2016,3000,2016,2,MELBOURNE,280,206041503,Apartment
127792,"1207/268 FLINDERS STREET, MELBOURNE",-37.817606,144.965626,1.0,1.0,0,$300_pw,January 2016,3000,2016,1,MELBOURNE,300,206041503,Apartment
127793,"1306/500 ELIZABETH STREET, MELBOURNE",-37.8071889,144.9603559,2.0,2.0,0,$610_per_week,June 2016,3000,2016,6,MELBOURNE,610,206041504,House
127794,"10/17 QUEENS ROAD, MELBOURNE",-37.818427,144.9621,1.0,1.0,1,$345_per_week,June 2016,3000,2016,6,MELBOURNE,345,206041505,Apartment
127795,"1106/555 FLINDERS STREET, MELBOURNE",-37.8208706,144.9562331,1.0,1.0,1,$380_per_week,January 2016,3000,2016,1,MELBOURNE,380,206041505,Apartment
127799,"4/215 STATION ROAD, MELTON SOUTH",-37.702766,144.575415,3.0,1.0,1,$310,October 2016,3338,2016,10,SOUTH,310,213041578,House
127800,"7 LACHLAN ROAD, MELTON SOUTH",-37.708849,144.564662,3.0,1.0,2,$250_Weekly,August 2016,3338,2016,8,SOUTH,250,213041578,House
127801,"7 LACHLAN ROAD, MELTON SOUTH",-37.708849,144.564662,3.0,1.0,2,$250_per_week,July 2016,3338,2016,7,SOUTH,250,213041578,House
127802,"4/62 ANDREW STREET, MELTON SOUTH",-37.693571,144.579791,3.0,1.0,1,$265,July 2016,3338,2016,7,SOUTH,265,213041578,House
127803,"4/62 ANDREW STREET, MELTON SOUTH",-37.693571,144.579791,3.0,1.0,1,$265_per_week,June 2016,3338,2016,6,SOUTH,265,213041578,House
127807,"21 GRACE STREET,, MELTON SOUTH",-37.698381,144.572633,3.0,1.0,1,$285_per_week,April 2016,3338,2016,4,SOUTH,285,213041578,House
127813,"1/32 PAUL HARRIS DRIVE, MELTON WEST",-37.675072,144.547215,3.0,2.0,1,$300_per_week,April 2016,3337,2016,4,WEST,300,213041358,House
127814,"1/32 PAUL HARRIS DRIVE, MELTON WEST",-37.675072,144.547215,3.0,2.0,1,$300_per_week,March 2016,3337,2016,3,WEST,300,213041358,House
127819,"13/20-24 PALMERSTON STREET, MELTON",-37.688049,144.584038,3.0,1.0,1,$270_pw,December 2016,3337,2016,12,MELTON,270,213041577,House
127820,"13/20-24 PALMERSTON STREET, MELTON",-37.688049,144.584038,3.0,1.0,1,$271_pw,December 2016,3337,2016,12,MELTON,271,213041577,House
127821,"12/35-47 TULLIDGE STREET, MELTON",-37.688806,144.586444,3.0,2.0,2,$285_per_week,January 2016,3337,2016,1,MELTON,285,213041577,House
127828,"15 BITTERN STREET, MELTON",-37.678635,144.573905,3.0,1.0,2,$275_per_week,November 2016,3337,2016,11,MELTON,275,213041577,House
127829,"42 CORELLA AVENUE, MELTON",-37.674797,144.572193,3.0,1.0,1,$295_per_week,December 2016,3337,2016,12,MELTON,295,213041577,House
127830,"2/61 CHURCH STREET, MELTON",-37.681433,144.578388,2.0,1.0,1,$280_pw,April 2016,3337,2016,4,MELTON,280,213041577,Apartment
127832,"3 CARINA DRIVE, MELTON",-37.682315,144.5689481,3.0,1.0,1,$265,August 2016,3337,2016,8,MELTON,265,213041577,House
127833,"3 CARINA DRIVE, MELTON",-37.682315,144.5689481,3.0,1.0,1,$265,April 2016,3337,2016,4,MELTON,265,213041577,House
127834,"103 CENTENARY AVENUE, MELTON",-37.675225,144.586385,3.0,1.0,2,$310_per_week,July 2016,3337,2016,7,MELTON,310,213041577,House
127835,"103 CENTENARY AVENUE, MELTON",-37.675225,144.586385,3.0,1.0,2,$310_per_week,June 2016,3337,2016,6,MELTON,310,213041577,House
127842,"23 PLOVER STREET, MELTON",-37.677741,144.573378,3.0,2.0,2,$240_pw,September 2016,3337,2016,9,MELTON,240,213041577,House
127844,"2 CASSIA ROAD, MELTON",-37.677862,144.581698,3.0,1.0,2,$260_pw,March 2016,3337,2016,3,MELTON,260,213041577,House
127847,"8 FALCON DRIVE, MELTON",-37.674332,144.575417,3.0,1.0,3,$270_per_week,October 2016,3337,2016,10,MELTON,270,213041577,House
127848,"8 FALCON DRIVE, MELTON",-37.674332,144.575417,3.0,1.0,3,$270_pw,February 2016,3337,2016,2,MELTON,270,213041577,House
127850,"3/60 UNITT STREET, MELTON",-37.681666,144.579066,2.0,1.0,1,$170,May 2016,3337,2016,5,MELTON,170,213041577,House
127851,"9/20-24 PALMERSTON STREET, MELTON",-37.688049,144.584038,3.0,1.0,1,$275_pw,February 2016,3337,2016,2,MELTON,275,213041577,House
127855,"405/7 BALCOMBE ROAD, MENTONE",-37.9820513,145.0706707,2.0,2.0,1,$400_pw,June 2016,3194,2016,6,MENTONE,400,208031190,House
127856,"1/46 RIVIERA STREET, MENTONE",-37.977327,145.073659,1.0,1.0,1,$255,December 2016,3194,2016,12,MENTONE,255,208031190,Apartment
127857,"1/46 RIVIERA STREET, MENTONE",-37.977327,145.073659,1.0,1.0,1,$260,December 2016,3194,2016,12,MENTONE,260,208031190,Apartment
127858,"12/20 FLORENCE STREET, MENTONE",-37.982665,145.061897,2.0,1.0,1,$385_per_week,April 2016,3194,2016,4,MENTONE,385,208031190,Apartment
127859,"3/48 PLUMMER RD, MENTONE",-37.9826713,145.0584897,2.0,1.0,1,$450_per_week,November 2016,3194,2016,11,MENTONE,450,208031190,Apartment
127860,"3/48 PLUMMER ROAD, MENTONE",-37.9826713,145.0584897,2.0,1.0,1,$450_per_week,July 2016,3194,2016,7,MENTONE,450,208031190,Apartment
127861,"3/2 DAVIES STREET, MENTONE",-37.981884,145.062264,1.0,1.0,1,$295_per_week,July 2016,3194,2016,7,MENTONE,295,208031190,Apartment
127862,"21A ALBENCA STREET, MENTONE",-37.979828,145.073926,3.0,2.0,2,$560_p.w,July 2016,3194,2016,7,MENTONE,560,208031190,House
127863,"21A ALBENCA STREET, MENTONE",-37.979828,145.073926,3.0,2.0,2,$560_p.w,June 2016,3194,2016,6,MENTONE,560,208031190,House
127864,"311/7 BALCOMBE ROAD, MENTONE",-37.9820513,145.0706707,1.0,1.0,1,$320_per_week,July 2016,3194,2016,7,MENTONE,320,208031190,Apartment
127865,"311/7 BALCOMBE ROAD, MENTONE",-37.9820513,145.0706707,1.0,1.0,1,$345_per_week,May 2016,3194,2016,5,MENTONE,345,208031190,Apartment
127869,"1/56 BALCOMBE ROAD, MENTONE",-37.981442,145.067602,4.0,2.0,2,$650_pw,March 2016,3194,2016,3,MENTONE,650,208031190,House
127871,"1/103 LOWER DANDENONG ROAD, MENTONE",-37.983059,145.083878,3.0,1.0,2,$460_per_week,February 2016,3194,2016,2,MENTONE,460,208031190,House
127872,"1/35 LEVANTO STREET, MENTONE",-37.978576,145.075432,2.0,1.0,3,$395_per_week,September 2016,3194,2016,9,MENTONE,395,208031190,Apartment
127873,"5/5-7 BRINDISI STREET, MENTONE",-37.983859,145.061616,1.0,1.0,1,$315_per_week,November 2016,3194,2016,11,MENTONE,315,208031190,Apartment
127874,"15/173 BALCOMBE ROAD, MENTONE",-37.98028,145.055356,1.0,1.0,1,$275,November 2016,3194,2016,11,MENTONE,275,208031190,Apartment
127875,"4 HARKIN AVENUE, MENTONE",-37.98681,145.063788,4.0,2.0,2,$760_per_week,April 2016,3194,2016,4,MENTONE,760,208031190,House
127876,"4/29 BOURKE STREET, MENTONE",-37.978441,145.056032,2.0,1.0,1,$360_Weekly,February 2016,3194,2016,2,MENTONE,360,208031190,Apartment
127877,"11/30 SWANSTON STREET, MENTONE",-37.980014,145.065599,1.0,1.0,1,$230,September 2016,3194,2016,9,MENTONE,230,208031190,Apartment
127878,"2/9 COLLINS STREET, MENTONE",-37.978979,145.053695,2.0,1.0,2,$490_pw,June 2016,3194,2016,6,MENTONE,490,208031190,Apartment
127879,"5/57 COLLINS STREET, MENTONE",-37.979198,145.059074,2.0,1.0,1,$420_per_week,December 2016,3194,2016,12,MENTONE,420,208031190,Apartment
127880,"9/2A FLORENCE STREET, MENTONE",-37.982468,145.059018,1.0,1.0,1,$260_pw,July 2016,3194,2016,7,MENTONE,260,208031190,Apartment
127881,"58 ALLANDALE ROAD, MENTONE",-37.979973,145.090697,3.0,1.0,2,$395_per_week,November 2016,3194,2016,11,MENTONE,395,208031190,House
127882,"20/30 MENTONE PARADE, MENTONE",-37.989619,145.065553,1.0,1.0,1,$320_per_week,March 2016,3194,2016,3,MENTONE,320,208031190,Apartment
127883,"35 / 80 BALCOMBE ROAD, MENTONE",-37.98134,145.0654221,2.0,2.0,1,$410_per_week,July 2016,3194,2016,7,MENTONE,410,208031190,House
127884,"35 / 80 BALCOMBE ROAD, MENTONE",-37.98134,145.0654221,2.0,2.0,1,$410_pw,June 2016,3194,2016,6,MENTONE,410,208031190,House
127885,"5/5 OLIVE GROVE, MENTONE",-37.9853792,145.0791225,2.0,1.0,1,$330_per_week,June 2016,3194,2016,6,MENTONE,330,208031190,Apartment
127886,"5/1 LONG STREET, MENTONE",-37.984809,145.07777,2.0,2.0,1,$550,November 2016,3194,2016,11,MENTONE,550,208031190,House
127888,"17/44 BOURKE STREET, MENTONE",-37.9749735,145.056644,3.0,1.0,2,$470_per_week,September 2016,3194,2016,9,MENTONE,470,208031190,House
127889,"302/144 COLLINS STREET, MENTONE",-37.98104,145.069109,2.0,2.0,1,$390_pw,May 2016,3194,2016,5,MENTONE,390,208031190,House
127890,"302/144 COLLINS STREET, MENTONE",-37.98104,145.069109,2.0,2.0,1,$390_pw,April 2016,3194,2016,4,MENTONE,390,208031190,House
127891,"302/144 COLLINS STREET, MENTONE",-37.98104,145.069109,2.0,2.0,1,$400_pw,January 2016,3194,2016,1,MENTONE,400,208031190,House
127892,"1/14 MILAN STREET, MENTONE",-37.986688,145.059913,2.0,1.0,2,$350_per_week,October 2016,3194,2016,10,MENTONE,350,208031190,Apartment
127893,"7 WARRIGAL ROAD, MENTONE",-37.993156,145.069069,4.0,3.0,2,$780_per_week,June 2016,3194,2016,6,MENTONE,780,208031190,House
127894,"3/24 ALBENCA STREET, MENTONE",-37.979639,145.074515,2.0,1.0,1,$280,December 2016,3194,2016,12,MENTONE,280,208031190,Apartment
127897,"69B MENZIES ROAD, MENZIES CREEK",-37.923394,145.418149,1.0,1.0,0,$250_per_week,March 2016,3159,2016,3,CREEK,250,211051274,Apartment
127902,"469 FIFTH STREET, MERBEIN SOUTH",-34.1817514,142.0182579,4.0,1.0,0,$220_per_week,August 2016,3505,2016,8,SOUTH,220,215021396,House
127905,"2 HOCKING COURT, MERBEIN",-34.164494,142.067237,3.0,2.0,2,$350_pw,August 2016,3505,2016,8,MERBEIN,350,215021396,House
127906,"2 HOCKING COURT, MERBEIN",-34.164494,142.067237,3.0,2.0,2,$350_pw,July 2016,3505,2016,7,MERBEIN,350,215021396,House
127907,"2 HOCKING COURT, MERBEIN",-34.164494,142.067237,3.0,2.0,2,$350_pw,February 2016,3505,2016,2,MERBEIN,350,215021396,House
127908,"2 HOCKING COURT, MERBEIN",-34.164494,142.067237,3.0,2.0,2,$350_pw,January 2016,3505,2016,1,MERBEIN,350,215021396,House
127909,"4/44 COMMERCIAL STREET, MERBEIN",-34.168337,142.057207,2.0,1.0,1,$170_pw,March 2016,3505,2016,3,MERBEIN,170,215021396,Apartment
127910,"86 CHAFFEY STREET, MERBEIN",-34.16753,142.068288,3.0,1.0,2,$210_pw,February 2016,3505,2016,2,MERBEIN,210,215021396,House
127911,"4/107 COMMERCIAL STREET, MERBEIN",-34.167521,142.06157,2.0,1.0,1,$220_per_week,September 2016,3505,2016,9,MERBEIN,220,215021396,Apartment
127912,"4/107 COMMERCIAL STREET, MERBEIN",-34.167521,142.06157,2.0,1.0,1,$220_per_week,March 2016,3505,2016,3,MERBEIN,220,215021396,Apartment
127920,"543 BAMGAMIE ROAD, MEREDITH",-37.8794602,143.9868815,4.0,2.0,2,$350,October 2016,3333,2016,10,MEREDITH,350,203011035,House
127921,"1 MOONEY STREET, MEREDITH",-37.84927,144.074987,3.0,1.0,3,$320_p.w.,July 2016,3333,2016,7,MEREDITH,320,203011035,House
127922,"4 BALLAN MEREDITH ROAD, MEREDITH",-37.8405693,144.0779363,3.0,1.0,1,$245_pw,July 2016,3333,2016,7,MEREDITH,245,203011035,House
127927,"16 HOMEBUSH AVENUE, MERNDA",-37.6111914,145.0914241,3.0,2.0,1,$330_per_week,November 2016,3754,2016,11,MERNDA,330,209041532,House
127928,"26 HILLGROVE WAY, MERNDA",-37.5997647,145.0965625,3.0,2.0,2,$330_pw,December 2016,3754,2016,12,MERNDA,330,209041531,House
127929,"26 HILLGROVE WAY, MERNDA",-37.5997647,145.0965625,3.0,2.0,2,$330_pw,November 2016,3754,2016,11,MERNDA,330,209041531,House
127936,"41 BELLINI WAY, MERNDA",-37.610723,145.089741,3.0,2.0,2,$350_per_week,September 2016,3754,2016,9,MERNDA,350,209041532,House
127937,"11 RIORDAN CRESCENT, MERNDA",-37.598599,145.086383,4.0,2.0,2,$380_per_week,January 2016,3754,2016,1,MERNDA,380,209041531,House
127941,"27 PALMERS HILL ROAD, MERRICKS BEACH",-38.397723,145.105504,3.0,1.0,0,$400_per_week,August 2016,3926,2016,8,BEACH,400,214021379,House
127943,"81 BAYVIEW ROAD, MERRICKS BEACH",-38.398661,145.111708,2.0,1.0,1,$310_per_week,February 2016,3926,2016,2,BEACH,310,214021379,Apartment
127944,"2 SPRAY STREET, MERRICKS BEACH",-38.398611,145.106311,3.0,1.0,0,$340_per_week,February 2016,3926,2016,2,BEACH,340,214021379,House
127945,"218 BITTERN DROMANA ROAD, MERRICKS NORTH",-38.352805,145.062379,3.0,2.0,2,$950_pw,June 2016,3926,2016,6,NORTH,950,214021378,House
127946,"218 BITTERN DROMANA ROAD, MERRICKS NORTH",-38.352805,145.062379,3.0,2.0,2,$950_per_week,January 2016,3926,2016,1,NORTH,950,214021378,House
127947,"3488A FRANKSTON-FLINDERS ROAD, MERRICKS",-38.392196,145.084982,4.0,1.0,0,$620_per_week,February 2016,3916,2016,2,MERRICKS,620,214021378,House
127950,"1095 BYRNESIDE-KYABRAM ROAD, MERRIGUM",-36.35022,145.131546,3.0,1.0,0,$230_pw,May 2016,3618,2016,5,MERRIGUM,230,216031419,House
127956,"271 BUTTERCUP ROAD, MERRIJIG",-37.086387,146.24446,2.0,2.0,1,$320_per_week,January 2016,3723,2016,1,MERRIJIG,320,204011057,House
127957,"1915 MT.BULLER ROAD, MERRIJIG",-37.108104,146.265477,3.0,2.0,2,$1408_-_$325_pw,September 2016,3723,2016,9,MERRIJIG,325,204011057,House
127958,"1915 MT.BULLER ROAD, MERRIJIG",-37.108104,146.265477,3.0,2.0,2,$325_per_week,July 2016,3723,2016,7,MERRIJIG,325,204011057,House
127971,"9 MUSKWOOD DRIVE, MICKLEHAM",-37.5709495,144.8914894,4.0,2.0,2,$405_per_week,December 2016,3064,2016,12,MICKLEHAM,405,210051445,House
127972,"148 PAGE STREET, MIDDLE PARK",-37.849643,144.958514,3.0,3.0,0,$850_per_week,November 2016,3206,2016,11,PARK,850,206051128,House
127973,"148 PAGE STREET, MIDDLE PARK",-37.849643,144.958514,3.0,3.0,0,$1000_per_week,October 2016,3206,2016,10,PARK,1000,206051128,House
127974,"6/28 PATTERSON STREET, MIDDLE PARK",-37.854557,144.964909,2.0,2.0,1,$600_pw,October 2016,3206,2016,10,PARK,600,206051128,House
127975,"1/28 PARK ROAD, MIDDLE PARK",-37.853567,144.965505,1.0,1.0,1,$340_per_week,February 2016,3206,2016,2,PARK,340,206051128,Apartment
127976,"149 RICHARDSON STREET, MIDDLE PARK",-37.847498,144.9584658,3.0,2.0,1,$995_pw,July 2016,3206,2016,7,PARK,995,206051128,House
127977,"2/250 BEACONSFIELD PARADE, MIDDLE PARK",-37.853441,144.96086,2.0,1.0,1,$550_pw,September 2016,3206,2016,9,PARK,550,206051128,Apartment
127978,"46 ARMSTRONG STREET, MIDDLE PARK",-37.85101,144.963518,2.0,2.0,0,$860_per_week,September 2016,3206,2016,9,PARK,860,206051128,House
127979,"1/215 BEACONSFIELD PARADE, MIDDLE PARK",-37.852507,144.95892,2.0,1.0,1,$700_pw,March 2016,3206,2016,3,PARK,700,206051128,Apartment
127980,"1/215 BEACONSFIELD PARADE, MIDDLE PARK",-37.852507,144.95892,2.0,1.0,1,$700_pw,February 2016,3206,2016,2,PARK,700,206051128,Apartment
127981,"1/215 BEACONSFIELD PARADE, MIDDLE PARK",-37.852507,144.95892,2.0,1.0,1,$700_pw,January 2016,3206,2016,1,PARK,700,206051128,Apartment
127982,"BEACONSFIELD PARADE, MIDDLE PARK",-37.8537075,144.9606254,2.0,1.0,2,$620_per_week,May 2016,3206,2016,5,PARK,620,206051128,House
127983,"1/70 PATTERSON STREET, MIDDLE PARK",-37.855477,144.966365,2.0,1.0,1,$450_per_week,May 2016,3206,2016,5,PARK,450,206051128,House
127984,"5 WRIGHT STREET, MIDDLE PARK",-37.846219,144.961138,2.0,1.0,0,$850_per_week,September 2016,3206,2016,9,PARK,850,206051128,Apartment
127985,"1/18 PATTERSON STREET, MIDDLE PARK",-37.85435104,144.96452332,2.0,1.0,1,$295_per_week,March 2016,3206,2016,3,PARK,295,206051128,House
127989,"48 ARMSTRONG STREET, MIDDLE PARK",-37.851001,144.963431,2.0,1.0,0,$675_per_week,September 2016,3206,2016,9,PARK,675,206051128,Apartment
127990,"9A ARMSTRONG STREET, MIDDLE PARK",-37.850402,144.964654,2.0,1.0,0,$430_per_week,August 2016,3206,2016,8,PARK,430,206051128,Apartment
127991,"9A ARMSTRONG STREET, MIDDLE PARK",-37.850402,144.964654,2.0,1.0,0,$430_per_week,July 2016,3206,2016,7,PARK,430,206051128,Apartment
127993,"45/225 BEACONSFIELD PARADE, MIDDLE PARK",-37.853032,144.9595977,2.0,2.0,1,$600_pw,January 2016,3206,2016,1,PARK,600,206051128,House
127994,"37 LANGRIDGE STREET, MIDDLE PARK",-37.854419,144.966104,2.0,2.0,1,$802_pw,June 2016,3206,2016,6,PARK,802,206051128,House
127995,"37 LANGRIDGE STREET, MIDDLE PARK",-37.854419,144.966104,2.0,2.0,1,$800_pw,June 2016,3206,2016,6,PARK,800,206051128,House
127996,"10/72 PATTERSON STREET, MIDDLE PARK",-37.855462,144.966635,1.0,1.0,1,$360_per_week,August 2016,3206,2016,8,PARK,360,206051128,Apartment
127997,"10/72 PATTERSON STREET, MIDDLE PARK",-37.855462,144.966635,1.0,1.0,1,$360_per_week,July 2016,3206,2016,7,PARK,360,206051128,Apartment
127998,"78 PATTERSON STREET, MIDDLE PARK",-37.855644,144.966686,3.0,1.0,2,$775_per_week,July 2016,3206,2016,7,PARK,775,206051128,House
128002,"12/225 BEACONSFIELD PARADE, MIDDLE PARK",-37.85359,144.960535,2.0,2.0,1,$650_per_week,March 2016,3206,2016,3,PARK,650,206051128,House
128003,"12/225 BEACONSFIELD PARADE, MIDDLE PARK",-37.85359,144.960535,2.0,2.0,1,$675_per_week,February 2016,3206,2016,2,PARK,675,206051128,House
128004,"54 PARK ROAD, MIDDLE PARK",-37.854164,144.966517,2.0,1.0,0,$610_per_week,July 2016,3206,2016,7,PARK,610,206051128,Apartment
128005,"61 ERSKINE STREET, MIDDLE PARK",-37.847285,144.9592,2.0,1.0,0,$580_per_week,September 2016,3206,2016,9,PARK,580,206051128,Apartment
128006,"61 ERSKINE STREET, MIDDLE PARK",-37.847285,144.9592,2.0,1.0,0,$600_per_week,July 2016,3206,2016,7,PARK,600,206051128,Apartment
128007,"24/195 BEACONSFIELD PARADE, MIDDLE PARK",-37.851652,144.957152,1.0,1.0,1,$425_per_week,August 2016,3206,2016,8,PARK,425,206051128,Apartment
128008,"11/187 BEACONSFIELD PARADE, MIDDLE PARK",-37.8512495,144.9563761,2.0,1.0,1,$420_per_week,February 2016,3206,2016,2,PARK,420,206051128,Apartment
128009,"11A ARMSTRONG STREET, MIDDLE PARK",-37.8504293,144.9646323,3.0,1.0,0,$590_per_week,August 2016,3206,2016,8,PARK,590,206051128,House
128010,"5/106-112 NIMMO STREET, MIDDLE PARK",-37.8523629,144.9601128,2.0,1.0,1,$585_per_week,September 2016,3206,2016,9,PARK,585,206051128,Apartment
128012,"2/51 NIMMO STREET, MIDDLE PARK",-37.850501,144.962039,2.0,1.0,1,$480_pw,October 2016,3206,2016,10,PARK,480,206051128,Apartment
128013,"22/75 PARK ROAD, MIDDLE PARK",-37.854403,144.96796,1.0,1.0,1,$350_pw,October 2016,3206,2016,10,PARK,350,206051128,Apartment
128014,"22/75 PARK ROAD, MIDDLE PARK",-37.854403,144.96796,1.0,1.0,1,$395_pw,May 2016,3206,2016,5,PARK,395,206051128,Apartment
128016,"326 RICHARDSON STREET, MIDDLE PARK",-37.852041,144.965831,2.0,1.0,1,$500_per_week,December 2016,3206,2016,12,PARK,500,206051128,Apartment
128017,"326 RICHARDSON STREET, MIDDLE PARK",-37.852041,144.965831,2.0,1.0,1,$475_per_week,July 2016,3206,2016,7,PARK,475,206051128,House
128020,"1/5-7 HAROLD STREET, MIDDLE PARK",-37.848481,144.961644,1.0,1.0,1,$385_per_week,August 2016,3206,2016,8,PARK,385,206051128,Apartment
128021,"1/5-7 HAROLD STREET, MIDDLE PARK",-37.848481,144.961644,1.0,1.0,1,$385_per_week,July 2016,3206,2016,7,PARK,385,206051128,Apartment
128023,"17/225 BEACONSFIELD PARADE, MIDDLE PARK",-37.85359,144.960535,2.0,2.0,1,$650_pw,April 2016,3206,2016,4,PARK,650,206051128,House
128024,"1/241 BEACONSFIELD PARADE, MIDDLE PARK",-37.853007,144.960268,2.0,1.0,0,$650_pw,February 2016,3206,2016,2,PARK,650,206051128,Apartment
128025,"1/241 BEACONSFIELD PARADE, MIDDLE PARK",-37.853007,144.960268,2.0,1.0,0,$650_pw,January 2016,3206,2016,1,PARK,650,206051128,Apartment
128034,"3171 ONTARIO AVENUE, MILDURA SOUTH",-34.225429,142.093349,3.0,1.0,0,$400_pw,August 2016,3500,2016,8,SOUTH,400,215021470,House
128036,"22 MCKENDRICK AVENUE, MILDURA WEST",-34.193353,142.145939,4.0,2.0,0,$290_pw,May 2016,3500,2016,5,WEST,290,215021469,House
128042,"2/267 CURETON AVENUE, MILDURA",-34.190374,142.175637,2.0,1.0,1,$350_pw,February 2016,3500,2016,2,MILDURA,350,215021469,Apartment
128043,"1/238 DEAKIN AVENUE, MILDURA",-34.194226,142.15218,2.0,1.0,1,$200_pw,October 2016,3500,2016,10,MILDURA,200,215021469,Apartment
128049,"104A EIGHTH STREET, MILDURA",-34.187169,142.165503,2.0,1.0,1,$300_per_week,December 2016,3500,2016,12,MILDURA,300,215021469,Apartment
128050,"104A EIGHTH STREET, MILDURA",-34.187169,142.165503,2.0,1.0,1,$300_per_week,May 2016,3500,2016,5,MILDURA,300,215021469,House
128053,"4/124 THIRTEENTH STREET, MILDURA",-34.192858,142.154618,2.0,1.0,2,$250_pw,June 2016,3500,2016,6,MILDURA,250,215021469,House
128055,"2/3 EILEEN STREET, MILDURA",-34.206123,142.138747,2.0,1.0,1,$180,October 2016,3500,2016,10,MILDURA,180,215021470,Apartment
128057,"591 SAN MATEO AVENUE, MILDURA",-34.2107962,142.1415735,3.0,2.0,1,$280_per_week,August 2016,3500,2016,8,MILDURA,280,215021470,House
128058,"4 PLANT COURT, MILDURA",-34.204522,142.137103,3.0,2.0,2,$340_pw,September 2016,3500,2016,9,MILDURA,340,215021470,House
128062,"537 WALNUT AVENUE, MILDURA",-34.20245,142.13154,3.0,2.0,2,$330_pw,August 2016,3500,2016,8,MILDURA,330,215021470,House
128096,"69 CHAFFEY AVE, MILDURA",-34.180324,142.155741,3.0,2.0,2,$340_Weekly,February 2016,3500,2016,2,MILDURA,340,215021469,House
128100,"1/265 TWELFTH STREET, MILDURA",-34.180731,142.142929,2.0,2.0,1,$290_pw,December 2016,3500,2016,12,MILDURA,290,215021469,House
128101,"1/265 TWELFTH STREET, MILDURA",-34.180731,142.142929,2.0,2.0,1,$290_pw,November 2016,3500,2016,11,MILDURA,290,215021469,House
128107,"27 DE GARIS DRIVE, MILDURA",-34.206252,142.144212,3.0,2.0,2,$300_pw,July 2016,3500,2016,7,MILDURA,300,215021470,House
128108,"27 DE GARIS DRIVE, MILDURA",-34.206252,142.144212,3.0,2.0,2,$320_pw,May 2016,3500,2016,5,MILDURA,320,215021470,House
128109,"12 RURAL DRIVE, MILDURA",-34.168482,142.155965,3.0,2.0,2,$350_per_week,December 2016,3500,2016,12,MILDURA,350,215021469,House
128115,"2/10 DEGARIS DRIVE, MILDURA",-34.204359,142.142685,2.0,1.0,1,$250,October 2016,3500,2016,10,MILDURA,250,215021470,Apartment
128116,"18 BEASY COURT, MILDURA",-34.191089,142.139956,3.0,1.0,2,$265_pw,April 2016,3500,2016,4,MILDURA,265,215021469,House
128117,"18 BEASY COURT, MILDURA",-34.191089,142.139956,3.0,1.0,2,$265_per_week,March 2016,3500,2016,3,MILDURA,265,215021469,House
128118,"1/389 ELEVENTH STREET, MILDURA",-34.178888,142.144255,3.0,2.0,2,$295_per_week,September 2016,3500,2016,9,MILDURA,295,215021469,House
128120,"12 DIAMOND COURT, MILDURA",-34.202193,142.134271,3.0,1.0,2,$290_per_week,May 2016,3500,2016,5,MILDURA,290,215021470,House
128121,"12 DIAMOND COURT, MILDURA",-34.202193,142.134271,3.0,1.0,2,$300_per_week,April 2016,3500,2016,4,MILDURA,300,215021470,House
128122,"2/17 STEVEN STREET, MILDURA",-34.17519,142.151747,2.0,1.0,1,$180_pw,July 2016,3500,2016,7,MILDURA,180,215021469,House
128123,"2/17 STEVEN STREET, MILDURA",-34.17519,142.151747,2.0,1.0,1,$165_per_week,July 2016,3500,2016,7,MILDURA,165,215021469,House
128124,"3 BRAMPTON WAY, MILDURA",-34.196125,142.12298,3.0,2.0,2,$400_per_week,November 2016,3500,2016,11,MILDURA,400,215021470,House
128125,"2/367 DEAKIN AVENUE, MILDURA",-34.201056,142.142727,2.0,1.0,1,$200,May 2016,3500,2016,5,MILDURA,200,215021470,House
128126,"13 ASHWOOD COURT, MILDURA",-34.194723,142.137148,2.0,1.0,2,$240_pw,April 2016,3500,2016,4,MILDURA,240,215021470,House
128127,"13 ASHWOOD COURT, MILDURA",-34.194723,142.137148,2.0,1.0,2,$240_pw,March 2016,3500,2016,3,MILDURA,240,215021470,House
128130,"51 PRINCE OF WALES AVENUE, MILL PARK",-37.658075,145.045058,3.0,1.0,2,$360_Weekly,September 2016,3082,2016,9,PARK,360,209041220,House
128133,"12 FENECH CLOSE, MILL PARK",-37.664271,145.039363,4.0,2.0,3,$410_Wk,December 2016,3082,2016,12,PARK,410,209041221,House
128134,"12 FENECH CLOSE, MILL PARK",-37.664271,145.039363,4.0,2.0,3,$410_Wk,November 2016,3082,2016,11,PARK,410,209041221,House
128136,"52 BUCKMASTER DRIVE, MILL PARK",-37.668874,145.068685,3.0,2.0,2,$335_Weekly,June 2016,3082,2016,6,PARK,335,209041220,House
128151,"2A MIMOSA ROAD, MILL PARK",-37.674501,145.054915,3.0,1.0,2,$360_p.w.,December 2016,3082,2016,12,PARK,360,209041221,House
128152,"7 DALRAY CLOSE, MILL PARK",-37.674597,145.061926,3.0,2.0,2,$350_Weekly,August 2016,3082,2016,8,PARK,350,209041221,House
128153,"12 QUIST COURT, MILL PARK",-37.655738,145.061216,4.0,2.0,2,$440_per_week,December 2016,3082,2016,12,PARK,440,209041220,House
128154,"12 QUIST COURT, MILL PARK",-37.655738,145.061216,4.0,2.0,2,$440_per_week,October 2016,3082,2016,10,PARK,440,209041220,House
128155,"12 QUIST COURT, MILL PARK",-37.655738,145.061216,4.0,2.0,2,$440,September 2016,3082,2016,9,PARK,440,209041220,House
128156,"12 QUIST COURT, MILL PARK",-37.655738,145.061216,4.0,2.0,2,$440_per_week,May 2016,3082,2016,5,PARK,440,209041220,House
128185,"5 KATES COURT, WANDANA HEIGHTS",-38.177965,144.303455,4.0,2.0,2,$570_pw,June 2016,3216,2016,6,HEIGHTS,570,203021042,House
128192,"22 GROSVENOR DRIVE, WANDANA HEIGHTS",-38.169805,144.306652,4.0,3.0,2,$560_Weekly,November 2016,3216,2016,11,HEIGHTS,560,203021042,House
128203,"4/20 CRIBBES ROAD, WANGARATTA",-36.378197,146.314333,2.0,1.0,1,$150_per_week,February 2016,3677,2016,2,WANGARATTA,150,204021066,Apartment
128204,"18A MEDOWRA AVENUE, WANGARATTA",-36.357558,146.306758,3.0,1.0,1,$295_per_week,May 2016,3677,2016,5,WANGARATTA,295,204021066,House
128214,"1 / 19 LANGTREE AVENUE, WANGARATTA",-36.352885,146.301282,2.0,1.0,1,$180_per_week,August 2016,3677,2016,8,WANGARATTA,180,204021066,Apartment
128216,"43 TEMPLETON STREET, WANGARATTA",-36.35172,146.322094,3.0,1.0,2,$240_per_week,May 2016,3677,2016,5,WANGARATTA,240,204021066,House
128223,"46 KINGFISHER DRIVE, WANGARATTA",-36.377815,146.329582,3.0,2.0,2,$370_per_week,March 2016,3677,2016,3,WANGARATTA,370,204021066,House
128224,"46 KINGFISHER DRIVE, WANGARATTA",-36.377815,146.329582,3.0,2.0,2,$370,February 2016,3677,2016,2,WANGARATTA,370,204021066,House
128225,"1/20 CRIBBES ROAD, WANGARATTA",-36.378328,146.314239,2.0,1.0,1,$150_per_week,October 2016,3677,2016,10,WANGARATTA,150,204021066,Apartment
128226,"1/20 CRIBBES ROAD, WANGARATTA",-36.378328,146.314239,2.0,1.0,1,$150_per_week,February 2016,3677,2016,2,WANGARATTA,150,204021066,Apartment
128227,"141 BURKE STREET, WANGARATTA",-36.375582,146.311299,2.0,1.0,3,$210_per_week,November 2016,3677,2016,11,WANGARATTA,210,204021066,Apartment
128228,"4 VIOLET COURT, WANGARATTA",-36.377936,146.327378,4.0,2.0,2,$370_per_week,August 2016,3677,2016,8,WANGARATTA,370,204021066,House
128229,"1/1 MOORE STREET, WANGARATTA",-36.3615192,146.3193887,2.0,1.0,1,$190_pw,March 2016,3677,2016,3,WANGARATTA,190,204021066,Apartment
128231,"2 / 32 CLARK STREET, WANGARATTA",-36.348313,146.313903,2.0,1.0,1,$235_per_week,February 2016,3677,2016,2,WANGARATTA,235,204021066,Apartment
128232,"5 / 20 TEMPLETON STREET, WANGARATTA",-36.351692,146.325071,1.0,1.0,1,$195_per_week,December 2016,3677,2016,12,WANGARATTA,195,204021066,Apartment
128233,"5 / 20 TEMPLETON STREET, WANGARATTA",-36.351692,146.325071,1.0,1.0,1,$195_per_week,June 2016,3677,2016,6,WANGARATTA,195,204021066,Apartment
128241,"13 BRODIE STREET, WANGARATTA",-36.350158,146.304463,3.0,1.0,1,$240_per_week,March 2016,3677,2016,3,WANGARATTA,240,204021066,House
128243,"1 / 136 APPIN STREET, WANGARATTA",-36.343393,146.301065,2.0,1.0,1,$220_per_week,November 2016,3677,2016,11,WANGARATTA,220,204021066,Apartment
128244,"2 / 40 GREEN STREET, WANGARATTA",-36.352979,146.315376,2.0,1.0,1,$150_per_week,April 2016,3677,2016,4,WANGARATTA,150,204021066,Apartment
128245,"3/21 THOMSON STREET, WANGARATTA",-36.3700757,146.3187524,2.0,1.0,1,$280_per_week,November 2016,3677,2016,11,WANGARATTA,280,204021066,Apartment
128246,"3/21 THOMSON STREET, WANGARATTA",-36.3700757,146.3187524,2.0,1.0,1,$280_per_week,October 2016,3677,2016,10,WANGARATTA,280,204021066,Apartment
128247,"26 MURDOCH ROAD, WANGARATTA",-36.364822,146.323771,3.0,1.0,2,$340_per_week,May 2016,3677,2016,5,WANGARATTA,340,204021066,House
128248,"4/39 VICTORY PARADE, WANGARATTA",-36.349174,146.297799,2.0,1.0,1,$200_pw,July 2016,3677,2016,7,WANGARATTA,200,204021066,House
128249,"210 WARRUMYEA ROAD, WANGOOM",-38.3141403,142.6088116,3.0,2.0,4,$370_per_week,April 2016,3279,2016,4,WANGOOM,370,217041477,House
128250,"760 HOPKINS FALLS ROAD, WANGOOM",-38.331343,142.6193907,5.0,2.0,2,$290_Weekly,July 2016,3279,2016,7,WANGOOM,290,217041477,House
128261,"3 APLIN PLACE, WANTIRNA SOUTH",-37.885394,145.22238,4.0,2.0,2,$470_per_week,August 2016,3152,2016,8,SOUTH,470,211011260,House
128271,"14/745 BORONIA ROAD, WANTIRNA",-37.8465843,145.2226802,3.0,2.0,1,$385_pw,August 2016,3152,2016,8,WANTIRNA,385,211011259,House
128273,"4 SELBORNE CLOSE, WANTIRNA",-37.853718,145.237298,4.0,2.0,2,$420_per_week,September 2016,3152,2016,9,WANTIRNA,420,211011259,House
128281,"106 MILPERA CRESCENT, WANTIRNA",-37.858361,145.218404,4.0,2.0,2,$450_pw,July 2016,3152,2016,7,WANTIRNA,450,211011259,House
128282,"2/265 WANTIRNA ROAD, WANTIRNA",-37.8405456,145.227586,2.0,1.0,1,$330_per_week,June 2016,3152,2016,6,WANTIRNA,330,211011259,Apartment
128283,"2/265 WANTIRNA ROAD, WANTIRNA",-37.8405456,145.227586,2.0,1.0,1,$340_per_week,May 2016,3152,2016,5,WANTIRNA,340,211011259,House
128292,"43 HIGHFIELD ROAD, WARBURTON",-37.75381,145.695158,3.0,2.0,2,$380_per_week,December 2016,3799,2016,12,WARBURTON,380,211051286,House
128293,"1/3346 WARBURTON HIGHWAY, WARBURTON",-37.7550098,145.6846228,2.0,1.0,1,$195,November 2016,3799,2016,11,WARBURTON,195,211051286,Apartment
128295,"43 DAMMANS ROAD, WARBURTON",-37.752295,145.692642,4.0,2.0,1,$335,October 2016,3799,2016,10,WARBURTON,335,211051286,House
128296,"33 BRISBANE HILL ROAD, WARBURTON",-37.748594,145.693617,4.0,2.0,0,$300_pw,October 2016,3799,2016,10,WARBURTON,300,211051286,House
128298,"1/3401 WARBURTON HIGHWAY, WARBURTON",-37.753526,145.689079,3.0,1.0,0,$280_pw,August 2016,3799,2016,8,WARBURTON,280,211051286,House
128299,"3 PARK ROAD, WARBURTON",-37.753602,145.699168,4.0,2.0,1,$325_pw,December 2016,3799,2016,12,WARBURTON,325,211051286,House
128308,"46A MOLYNEAUX STREET, WARRACKNABEAL",-36.252546,142.397495,3.0,1.0,2,$185_pw,December 2016,3393,2016,12,WARRACKNABEAL,185,215011394,House
128309,"46A MOLYNEAUX STREET, WARRACKNABEAL",-36.252546,142.397495,3.0,1.0,2,$185_pw,November 2016,3393,2016,11,WARRACKNABEAL,185,215011394,House
128310,"46A MOLYNEAUX STREET, WARRACKNABEAL",-36.252546,142.397495,3.0,1.0,2,$185_pw,February 2016,3393,2016,2,WARRACKNABEAL,185,215011394,House
128311,"1/85 ANDERSON STREET, WARRACKNABEAL",-36.257933,142.39247,1.0,1.0,0,$125_pw,April 2016,3393,2016,4,WARRACKNABEAL,125,215011394,Apartment
128321,"181 SCOTT STREET, WARRACKNABEAL",-36.254197,142.395463,4.0,1.0,3,$225,October 2016,3393,2016,10,WARRACKNABEAL,225,215011394,House
128327,"4/4 DAVINE STREET, WARRAGUL",-38.1551673,145.9465936,3.0,1.0,2,$290_p.w.,March 2016,3820,2016,3,WARRAGUL,290,205011079,House
128331,"79 CLIFFORD STREET, WARRAGUL",-38.15659,145.93904,2.0,1.0,1,$260_per_week,May 2016,3820,2016,5,WARRAGUL,260,205011079,House
128337,"22 GLADSTONE STREET, WARRAGUL",-38.162945,145.9362,3.0,1.0,0,$310_per_week,December 2016,3820,2016,12,WARRAGUL,310,205011079,House
128341,"6 GRANGE CRESCENT, WARRAGUL",-38.157523,145.912869,4.0,2.0,2,$380_pw,September 2016,3820,2016,9,WARRAGUL,380,205011079,House
128349,"3 HASTINGS SQUARE, WARRAGUL",-38.147871,145.935143,3.0,2.0,4,$320_per_week,July 2016,3820,2016,7,WARRAGUL,320,205011079,House
128351,"120 BRYSONS ROAD, WARRANDYTE SOUTH",-37.762117,145.251887,3.0,2.0,4,$500_per_week,January 2016,3134,2016,1,SOUTH,500,211021262,House
128355,"11 HOMEWOOD RISE, WARRANDYTE",-37.742739,145.186644,5.0,4.0,3,$900_per_week,September 2016,3113,2016,9,WARRANDYTE,900,211021262,House
128356,"40 WELLINGTON PARK DRIVE, WARRANWOOD",-37.775683,145.244097,4.0,2.0,2,$530_per_week,July 2016,3134,2016,7,WARRANWOOD,530,211031265,House
128358,"1/189A WONGA ROAD, WARRANWOOD",-37.7794732,145.2491751,3.0,2.0,2,$550_pw,December 2016,3134,2016,12,WARRANWOOD,550,211031265,House
128359,"11/1 MAHERS ROAD, WARRENHEIP",-37.566979,143.938432,2.0,2.0,1,$190_pw,June 2016,3352,2016,6,WARRENHEIP,190,201011481,House
128360,"ROOM 2/21 MAHERS RD, WARRENHEIP",-37.5655121,143.9373233,1.0,1.0,1,$170_Weekly,December 2016,3352,2016,12,WARRENHEIP,170,201011481,Apartment
128361,"ROOM 1/21 MAHERS RD, WARRENHEIP",-37.5654875,143.9399538,1.0,1.0,1,$170_Weekly,April 2016,3352,2016,4,WARRENHEIP,170,201011481,Apartment
128362,"ROOM 5/21 MAHERS ROAD, WARRENHEIP",-37.5654875,143.9399538,1.0,1.0,1,$170_Weekly,May 2016,3352,2016,5,WARRENHEIP,170,201011481,Apartment
128363,"ROOM 5/21 MAHERS RD, WARRENHEIP",-37.5654875,143.9399538,1.0,1.0,1,$170_Weekly,May 2016,3352,2016,5,WARRENHEIP,170,201011481,Apartment
128365,"1/1 MAHERS RAOD, WARRENHEIP",-37.566979,143.938432,3.0,1.0,0,$220_pw,June 2016,3352,2016,6,WARRENHEIP,220,201011481,House
128366,"1/1 MAHERS RAOD, WARRENHEIP",-37.566979,143.938432,3.0,1.0,0,$220_pw,July 2016,3352,2016,7,WARRENHEIP,220,201011481,House
128368,"8/1 MAHERS ROAD, WARRENHEIP",-37.5655587,143.9345329,2.0,1.0,0,$208_pw,May 2016,3352,2016,5,WARRENHEIP,208,201011481,House
128369,"ROOM 6/21 MAHERS ROAD, WARRENHEIP",-37.5654875,143.9399538,1.0,1.0,1,$170,March 2016,3352,2016,3,WARRENHEIP,170,201011481,Apartment
128373,"83 BOSTON DRIVE, WARRNAMBOOL",-38.3607764,142.5063934,4.0,2.0,2,$430,February 2016,3280,2016,2,WARRNAMBOOL,430,217041479,House
128374,"6 DERBY STREET, WARRNAMBOOL",-38.385761,142.504366,3.0,1.0,1,$300_pw,September 2016,3280,2016,9,WARRNAMBOOL,300,217041479,House
128375,"6 / 49 CRAMER STREET, WARRNAMBOOL",-38.376419,142.495224,1.0,1.0,1,$180_per_week,April 2016,3280,2016,4,WARRNAMBOOL,180,217041479,Apartment
128376,"100 FOSTER STREET, WARRNAMBOOL",-38.383104,142.496669,3.0,1.0,1,$270_pw,October 2016,3280,2016,10,WARRNAMBOOL,270,217041479,House
128377,"5 ALSTON COURT, WARRNAMBOOL",-38.369766,142.473061,3.0,2.0,2,$350_pw,August 2016,3280,2016,8,WARRNAMBOOL,350,217041479,House
128378,"13 CRAIG STREET, WARRNAMBOOL",-38.383954,142.498249,3.0,1.0,2,$320_pw,September 2016,3280,2016,9,WARRNAMBOOL,320,217041479,House
128380,"8 CLEVELAND STREET, WARRNAMBOOL",-38.3586367,142.5068036,4.0,2.0,2,$460_pw,April 2016,3280,2016,4,WARRNAMBOOL,460,217041479,House
128383,"3/2 LIVINGSTON COURT, WARRNAMBOOL",-38.372032,142.490952,2.0,1.0,2,$220_per_week,January 2016,3280,2016,1,WARRNAMBOOL,220,217041479,House
128388,"5/44 WELLINGTON STREET, WARRNAMBOOL",-38.38445,142.46981,3.0,1.0,1,$290_per_week,January 2016,3280,2016,1,WARRNAMBOOL,290,217041480,House
128392,"2 / 33 SELBY ROAD, WARRNAMBOOL",-38.386226,142.519651,2.0,1.0,1,$170_pw,September 2016,3280,2016,9,WARRNAMBOOL,170,217041480,Apartment
128393,"WANGOOM ROAD, WARRNAMBOOL",-38.3561366,142.5275152,3.0,2.0,2,$750_pw,June 2016,3280,2016,6,WARRNAMBOOL,750,217041479,House
128398,"1/94 HICKFORD PARADE, WARRNAMBOOL",-38.393236,142.50135,2.0,1.0,1,$195_pw,October 2016,3280,2016,10,WARRNAMBOOL,195,217041480,Apartment
128431,"1/5 NELSON STREET, WARRNAMBOOL",-38.378095,142.492039,1.0,1.0,1,$160_pw,May 2016,3280,2016,5,WARRNAMBOOL,160,217041479,Apartment
128432,"52 LAVA STREET, WARRNAMBOOL",-38.383315,142.489228,2.0,1.0,1,$280,December 2016,3280,2016,12,WARRNAMBOOL,280,217041480,Apartment
128433,"2 / 5 PYE COURT, WARRNAMBOOL",-38.365593,142.484984,2.0,1.0,1,$235_pw,August 2016,3280,2016,8,WARRNAMBOOL,235,217041479,House
128438,"9/4-6 BANYAN STREET, WARRNAMBOOL",-38.387766,142.484389,2.0,1.0,1,$340,June 2016,3280,2016,6,WARRNAMBOOL,340,217041480,Apartment
128439,"9/4-6 BANYAN STREET, WARRNAMBOOL",-38.387766,142.484389,2.0,1.0,1,$340_Weekly,May 2016,3280,2016,5,WARRNAMBOOL,340,217041480,House
128440,"4 DAVEY COURT, WARRNAMBOOL",-38.389433,142.496997,3.0,1.0,1,$260_per_week,December 2016,3280,2016,12,WARRNAMBOOL,260,217041480,House
128441,"4 DAVEY COURT, WARRNAMBOOL",-38.389433,142.496997,3.0,1.0,1,$280_per_week,February 2016,3280,2016,2,WARRNAMBOOL,280,217041480,House
128442,"4 DAVEY COURT, WARRNAMBOOL",-38.389433,142.496997,3.0,1.0,1,$260_per_week,January 2016,3280,2016,1,WARRNAMBOOL,260,217041480,House
128443,"1/55 GARDEN STREET, WARRNAMBOOL",-38.369749,142.503433,2.0,1.0,1,$285_per_week,April 2016,3280,2016,4,WARRNAMBOOL,285,217041479,Apartment
128444,"12 DUIRS STREET, WARRNAMBOOL",-38.382948,142.46442,3.0,1.0,1,$340_Weekly,December 2016,3280,2016,12,WARRNAMBOOL,340,217041480,House
128447,"30 WILSON STREET, WARRNAMBOOL",-38.3771834,142.4522201,3.0,1.0,2,$330,July 2016,3280,2016,7,WARRNAMBOOL,330,217041480,House
128448,"30 WILSON STREET, WARRNAMBOOL",-38.3771834,142.4522201,3.0,1.0,2,$330,June 2016,3280,2016,6,WARRNAMBOOL,330,217041480,House
128453,"11 SOMERS ROAD, WARRNAMBOOL",-38.3746823,142.4799751,2.0,1.0,1,$280_per_week,November 2016,3280,2016,11,WARRNAMBOOL,280,217041479,Apartment
128457,"16 STEVEN STREET, WATERFORD PARK",-37.3008,145.067228,3.0,2.0,2,$280_per_week,December 2016,3658,2016,12,PARK,280,209041224,House
128458,"ADDRESS ON REQUEST, WATERFORD",-37.516238,147.201491,4.0,2.0,2,$360_pw,September 2016,3862,2016,9,WATERFORD,360,205021082,House
128459,"32 DRESDEN DRIVE, WATERWAYS",-38.0131022,145.1396299,4.0,2.0,2,$600_per_week,November 2016,3195,2016,11,WATERWAYS,600,208031183,House
128465,"74 SELLARS STREET, WATSONIA NORTH",-37.697276,145.090541,4.0,2.0,2,$400_Weekly,May 2016,3087,2016,5,NORTH,400,209011204,House
128466,"1/288 GRIMSHAW STREET, WATSONIA NORTH",-37.702285,145.085138,2.0,1.0,2,$355_Weekly,October 2016,3087,2016,10,NORTH,355,209011204,Apartment
128467,"275 THIELEMANNS ROAD, GHERANG",-38.3102375,144.1042742,3.0,1.0,2,$400_Week,December 2016,3240,2016,12,GHERANG,400,203011036,House
128472,"431 MCCOLL ROAD, GIRGARRE",-36.386154,144.989567,3.0,1.0,0,$180_pw,June 2016,3624,2016,6,GIRGARRE,180,216011410,House
128477,"600 COUANGALT ROAD, GISBORNE SOUTH",-37.5409914,144.6158616,2.0,1.0,1,$280,October 2016,3437,2016,10,SOUTH,280,210021232,Apartment
128478,"600 COUANGALT ROAD, GISBORNE SOUTH",-37.5409914,144.6158616,2.0,1.0,1,$400,January 2016,3437,2016,1,SOUTH,400,210021232,Apartment
128487,"1/96 STATION ROAD, GISBORNE",-37.4691582,144.5945707,3.0,2.0,2,$400,June 2016,3437,2016,6,GISBORNE,400,210021232,House
128488,"5/6 FRANCIS CRESCENT, GISBORNE",-37.501492,144.596075,2.0,1.0,1,$320,June 2016,3437,2016,6,GISBORNE,320,210021232,Apartment
128491,"11/3 HAMILTON STREET, GISBORNE",-37.488851,144.593184,1.0,1.0,0,$230_pw,January 2016,3437,2016,1,GISBORNE,230,210021232,Apartment
128493,"44 JACKSONS CREEK WAY, GISBORNE",-37.48595041,144.60387273,4.0,2.0,2,$550_pw,October 2016,3437,2016,10,GISBORNE,550,210021232,House
128495,"1/39 AYLESBURY CRESCENT, GLADSTONE PARK",-37.690487,144.88502,3.0,1.0,1,$400_per_week,August 2016,3043,2016,8,PARK,400,210051245,House
128496,"68A SOUTH CIRCULAR ROAD, GLADSTONE PARK",-37.691556,144.887368,3.0,2.0,2,$430_per_week,January 2016,3043,2016,1,PARK,430,210051245,House
128506,"335 KORRINE ROAD, GLEN ALVIE",-38.5091531,145.6404126,4.0,2.0,2,$320,July 2016,3979,2016,7,ALVIE,320,205031093,House
128510,"1127 GLEN ALVIE ROAD, GLEN ALVIE",-38.47611955,145.63777081,3.0,1.0,4,$350_pw,March 2016,3979,2016,3,ALVIE,350,205031093,House
128511,"ALVIE GLEN, GLEN ALVIE",-38.5011524,145.6573998,3.0,1.0,0,$340_per_week,March 2016,3979,2016,3,ALVIE,340,205031093,House
128514,"3/144 BOORAN ROAD, GLEN HUNTLY",-37.892167,145.037423,2.0,1.0,1,$350_per_week,March 2016,3163,2016,3,HUNTLY,350,208021182,Apartment
128515,"3/144 BOORAN ROAD, GLEN HUNTLY",-37.892167,145.037423,2.0,1.0,1,$350_per_week,February 2016,3163,2016,2,HUNTLY,350,208021182,Apartment
128516,"2/6 MAROONA ROAD, GLEN HUNTLY",-37.888511,145.047604,2.0,1.0,1,$350_pw,June 2016,3163,2016,6,HUNTLY,350,208021176,Apartment
128518,"6/10 ROSEBERRY GROVE, GLEN HUNTLY",-37.888284,145.039976,1.0,1.0,1,$295_per_week,August 2016,3163,2016,8,HUNTLY,295,208021182,Apartment
128519,"8/15 WARATAH AVENUE, GLEN HUNTLY",-37.891661,145.042483,1.0,1.0,1,$271_pw,June 2016,3163,2016,6,HUNTLY,271,208021182,Apartment
128520,"4/133 GRANGE ROAD, GLEN HUNTLY",-37.891371,145.044979,1.0,1.0,1,$350,March 2016,3163,2016,3,HUNTLY,350,208021182,Apartment
128521,"167/115 NEERIM ROAD, GLEN HUNTLY",-37.886764,145.042038,2.0,1.0,1,$410_per_week,January 2016,3163,2016,1,HUNTLY,410,208021182,Apartment
128522,"3 / 1017 GLEN HUNTLY ROAD, GLEN HUNTLY",-37.8893318,145.0414672,2.0,1.0,2,$390_pw,May 2016,3163,2016,5,HUNTLY,390,208021182,House
128523,"3/127 GRANGE ROAD, GLEN HUNTLY",-37.890564,145.044893,1.0,1.0,1,$315_pw,October 2016,3163,2016,10,HUNTLY,315,208021182,Apartment
128524,"102/18 ETNA STREET, GLEN HUNTLY",-37.889967,145.041509,2.0,1.0,1,$440_per_week,August 2016,3163,2016,8,HUNTLY,440,208021182,Apartment
128525,"102/18 ETNA STREET, GLEN HUNTLY",-37.889967,145.041509,2.0,1.0,1,$460_per_week,June 2016,3163,2016,6,HUNTLY,460,208021182,Apartment
128526,"102/18 ETNA STREET, GLEN HUNTLY",-37.889967,145.041509,2.0,1.0,1,$460_per_week,May 2016,3163,2016,5,HUNTLY,460,208021182,Apartment
128529,"143/115 NEERIM ROAD, GLEN HUNTLY",-37.886764,145.042038,2.0,1.0,1,$400_per_week,July 2016,3163,2016,7,HUNTLY,400,208021182,Apartment
128530,"4/22 ROSEBERRY GROVE, GLEN HUNTLY",-37.88731,145.039976,2.0,1.0,1,$340_per_week,July 2016,3163,2016,7,HUNTLY,340,208021182,Apartment
128531,"4/22 ROSEBERRY GROVE, GLEN HUNTLY",-37.88731,145.039976,2.0,1.0,1,$340_per_week,June 2016,3163,2016,6,HUNTLY,340,208021182,Apartment
128532,"2/1223 GLENHUNTLY ROAD, GLEN HUNTLY",-37.889527,145.044491,3.0,1.0,0,$390_per_week,March 2016,3163,2016,3,HUNTLY,390,208021182,House
128535,"5/97 NEERIM ROAD, GLEN HUNTLY",-37.886743,145.040594,2.0,1.0,1,$360_pw,June 2016,3163,2016,6,HUNTLY,360,208021182,Apartment
128536,"127/115 NEERIM ROAD, GLEN HUNTLY",-37.887595,145.04207,2.0,1.0,1,$400_per_week,July 2016,3163,2016,7,HUNTLY,400,208021182,Apartment
128539,"16/1083-1089 GLEN HUNTLY ROAD, GLEN HUNTLY",-37.888579,145.039075,1.0,1.0,1,$325_per_week,December 2016,3163,2016,12,HUNTLY,325,208021182,Apartment
128540,"8/20 ROYAL AVENUE, GLEN HUNTLY",-37.892251,145.042395,2.0,1.0,1,$360_per_week,February 2016,3163,2016,2,HUNTLY,360,208021182,Apartment
128541,"3/115 NEERIM ROAD, GLEN HUNTLY",-37.886764,145.042038,2.0,1.0,1,$400_per_week,July 2016,3163,2016,7,HUNTLY,400,208021182,Apartment
128542,"3/115 NEERIM ROAD, GLEN HUNTLY",-37.886764,145.042038,2.0,1.0,1,$400_per_week,February 2016,3163,2016,2,HUNTLY,400,208021182,Apartment
128543,"3/16 WATTLE AVENUE, GLEN HUNTLY",-37.894674,145.044421,2.0,1.0,1,$390_per_week,December 2016,3163,2016,12,HUNTLY,390,208021182,Apartment
128549,"3/1494 HIGH STREET, GLEN IRIS",-37.858933,145.045227,3.0,3.0,1,$750_per_week,March 2016,3146,2016,3,IRIS,750,208041194,House
128550,"3/1494 HIGH STREET, GLEN IRIS",-37.858933,145.045227,3.0,3.0,1,$750_per_week,January 2016,3146,2016,1,IRIS,750,208041194,House
128551,"3/24 ALBION ROAD, GLEN IRIS",-37.863896,145.064939,2.0,1.0,1,$385_pw,January 2016,3146,2016,1,IRIS,385,207011150,Apartment
128552,"2/46 ESSEX STREET, GLEN IRIS",-37.862757,145.059227,3.0,1.0,1,$500_per_week,April 2016,3146,2016,4,IRIS,500,208041194,House
128557,"102 VALLEY PARADE, GLEN IRIS",-37.852303,145.067499,2.0,1.0,1,$370_pw,April 2016,3146,2016,4,IRIS,370,207011150,Apartment
128558,"6 VENTICH STREET, GLEN IRIS",-37.85639,145.087613,5.0,2.0,1,$750_pw,December 2016,3146,2016,12,IRIS,750,207011150,House
128560,"5/1484 MALVERN ROAD, GLEN IRIS",-37.85414,145.046979,2.0,1.0,1,$340_pw,March 2016,3146,2016,3,IRIS,340,208041194,Apartment
128561,"5/1484 MALVERN ROAD, GLEN IRIS",-37.85414,145.046979,2.0,1.0,1,$339_pw,March 2016,3146,2016,3,IRIS,339,208041194,Apartment
128566,"6 DUNDAS STREET, GLEN IRIS",-37.853794,145.090385,3.0,2.0,1,$735_pw,June 2016,3146,2016,6,IRIS,735,207011150,House
128567,"5/68 ERICA AVENUE, GLEN IRIS",-37.859557,145.0482,2.0,1.0,1,$340_pw,August 2016,3146,2016,8,IRIS,340,208041194,Apartment
128568,"6/68 ERICA AVENUE, GLEN IRIS",-37.859557,145.0482,2.0,1.0,1,$340_pw,February 2016,3146,2016,2,IRIS,340,208041194,Apartment
128569,"6/68 ERICA AVENUE, GLEN IRIS",-37.859557,145.0482,2.0,1.0,1,$296_pw,February 2016,3146,2016,2,IRIS,296,208041194,Apartment
128570,"12/6 CRESWICK STREET, GLEN IRIS",-37.85272,145.044121,2.0,1.0,1,$400_pw,March 2016,3146,2016,3,IRIS,400,208041194,Apartment
128571,"5 CLITUS AVENUE, GLEN IRIS",-37.855829,145.085595,5.0,2.0,2,$820_per_week,January 2016,3146,2016,1,IRIS,820,207011150,House
128572,"2/76 MARTIN ROAD, GLEN IRIS",-37.851987,145.058529,2.0,1.0,1,$430_per_week,April 2016,3146,2016,4,IRIS,430,207011150,Apartment
128573,"2/76 MARTIN ROAD, GLEN IRIS",-37.851987,145.058529,2.0,1.0,1,$450_per_week,March 2016,3146,2016,3,IRIS,450,207011150,Apartment
128574,"7/8 OSBORNE AVENUE, GLEN IRIS",-37.857641,145.046977,2.0,1.0,1,$370_pw,April 2016,3146,2016,4,IRIS,370,208041194,Apartment
128575,"201/1555 MALVERN ROAD, GLEN IRIS",-37.853725,145.047708,2.0,1.0,1,$480_pw,October 2016,3146,2016,10,IRIS,480,208041194,Apartment
128576,"803/770D TOORAK ROAD, GLEN IRIS",-37.846562,145.0469112,2.0,1.0,1,$510_pw,November 2016,3146,2016,11,IRIS,510,207011150,Apartment
128577,"17/56 OSBORNE AVENUE, GLEN IRIS",-37.85235,145.048185,4.0,3.0,2,$800_per_week,August 2016,3146,2016,8,IRIS,800,208041194,House
128578,"8/46 SCOTT GROVE, GLEN IRIS",-37.85461426,145.050354,2.0,1.0,1,$380_pw,May 2016,3146,2016,5,IRIS,380,208041194,House
128579,"8/46 SCOTT GROVE, GLEN IRIS",-37.85461426,145.050354,2.0,1.0,1,$380_pw,April 2016,3146,2016,4,IRIS,380,208041194,Apartment
128580,"9/42 EDGAR STREET, GLEN IRIS",-37.85319,145.046022,1.0,1.0,1,$300_pw,November 2016,3146,2016,11,IRIS,300,208041194,Apartment
128581,"1/19 MAVERSTON STREET, GLEN IRIS",-37.851759,145.079557,2.0,1.0,3,$385_per_week,May 2016,3146,2016,5,IRIS,385,207011150,House
128582,"2/116 GLEN IRIS ROAD, GLEN IRIS",-37.853558,145.066964,2.0,1.0,1,$380_pw,January 2016,3146,2016,1,IRIS,380,207011150,Apartment
128584,"2/53 AINTREE ROAD, GLEN IRIS",-37.857901,145.043686,2.0,1.0,1,$450_per_week,June 2016,3146,2016,6,IRIS,450,208041194,Apartment
128585,"2/130 GLEN IRIS ROAD, GLEN IRIS",-37.8549184,145.0668751,1.0,1.0,1,$320,July 2016,3146,2016,7,IRIS,320,207011150,Apartment
128586,"309/770A TOORAK ROAD, GLEN IRIS",-37.8475454,145.0704473,1.0,1.0,1,$390,October 2016,3146,2016,10,IRIS,390,207011150,Apartment
128587,"309/770A TOORAK ROAD, GLEN IRIS",-37.8475454,145.0704473,1.0,1.0,1,$395_per_week,September 2016,3146,2016,9,IRIS,395,207011150,Apartment
128588,"3/10 NASH STREET, GLEN IRIS",-37.8559227,145.04878235,2.0,1.0,1,$360_pw,April 2016,3146,2016,4,IRIS,360,208041194,Apartment
128589,"11/22 LEOPOLD STREET, GLEN IRIS",-37.859754,145.043455,2.0,1.0,1,$440,July 2016,3146,2016,7,IRIS,440,208041194,Apartment
128590,"9/32 EDGAR STREET, GLEN IRIS",-37.855204,145.045635,2.0,1.0,1,$375_per_week,December 2016,3146,2016,12,IRIS,375,208041194,Apartment
128591,"13/77 EDGAR STREET, GLEN IRIS",-37.8517088,145.0460846,1.0,1.0,1,$300_pw,March 2016,3146,2016,3,IRIS,300,208041194,Apartment
128592,"7/41 OSBORNE AVENUE, GLEN IRIS",-37.854468,145.046702,2.0,1.0,1,$385,October 2016,3146,2016,10,IRIS,385,208041194,Apartment
128594,"2/13 BELMONT AVENUE, GLEN IRIS",-37.857169,145.047543,2.0,1.0,1,$390_pw,February 2016,3146,2016,2,IRIS,390,208041194,Apartment
128595,"11/11 BELMONT AVENUE, GLEN IRIS",-37.85782,145.04799,1.0,1.0,1,$250_pw,February 2016,3146,2016,2,IRIS,250,208041194,Apartment
128596,"77 PARK ROAD, GLEN IRIS",-37.852159,145.056054,4.0,3.0,2,$870_per_week,October 2016,3146,2016,10,IRIS,870,207011150,House
128597,"1/41 OSBORNE AVENUE, GLEN IRIS",-37.854468,145.046702,2.0,1.0,1,$450_per_week,August 2016,3146,2016,8,IRIS,450,208041194,Apartment
