,address,latitude,longitude,nbed,nbath,ncar,price,historical_dates,postcode,year,month,suburb,weekly_rent,SA2_CODE,residence_type
214376,"29-31 ALBERT ROAD, CHILTERN",-36.1499141,146.5995142,4.0,2.0,4,$430,November 2017,3683,2017,11,CHILTERN,430,204031070,House
214382,"13 BURKE STREET, CHILTERN",-36.152878,146.607758,2.0,1.0,1,$250_Weekly,September 2017,3683,2017,9,CHILTERN,250,204031070,Apartment
214383,"222 TOOMEYS LANE, CHINTIN",-37.363602,144.839603,3.0,1.0,2,$560_per_week,January 2017,3756,2017,1,CHINTIN,560,210021235,House
214384,"4 GLENDALE DRIVE, CHIRNSIDE PARK",-37.751383,145.312411,4.0,2.0,2,$385_per_week,February 2017,3116,2017,2,PARK,385,211051275,House
214392,"511-525 RIDGE ROAD, CHRISTMAS HILLS",-37.6593641,145.3008935,3.0,1.0,0,$380_per_week,March 2017,3775,2017,3,HILLS,380,209031212,House
214427,"1/19 BURNS AVENUE, CLAYTON SOUTH",-37.936444,145.134354,2.0,1.0,1,$300_Week,September 2017,3169,2017,9,SOUTH,300,212041310,Apartment
214429,"12 BOTANIC DRIVE, CLAYTON SOUTH",-37.939354,145.13641,3.0,2.0,2,$550,January 2017,3169,2017,1,SOUTH,550,212041310,House
214431,"B218/60 AUTUMN TERRACE, CLAYTON SOUTH",-37.9393196,145.1384859,2.0,2.0,1,$400,April 2017,3169,2017,4,SOUTH,400,212041310,House
214432,"B218/60 AUTUMN TERRACE, CLAYTON SOUTH",-37.9393196,145.1384859,2.0,2.0,1,$400_per_week,March 2017,3169,2017,3,SOUTH,400,212041310,House
214433,"2/33 BROWNING AVENUE, CLAYTON SOUTH",-37.9389684,145.1327188,3.0,1.0,1,$340_Weekly,April 2017,3169,2017,4,SOUTH,340,212041310,House
214434,"2/33 BROWNING AVENUE, CLAYTON SOUTH",-37.9389684,145.1327188,3.0,1.0,1,$340_Weekly,March 2017,3169,2017,3,SOUTH,340,212041310,House
214435,"2/33 BROWNING AVENUE, CLAYTON SOUTH",-37.9389684,145.1327188,3.0,1.0,1,$340_Weekly,February 2017,3169,2017,2,SOUTH,340,212041310,House
214494,"6/10 HILLTOP AVENUE, CLAYTON",-37.905826,145.127234,2.0,1.0,1,$335_per_week,May 2017,3168,2017,5,CLAYTON,335,212051567,Apartment
214495,"6/10 HILLTOP AVENUE, CLAYTON",-37.905826,145.127234,2.0,1.0,1,$335_per_week,April 2017,3168,2017,4,CLAYTON,335,212051567,Apartment
214496,"3/21 FRANCIS STREET, CLAYTON",-37.924041,145.121709,2.0,1.0,1,$380_p.w.,April 2017,3168,2017,4,CLAYTON,380,212051568,Apartment
214497,"3/21 FRANCIS STREET, CLAYTON",-37.924041,145.121709,2.0,1.0,1,$350_p.w.,April 2017,3168,2017,4,CLAYTON,350,212051568,Apartment
214498,"2 / 1452-1454 NORTH ROAD, CLAYTON",-37.914125,145.1205265,2.0,1.0,1,$360_pw,November 2017,3168,2017,11,CLAYTON,360,212051568,Apartment
214500,"9/34 WELLINGTON ROAD, CLAYTON",-37.915995,145.133951,1.0,1.0,1,$260,December 2017,3168,2017,12,CLAYTON,260,212051567,Apartment
214505,"6/1-3 ARNOTT STREET, CLAYTON",-37.916516,145.134721,3.0,1.0,1,$520_per_week,February 2017,3168,2017,2,CLAYTON,520,212051567,House
214506,"10/10 ARNOTT STREET, CLAYTON",-37.9169379,145.1348441,2.0,1.0,1,$360_pw,February 2017,3168,2017,2,CLAYTON,360,212051567,Apartment
214507,"220/1457 NORTH ROAD, CLAYTON",-37.913578,145.124129,1.0,1.0,0,$245_per_week,January 2017,3168,2017,1,CLAYTON,245,212051567,Apartment
214508,"3/320 HAUGHTON ROAD, CLAYTON",-37.919046,145.111712,2.0,1.0,2,$390_per_week,May 2017,3168,2017,5,CLAYTON,390,212051568,Apartment
214510,"2 MORTON STREET, CLAYTON",-37.917033,145.135527,5.0,2.0,2,$165,May 2017,3168,2017,5,CLAYTON,165,212051567,House
214529,"6 VICTOR ROAD, CLEMATIS",-37.929987,145.420214,2.0,1.0,1,$310,July 2017,3782,2017,7,CLEMATIS,310,212011289,House
214531,"29 FENWICK STREET, CLIFTON HILL",-37.789226,144.999862,2.0,1.0,0,$560_pw,September 2017,3068,2017,9,HILL,560,206071145,Apartment
214533,"12/82 ROSENEATH STREET, CLIFTON HILL",-37.793089,144.99717,3.0,2.0,1,$710_Week,November 2017,3068,2017,11,HILL,710,206071145,House
214538,"1/140 ROSENEATH STREET, CLIFTON HILL",-37.7931954,144.9995561,5.0,3.0,0,$1300_per_week,May 2017,3068,2017,5,HILL,1300,206071145,House
214539,"128 NOONE ST, CLIFTON HILL",-37.793754,144.996451,2.0,1.0,0,$550,December 2017,3068,2017,12,HILL,550,206071145,Apartment
214540,"128 NOONE STREET, CLIFTON HILL",-37.793818,144.996434,2.0,1.0,0,$550_pw,December 2017,3068,2017,12,HILL,550,206071145,Apartment
214543,"7/31-33 HEIDELBERG ROAD, CLIFTON HILL",-37.786681,144.997501,2.0,1.0,1,$415_per_week,July 2017,3068,2017,7,HILL,415,206071145,House
214544,"7/41 FENWICK STREET, CLIFTON HILL",-37.788821,144.999765,2.0,1.0,1,$420_pw,January 2017,3068,2017,1,HILL,420,206071145,Apartment
214545,"1 YAMBLA STREET, CLIFTON HILL",-37.792736,145.000619,2.0,1.0,1,$550_pw,October 2017,3068,2017,10,HILL,550,206071145,Apartment
214546,"1/81 FIELD STREET, CLIFTON HILL",-37.7921964,145.0022619,2.0,1.0,1,$520_pw,August 2017,3068,2017,8,HILL,520,206071145,Apartment
214547,"1/81 FIELD STREET, CLIFTON HILL",-37.7921964,145.0022619,2.0,1.0,1,$520_pw,July 2017,3068,2017,7,HILL,520,206071145,Apartment
214548,"4/15 ANDERSON STREET, CLIFTON HILL",-37.792677,144.99261,2.0,1.0,1,$390_pw,January 2017,3068,2017,1,HILL,390,206071145,Apartment
214549,"16/16 THE ESPLANADE, CLIFTON HILL",-37.7879444,145.0061292,1.0,1.0,1,$300_per_week,November 2017,3068,2017,11,HILL,300,206071145,Apartment
214551,"22 GROOM STREET, CLIFTON HILL",-37.793529,144.997952,2.0,2.0,1,$450_per_week,April 2017,3068,2017,4,HILL,450,206071145,House
214552,"22 GROOM STREET, CLIFTON HILL",-37.793529,144.997952,2.0,2.0,1,$450_per_week,March 2017,3068,2017,3,HILL,450,206071145,House
214554,"10 ANDERSON ST, CLIFTON HILL",-37.792765,144.993104,2.0,1.0,1,$580,January 2017,3068,2017,1,HILL,580,206071145,Apartment
214555,"10 ANDERSON STREET, CLIFTON HILL",-37.792946,144.993254,2.0,1.0,1,$580_per_week,February 2017,3068,2017,2,HILL,580,206071145,Apartment
214556,"57 DALLY STREET, CLIFTON HILL",-37.792276,144.997986,2.0,1.0,1,$575_per_week,October 2017,3068,2017,10,HILL,575,206071145,Apartment
214557,"30 WRIGHT STREET, CLIFTON HILL",-37.78906,145.00174,2.0,1.0,1,$600_pw,January 2017,3068,2017,1,HILL,600,206071145,Apartment
214558,"78 RAMSDEN STREET, CLIFTON HILL",-37.79056,144.999593,3.0,1.0,2,$790_pw,August 2017,3068,2017,8,HILL,790,206071145,House
214559,"53 ROSENEATH STREET, CLIFTON HILL",-37.792369,144.996191,4.0,2.0,1,$790_pw,December 2017,3068,2017,12,HILL,790,206071145,House
214560,"23 AITKEN STREET, CLIFTON HILL",-37.791383,145.000129,2.0,1.0,0,$450_pw,September 2017,3068,2017,9,HILL,450,206071145,Apartment
214561,"2/14-16 RAMSDEN STREET, CLIFTON HILL",-37.790195,144.995884,3.0,2.0,2,$795,November 2017,3068,2017,11,HILL,795,206071145,House
214562,"3/264 ALEXANDRA PARADE EAST, CLIFTON HILL",-37.7951262,144.9995113,1.0,1.0,1,$350_Week,July 2017,3068,2017,7,HILL,350,206071145,Apartment
214563,"1/211 GOLD STREET, CLIFTON HILL",-37.791306,144.990222,2.0,1.0,1,$430_per_week,July 2017,3068,2017,7,HILL,430,206071145,House
214564,"1/211 GOLD STREET, CLIFTON HILL",-37.791306,144.990222,2.0,1.0,1,$430_per_week,June 2017,3068,2017,6,HILL,430,206071145,Apartment
214565,"363 WELLINGTON STREET, CLIFTON HILL",-37.793646,144.987995,3.0,2.0,1,$620_per_week,October 2017,3068,2017,10,HILL,620,206071145,House
214570,"65 MIRRABOOKA DRIVE, CLIFTON SPRINGS",-38.162112,144.558659,3.0,2.0,3,$395_per_week,August 2017,3222,2017,8,SPRINGS,395,203031048,House
214571,"65 MIRRABOOKA DRIVE, CLIFTON SPRINGS",-38.162112,144.558659,3.0,2.0,3,$395_pw,July 2017,3222,2017,7,SPRINGS,395,203031048,House
214572,"6 HANNAH STREET, CLUNES",-37.295479,143.78396,2.0,1.0,0,$230,October 2017,3370,2017,10,CLUNES,230,201021010,Apartment
214578,"45 THORNTON STREET, CLUNES",-37.300119,143.782084,3.0,1.0,1,$260,December 2017,3370,2017,12,CLUNES,260,201021010,House
214593,"6 CAMERON STREET, CLUNES",-37.292247,143.791814,2.0,1.0,2,$215_per_week,February 2017,3370,2017,2,CLUNES,215,201021010,House
214607,"235 CLYDE-FIVE WAYS ROAD, CLYDE",-38.13985,145.319078,4.0,3.0,2,$600_Wk,December 2017,3978,2017,12,CLYDE,600,212031303,House
214608,"235 CLYDE-FIVE WAYS ROAD, CLYDE",-38.13985,145.319078,4.0,3.0,2,$600_Wk,November 2017,3978,2017,11,CLYDE,600,212031303,House
214609,"235 CLYDE-FIVE WAYS ROAD, CLYDE",-38.13985,145.319078,4.0,3.0,2,$600_Wk,October 2017,3978,2017,10,CLYDE,600,212031303,House
214613,"328 BENGWORDEN ROAD, COBAINS",-38.072845,147.110754,2.0,1.0,2,$240_per_week,August 2017,3851,2017,8,COBAINS,240,205051100,House
214615,"397 STONEYFORD ROAD, COBDEN",-38.332701,143.126845,3.0,1.0,1,$240_per_week,February 2017,3266,2017,2,COBDEN,240,217031475,House
214616,"397 STONEYFORD ROAD, COBDEN",-38.332701,143.126845,3.0,1.0,1,$240_per_week,January 2017,3266,2017,1,COBDEN,240,217031475,House
214617,"2599 MURRAY VALLEY HIGHWAY, COBRAM EAST",-35.979657,145.735896,3.0,1.0,0,$285_per_week,September 2017,3644,2017,9,EAST,285,216021411,House
214618,"2599 MURRAY VALLEY HIGHWAY, COBRAM EAST",-35.979657,145.735896,3.0,1.0,0,$285_per_week,August 2017,3644,2017,8,EAST,285,216021411,House
214626,"23 GATTUSO DRIVE, COBRAM",-35.925188,145.669623,4.0,2.0,2,$450,June 2017,3644,2017,6,COBRAM,450,216021411,House
214627,"3/2A IVY STREET, COBRAM",-35.9224251,145.6514887,2.0,1.0,1,$200,December 2017,3644,2017,12,COBRAM,200,216021411,Apartment
214631,"42 MOOKARII STREET, COBRAM",-35.9172338,145.6594354,3.0,1.0,1,$280,April 2017,3644,2017,4,COBRAM,280,216021411,House
214638,"38A MASHOOBRA STREET, COBURG NORTH",-37.7208715,144.9563606,3.0,2.0,1,$450,October 2017,3058,2017,10,NORTH,450,210031236,House
214643,"4/8 MATHIESON STREET, COBURG NORTH",-37.720588,144.96443,2.0,1.0,1,$415_per_week,March 2017,3058,2017,3,NORTH,415,210031236,Apartment
214645,"132 NICHOLSON STREET, COBURG",-37.747235,144.977455,3.0,1.0,2,$500_per_week,May 2017,3058,2017,5,COBURG,500,206011497,House
214646,"3/7 JESSIE STREET, COBURG",-37.754077,144.960323,2.0,1.0,1,$350_Weekly,December 2017,3058,2017,12,COBURG,350,206011498,Apartment
214647,"1 CONNOLLY AVENUE, COBURG",-37.735905,144.980822,3.0,1.0,1,$430_pw,January 2017,3058,2017,1,COBURG,430,206011497,House
214648,"1/1 GLADSTONE STREET, COBURG",-37.742853,144.9760918,3.0,1.0,1,$450,May 2017,3058,2017,5,COBURG,450,206011497,House
214649,"1/1 GLADSTONE STREET, COBURG",-37.742853,144.9760918,3.0,1.0,1,$450_per_week,April 2017,3058,2017,4,COBURG,450,206011497,House
214655,"4/11 METHVEN STREET, COBURG",-37.746901,144.963811,2.0,1.0,1,$400_per_week,September 2017,3058,2017,9,COBURG,400,206011497,Apartment
214656,"23 MARANOA CRESCENT, COBURG",-37.7519653,144.9550004,3.0,1.0,1,$450_Week,October 2017,3058,2017,10,COBURG,450,206011498,House
214660,"4/79 BELL STREET, COBURG",-37.741964,144.970699,3.0,1.0,1,$370_per_week,September 2017,3058,2017,9,COBURG,370,206011497,House
214661,"49 SOUDAN STREET, COBURG",-37.739114,144.951791,3.0,1.0,1,$520_Week,December 2017,3058,2017,12,COBURG,520,206011498,House
214666,"1/626 SYDNEY ROAD, COBURG",-37.735539,144.96646,2.0,1.0,1,$310_Weekly,September 2017,3058,2017,9,COBURG,310,206011497,Apartment
214667,"1/626 SYDNEY ROAD, COBURG",-37.735539,144.96646,2.0,1.0,1,$310_Weekly,August 2017,3058,2017,8,COBURG,310,206011497,House
214669,"237A BELL STREET, COBURG",-37.740342,144.953851,3.0,1.0,1,$420_Week,May 2017,3058,2017,5,COBURG,420,206011498,House
214671,"207/37-41 MUNRO STREET, COBURG",-37.744967,144.963371,2.0,1.0,1,$370_per_week,October 2017,3058,2017,10,COBURG,370,206011497,Apartment
214672,"2/17-18 CHAMP STREET, COBURG",-37.735876,144.967325,2.0,1.0,2,$350_per_week,April 2017,3058,2017,4,COBURG,350,206011497,House
214676,"2/56 THE AVENUE, COBURG",-37.752826,144.968178,2.0,2.0,1,$440_-_$460_per_week,May 2017,3058,2017,5,COBURG,460,206011497,House
214688,"237/14-20 NICHOLSON STREET, COBURG",-37.755441,144.975716,1.0,1.0,0,$310_Weekly,May 2017,3058,2017,5,COBURG,310,206011497,Apartment
214689,"2/33 SHAFTSBURY STREET, COBURG",-37.751325,144.953636,3.0,1.0,1,$370_per_week,November 2017,3058,2017,11,COBURG,370,206011498,House
214690,"2/33 SHAFTSBURY STREET, COBURG",-37.751325,144.953636,3.0,1.0,1,$370_p.w.,October 2017,3058,2017,10,COBURG,370,206011498,House
214691,"2/33 SHAFTSBURY STREET, COBURG",-37.751325,144.953636,3.0,1.0,1,$370_pw,August 2017,3058,2017,8,COBURG,370,206011498,House
214696,"31 RODDA STREET, COBURG",-37.743612,144.970075,2.0,1.0,1,$420_pw,December 2017,3058,2017,12,COBURG,420,206011497,Apartment
214697,"109A/41-43 STOCKADE AVENUE, COBURG",-37.7390664,144.9698398,1.0,1.0,1,$270_per_week,October 2017,3058,2017,10,COBURG,270,206011497,Apartment
214698,"109A/41-43 STOCKADE AVENUE, COBURG",-37.7390664,144.9698398,1.0,1.0,1,$270_per_week,January 2017,3058,2017,1,COBURG,270,206011497,Apartment
214699,"68 BRUCE STREET, COBURG",-37.743287,144.948467,3.0,1.0,1,$495_per_week,May 2017,3058,2017,5,COBURG,495,206011498,House
214700,"69A MORELAND ROAD, COBURG",-37.756399,144.97422,3.0,1.0,1,$400_pw,November 2017,3058,2017,11,COBURG,400,206011497,House
214702,"102A/1 MANNA GUM COURT, COBURG",-37.737353,144.976093,1.0,1.0,1,$350_per_week,May 2017,3058,2017,5,COBURG,350,206011497,Apartment
214710,"5/144 NICHOLSON STREET, COBURG",-37.745681,144.977713,2.0,1.0,1,$290_pw,April 2017,3058,2017,4,COBURG,290,206011497,Apartment
214711,"5/144 NICHOLSON STREET, COBURG",-37.745681,144.977713,2.0,1.0,1,$290_pw,March 2017,3058,2017,3,COBURG,290,206011497,House
214715,"28 PRESTON STREET, COBURG",-37.745224,144.954059,3.0,1.0,2,$590_-_$620_per_week,July 2017,3058,2017,7,COBURG,620,206011498,House
214716,"28 PRESTON STREET, COBURG",-37.745224,144.954059,3.0,1.0,2,$590_-_$620_per_week,June 2017,3058,2017,6,COBURG,620,206011498,House
214717,"41A RENNIE STREET, COBURG",-37.750558,144.969431,2.0,1.0,1,$440_per_week,July 2017,3058,2017,7,COBURG,440,206011497,House
214719,"1/1 INDUSTRY LANE, COBURG",-37.7369442,144.9699153,1.0,1.0,1,$340_per_week,March 2017,3058,2017,3,COBURG,340,206011497,Apartment
214720,"74 LINDA STREET, COBURG",-37.7504653,144.9566657,3.0,2.0,1,$650_-_$670_per_week,November 2017,3058,2017,11,COBURG,670,206011498,House
214721,"74 LINDA STREET, COBURG",-37.7504653,144.9566657,3.0,2.0,1,$620_-_$650_per_week,January 2017,3058,2017,1,COBURG,650,206011498,House
214722,"2/27 GLADSTONE STREET, COBURG",-37.74468,144.976117,2.0,1.0,1,$380_per_week,January 2017,3058,2017,1,COBURG,380,206011497,Apartment
214723,"1/179 GORDON STREET, COBURG",-37.7419981,144.9492972,2.0,1.0,2,$390_Week,November 2017,3058,2017,11,COBURG,390,206011498,Apartment
214724,"27 SAUNDERS STREET, COBURG",-37.751542,144.950563,2.0,1.0,0,$440,April 2017,3058,2017,4,COBURG,440,206011498,Apartment
214725,"27 SAUNDERS STREET, COBURG",-37.751542,144.950563,2.0,1.0,0,$440,March 2017,3058,2017,3,COBURG,440,206011498,Apartment
214726,"3/9 SHEFFIELD STREET, COBURG",-37.746179,144.966674,2.0,1.0,1,$330,August 2017,3058,2017,8,COBURG,330,206011497,House
214727,"3/9 SHEFFIELD STREET, COBURG",-37.746179,144.966674,2.0,1.0,1,$330,July 2017,3058,2017,7,COBURG,330,206011497,House
214728,"25A FISCHER STREET, COBURG",-37.734543,144.953756,2.0,1.0,1,$370_p.w.,November 2017,3058,2017,11,COBURG,370,206011498,Apartment
214729,"1/22 CHAMBERS STREET, COBURG",-37.748545,144.968059,2.0,1.0,1,$350_pw,October 2017,3058,2017,10,COBURG,350,206011497,Apartment
214732,"25 CLIFTON GROVE, COBURG",-37.737821,144.958503,3.0,1.0,1,$470_per_week,June 2017,3058,2017,6,COBURG,470,206011498,House
214734,"5 BORONIA CRESCENT, COCKATOO",-37.936985,145.493334,3.0,1.0,1,$350_per_week,June 2017,3781,2017,6,COCKATOO,350,212011289,House
214735,"22 BELGRAVE-GEMBROOK ROAD, COCKATOO",-37.936065,145.494084,3.0,1.0,0,$350_per_week,May 2017,3781,2017,5,COCKATOO,350,212011289,House
214736,"2 BELGRAVE AVENUE, COCKATOO",-37.92732,145.495818,4.0,2.0,6,$390_per_week,November 2017,3781,2017,11,COCKATOO,390,212011289,House
214740,"18 CARAWA STREET, COCKATOO",-37.926109,145.49772,3.0,2.0,1,$350_per_week,November 2017,3781,2017,11,COCKATOO,350,212011289,House
214741,"18 CARAWA STREET, COCKATOO",-37.926109,145.49772,3.0,2.0,1,$350,March 2017,3781,2017,3,COCKATOO,350,212011289,House
214742,"66 WOORI YALLOCK ROAD, COCKATOO",-37.928419,145.492924,3.0,2.0,2,$365_per_week,May 2017,3781,2017,5,COCKATOO,365,212011289,House
214762,"3/2 MOORE STREET, COLAC EAST",-38.3350619,143.5807681,2.0,1.0,1,$280_per_week,November 2017,3250,2017,11,EAST,280,217031472,Apartment
214763,"94 MARRINER STREET, COLAC EAST",-38.3288703,143.6186838,4.0,2.0,2,$360_per_week,September 2017,3250,2017,9,EAST,360,217031472,House
214767,"3/371 MURRAY STREET, COLAC",-38.337227,143.572886,2.0,1.0,1,$250_per_week,January 2017,3250,2017,1,COLAC,250,217031472,Apartment
214768,"4 SELWOOD STREET, COLAC",-38.347277,143.592928,2.0,1.0,0,$230_per_week,November 2017,3250,2017,11,COLAC,230,217031472,Apartment
214775,"22 GRAVESEND STREET, COLAC",-38.346357,143.5853,3.0,2.0,1,$300_-_$1300_per_week,February 2017,3250,2017,2,COLAC,1300,217031472,House
214776,"22 GRAVESEND STREET, COLAC",-38.346357,143.5853,3.0,2.0,1,$300_per_week,February 2017,3250,2017,2,COLAC,300,217031472,House
214779,"21 KILLARA ROAD, COLDSTREAM",-37.722431,145.390804,4.0,1.0,2,$435,January 2017,3770,2017,1,COLDSTREAM,435,211051278,House
214783,"19 CHEVIOT AVENUE, COLDSTREAM",-37.727983,145.384155,3.0,1.0,1,$390,October 2017,3770,2017,10,COLDSTREAM,390,211051278,House
214784,"19 CHEVIOT AVENUE, COLDSTREAM",-37.727983,145.384155,3.0,1.0,1,$400,October 2017,3770,2017,10,COLDSTREAM,400,211051278,House
214785,"19 CHEVIOT AVENUE, COLDSTREAM",-37.727983,145.384155,3.0,1.0,1,$400_p.w.,August 2017,3770,2017,8,COLDSTREAM,400,211051278,House
214788,"33 CHURCH STREET, COLERAINE",-37.60373,141.696369,3.0,1.0,1,$170_per_week,December 2017,3315,2017,12,COLERAINE,170,217011423,House
214789,"33 CHURCH STREET, COLERAINE",-37.60373,141.696369,3.0,1.0,1,$170_per_week,October 2017,3315,2017,10,COLERAINE,170,217011423,House
214790,"33 CHURCH STREET, COLERAINE",-37.60373,141.696369,3.0,1.0,1,$170_per_week,September 2017,3315,2017,9,COLERAINE,170,217011423,House
214791,"9 MCCONOCHIE STREET, COLERAINE",-37.6028556,141.6993735,4.0,1.0,2,$200_per_week,December 2017,3315,2017,12,COLERAINE,200,217011423,House
214795,"43 GAGE STREET, COLERAINE",-37.6020253,141.6878179,3.0,1.0,2,$160_per_week,November 2017,3315,2017,11,COLERAINE,160,217011423,House
214796,"404/40 STANLEY STREET, COLLINGWOOD",-37.8021818,144.9853665,1.0,1.0,1,$430_per_week,January 2017,3066,2017,1,COLLINGWOOD,430,206071141,Apartment
214797,"501/41 PEEL STREET, COLLINGWOOD",-37.8054248,144.985715,2.0,2.0,1,$585_Week,November 2017,3066,2017,11,COLLINGWOOD,585,206071141,House
214798,"5/1 PEEL STREET, COLLINGWOOD",-37.805274,144.983734,1.0,1.0,1,$370_pw,January 2017,3066,2017,1,COLLINGWOOD,370,206071141,Apartment
214800,"506/45 VICTORIA PARADE, COLLINGWOOD",-37.808694,144.984082,1.0,1.0,0,$265_per_week,January 2017,3066,2017,1,COLLINGWOOD,265,206071141,Apartment
214801,"18/34 SMITH STREET, COLLINGWOOD",-37.807413,144.983606,1.0,1.0,1,$395_pw,February 2017,3066,2017,2,COLLINGWOOD,395,206071141,Apartment
214802,"5/15-17 BENDIGO STREET, COLLINGWOOD",-37.796087,144.992632,1.0,1.0,1,$265_per_week,August 2017,3066,2017,8,COLLINGWOOD,265,206071141,Apartment
214803,"217/132 SMITH STREET, COLLINGWOOD",-37.804475,144.983604,2.0,2.0,1,$570_p.w.,October 2017,3066,2017,10,COLLINGWOOD,570,206071141,House
214804,"14/34 SMITH STREET, COLLINGWOOD",-37.8072953,144.9828207,1.0,1.0,1,$410_pw,March 2017,3066,2017,3,COLLINGWOOD,410,206071142,Apartment
214805,"26 CAMPBELL STREET, COLLINGWOOD",-37.803517,144.989147,2.0,1.0,0,$530_-_$550_pw,March 2017,3066,2017,3,COLLINGWOOD,550,206071141,Apartment
214806,"9/1 PEEL STREET, COLLINGWOOD",-37.805201,144.983757,1.0,1.0,1,$390_pw,March 2017,3066,2017,3,COLLINGWOOD,390,206071141,Apartment
214808,"507/107 CAMBRIDGE STREET, COLLINGWOOD",-37.8035817,144.9854989,2.0,1.0,1,$495_per_week,January 2017,3066,2017,1,COLLINGWOOD,495,206071141,Apartment
214809,"2/45 DERBY STREET, COLLINGWOOD",-37.807164,144.984949,2.0,1.0,0,$460_pw,September 2017,3066,2017,9,COLLINGWOOD,460,206071141,Apartment
214810,"2/17 ALEXANDER STREET, COLLINGWOOD",-37.795758,144.991069,1.0,1.0,1,$280_pw,December 2017,3066,2017,12,COLLINGWOOD,280,206071141,Apartment
214811,"407/45 VICTORIA PARADE, COLLINGWOOD",-37.8099026,144.9849844,1.0,1.0,0,$270_pw,April 2017,3066,2017,4,COLLINGWOOD,270,206041119,Apartment
214812,"117/3 HODDLE STREET, COLLINGWOOD",-37.8089283,144.9913524,2.0,1.0,2,$505_per_week,October 2017,3066,2017,10,COLLINGWOOD,505,206071141,Apartment
214813,"1/1 PEEL STREET, COLLINGWOOD",-37.8050584,144.9837832,1.0,1.0,1,$400_pw,June 2017,3066,2017,6,COLLINGWOOD,400,206071141,Apartment
214814,"304/44 BEDFORD STREET, COLLINGWOOD",-37.801579,144.98484,2.0,1.0,1,$530_per_week,May 2017,3066,2017,5,COLLINGWOOD,530,206071141,Apartment
214815,"304/44 BEDFORD STREET, COLLINGWOOD",-37.801579,144.98484,2.0,1.0,1,$540_per_week,May 2017,3066,2017,5,COLLINGWOOD,540,206071141,Apartment
214827,"506/103-107 OXFORD STREET, COLLINGWOOD",-37.80316,144.984807,2.0,1.0,1,$610_pw,October 2017,3066,2017,10,COLLINGWOOD,610,206071141,Apartment
214828,"506/103-107 OXFORD STREET, COLLINGWOOD",-37.80316,144.984807,2.0,1.0,1,$610_Week,June 2017,3066,2017,6,COLLINGWOOD,610,206071141,Apartment
214830,"9/78 OXFORD STREET, COLLINGWOOD",-37.807815,144.983906,1.0,1.0,1,$395_per_week,February 2017,3066,2017,2,COLLINGWOOD,395,206071141,Apartment
214831,"504/107 CAMBRIDGE STREET, COLLINGWOOD",-37.8035817,144.9854989,2.0,2.0,1,$575_per_week,January 2017,3066,2017,1,COLLINGWOOD,575,206071141,House
214832,"201/45 VICTORIA PARADE, COLLINGWOOD",-37.808694,144.984082,1.0,1.0,0,$265_per_week,January 2017,3066,2017,1,COLLINGWOOD,265,206071141,Apartment
214834,"378 WELLINGTON STREET, COLLINGWOOD",-37.795419,144.988285,2.0,1.0,1,$600_per_week,June 2017,3066,2017,6,COLLINGWOOD,600,206071141,Apartment
214835,"378 WELLINGTON STREET, COLLINGWOOD",-37.795419,144.988285,2.0,1.0,1,$615_per_week,June 2017,3066,2017,6,COLLINGWOOD,615,206071141,Apartment
214836,"92 PERRY STREET, COLLINGWOOD",-37.800237,144.989064,2.0,1.0,0,$550_pw,September 2017,3066,2017,9,COLLINGWOOD,550,206071141,Apartment
214837,"92 PERRY STREET, COLLINGWOOD",-37.800237,144.989064,2.0,1.0,0,$550_Week,May 2017,3066,2017,5,COLLINGWOOD,550,206071141,Apartment
214838,"113 EASEY STREET, COLLINGWOOD",-37.798445,144.990887,3.0,1.0,1,$750_Week,August 2017,3066,2017,8,COLLINGWOOD,750,206071141,House
214839,"9/109 OXFORD STREET, COLLINGWOOD",-37.802889,144.984737,2.0,1.0,1,$540_pw,April 2017,3066,2017,4,COLLINGWOOD,540,206071141,Apartment
214840,"105/40 STANLEY STREET, COLLINGWOOD",-37.8021801,144.9853655,2.0,1.0,1,$525_pw,April 2017,3066,2017,4,COLLINGWOOD,525,206071141,Apartment
214841,"105/40 STANLEY STREET, COLLINGWOOD",-37.8021801,144.9853655,2.0,1.0,1,$525_pw,March 2017,3066,2017,3,COLLINGWOOD,525,206071141,Apartment
214858,"27 PEARSON CRESCENT, COOLAROO",-37.657836,144.932751,3.0,1.0,2,$360,November 2017,3048,2017,11,COOLAROO,360,210051243,House
214859,"27 PEARSON CRESCENT, COOLAROO",-37.657836,144.932751,3.0,1.0,2,$370_per_week,November 2017,3048,2017,11,COOLAROO,370,210051243,House
214861,"112 LONGFORD CRESCENT, COOLAROO",-37.655438,144.929122,3.0,1.0,4,$360,July 2017,3048,2017,7,COOLAROO,360,210051243,House
214862,"40 FLYNN CRESCENT, COOLAROO",-37.658332,144.931762,3.0,1.0,0,$370_Weekly,December 2017,3048,2017,12,COOLAROO,370,210051243,House
214863,"40 FLYNN CRESCENT, COOLAROO",-37.658332,144.931762,3.0,1.0,0,$370_Weekly,November 2017,3048,2017,11,COOLAROO,370,210051243,House
214864,"6 LOVAT COURT, COOLAROO",-37.654336,144.930513,3.0,1.0,2,$295_per_week,April 2017,3048,2017,4,COOLAROO,295,210051243,House
214873,"41 MOORINGS PLACE, CORINELLA",-38.411505,145.430496,3.0,2.0,6,$400,October 2017,3984,2017,10,CORINELLA,400,205031093,House
214874,"13 KILBURN STREET, CORINELLA",-38.414375,145.434683,3.0,1.0,1,$260,October 2017,3984,2017,10,CORINELLA,260,205031093,House
214875,"23 MOORINGS PLACE, CORINELLA",-38.4124682,145.4306845,4.0,2.0,2,$330_Wk,June 2017,3984,2017,6,CORINELLA,330,205031093,House
214876,"23 MOORINGS PLACE, CORINELLA",-38.4124682,145.4306845,4.0,2.0,2,$345_Weekly,May 2017,3984,2017,5,CORINELLA,345,205031093,House
214879,"3/13 ONTARIO AVENUE, CORIO",-38.0811036,144.3595703,2.0,2.0,1,$300_per_week,November 2017,3214,2017,11,CORIO,300,203021486,House
214880,"12 GRANAULT PARADE, CORIO",-38.075683,144.365084,3.0,1.0,2,$290_per_week,June 2017,3214,2017,6,CORIO,290,203021486,House
214884,"42 MICHIGAN AVENUE, CORIO",-38.075924,144.366588,3.0,1.0,3,$250_pw,May 2017,3214,2017,5,CORIO,250,203021486,House
214885,"42 MICHIGAN AVENUE, CORIO",-38.075924,144.366588,3.0,1.0,3,$250_per_week,April 2017,3214,2017,4,CORIO,250,203021486,House
214886,"5 TAMBO COURT, CORIO",-38.07539839,144.34893905,3.0,1.0,1,$300_pw,November 2017,3214,2017,11,CORIO,300,203021486,House
214896,"16C WILKINS CLOSE, CORIO",-38.0785193,144.3447955,3.0,2.0,1,$320_per_week,October 2017,3214,2017,10,CORIO,320,203021486,House
214897,"6 ARMALITE COURT, CORIO",-38.069292,144.351343,3.0,1.0,2,$285_per_week,October 2017,3214,2017,10,CORIO,285,203021486,House
214898,"14 FRONSAC AVENUE, CORIO",-38.079509,144.360348,3.0,1.0,2,$260_per_week,December 2017,3214,2017,12,CORIO,260,203021486,House
214901,"4 CHESHIRE STREET, CORIO",-38.073003,144.353327,3.0,1.0,4,$285_per_week,July 2017,3214,2017,7,CORIO,285,203021486,House
214902,"36 BUFFALO AVENUE, CORIO",-38.074243,144.366944,3.0,1.0,1,$300,August 2017,3214,2017,8,CORIO,300,203021486,House
214903,"36 BUFFALO AVENUE, CORIO",-38.074243,144.366944,3.0,1.0,1,$300,July 2017,3214,2017,7,CORIO,300,203021486,House
214912,"523 CORANGAMITE LAKE ROAD, COROROOKE",-38.2890562,143.5225133,3.0,1.0,2,$190_per_week,March 2017,3254,2017,3,COROROOKE,190,217031473,House
214922,"4/154 HARRIS STREET, CORRYONG",-36.198582,147.89388,1.0,1.0,1,$110_per_week,November 2017,3707,2017,11,CORRYONG,110,204031072,Apartment
214923,"4/154 HARRIS STREET, CORRYONG",-36.198582,147.89388,1.0,1.0,1,$105_per_week,June 2017,3707,2017,6,CORRYONG,105,204031072,Apartment
214924,"5/154 HARRIS STREET ST, CORRYONG",-36.1985817,147.8938804,2.0,1.0,1,$130_per_week,November 2017,3707,2017,11,CORRYONG,130,204031072,Apartment
214926,"185 MINE ROAD, COTTLES BRIDGE",-37.602208,145.199906,4.0,2.0,2,$850_per_week,August 2017,3099,2017,8,BRIDGE,850,209031212,House
214927,"145 BARREENONG ROAD, COTTLES BRIDGE",-37.612064,145.205832,3.0,2.0,0,$625_per_week,June 2017,3099,2017,6,BRIDGE,625,209031212,House
214928,"10 SKARDON ROAD, COTTLES BRIDGE",-37.610259,145.239748,3.0,2.0,3,$850_per_week,April 2017,3099,2017,4,BRIDGE,850,209031212,House
214938,"4/16-18 CHURCH STREET, COWES",-38.45201,145.245336,2.0,1.0,1,$265,October 2017,3922,2017,10,COWES,265,205031091,House
214946,"22 SEASCAPE AVENUE, COWES",-38.454694,145.222903,3.0,2.0,1,$340_Weekly,June 2017,3922,2017,6,COWES,340,205031091,House
214947,"1/4 GRANDVIEW GROVE, COWES",-38.45692444,145.23738098,3.0,2.0,1,$280_pw,November 2017,3922,2017,11,COWES,280,205031091,House
214952,"2813 TRARALGON-MAFFRA ROAD, COWWARR",-38.0146325,146.7008645,3.0,1.0,2,$295_Wk,January 2017,3857,2017,1,COWWARR,295,205051102,House
214959,"22 STOCKTON STREET, CRAIGIEBURN",-37.605254,144.941661,3.0,1.0,1,$320_per_week,January 2017,3064,2017,1,CRAIGIEBURN,320,210051443,House
214960,"64 CORRINGA WAY, CRAIGIEBURN",-37.585886,144.91407,3.0,2.0,2,$340,January 2017,3064,2017,1,CRAIGIEBURN,340,210051543,House
214964,"5/11 TROWARD HARVEY WAY, CRAIGIEBURN",-37.5761539,144.9322587,3.0,2.0,2,$370_pw,June 2017,3064,2017,6,CRAIGIEBURN,370,210051442,House
214965,"37 BRICKWOOD CIRCUIT, CRAIGIEBURN",-37.5816705,144.9111607,4.0,2.0,2,$430_Wk,June 2017,3064,2017,6,CRAIGIEBURN,430,210051543,House
214970,"3/5 FALMER PLACE, CRAIGIEBURN",-37.601596,144.93039,2.0,1.0,1,$320_per_week,April 2017,3064,2017,4,CRAIGIEBURN,320,210051443,Apartment
214971,"9/29 ARDSLEY CIRCUIT, CRAIGIEBURN",-37.5766669,144.9284753,2.0,1.0,1,$310,December 2017,3064,2017,12,CRAIGIEBURN,310,210051442,Apartment
214972,"2/6 SPRING VALLEY AVENUE, CRAIGIEBURN",-37.5934233,144.9390039,3.0,1.0,1,$310_pw,November 2017,3064,2017,11,CRAIGIEBURN,310,210051441,House
214996,"6 AJUGA LANE, CRANBOURNE NORTH",-38.07932,145.3184165,3.0,2.0,2,$385_p.w.,February 2017,3977,2017,2,NORTH,385,212031559,House
214997,"6 AJUGA LANE, CRANBOURNE NORTH",-38.07932,145.3184165,3.0,2.0,2,$385_p.w.,January 2017,3977,2017,1,NORTH,385,212031559,House
215034,"42 PHOENIX AVENUE, CRANBOURNE",-38.094137,145.287666,5.0,2.0,2,$400_per_week,July 2017,3977,2017,7,CRANBOURNE,400,212031300,House
215037,"4/205 SLADEN STREET, CRANBOURNE",-38.113304,145.288071,2.0,1.0,1,$250_p.w.,October 2017,3977,2017,10,CRANBOURNE,250,212031300,Apartment
215045,"19 JILLIAN STREET, CRANBOURNE",-38.107651,145.274156,3.0,1.0,1,$375_Weekly,February 2017,3977,2017,2,CRANBOURNE,375,212031300,House
215046,"19 JILLIAN STREET, CRANBOURNE",-38.107651,145.274156,3.0,1.0,1,$375_Weekly,January 2017,3977,2017,1,CRANBOURNE,375,212031300,House
215111,"40 CUNNINGHAM CHASE, BURNSIDE HEIGHTS",-37.735431,144.761693,3.0,2.0,2,$345_Weekly,February 2017,3023,2017,2,HEIGHTS,345,213041462,House
215135,"36 MENZIES DRIVE, BURNSIDE HEIGHTS",-37.72896775,144.76299065,4.0,2.0,3,$390_pw,May 2017,3023,2017,5,HEIGHTS,390,213041462,House
215137,"1 CHIFLEY CIRCUIT, BURNSIDE HEIGHTS",-37.726732,144.761692,4.0,3.0,2,$430,December 2017,3023,2017,12,HEIGHTS,430,213041462,House
215138,"39 LEICHHARDT AVENUE, BURNSIDE HEIGHTS",-37.732946,144.75551,3.0,2.0,2,$390_pw,November 2017,3023,2017,11,HEIGHTS,390,213041462,House
215142,"35 BELLEVILLE CLOSE, BURNSIDE HEIGHTS",-37.7250861,144.7530995,4.0,2.0,2,$450,November 2017,3023,2017,11,HEIGHTS,450,213041462,House
215148,"28 GIVERNY CLOSE, BURNSIDE HEIGHTS",-37.724803,144.7522739,4.0,2.0,2,$410_pw,October 2017,3023,2017,10,HEIGHTS,410,213041462,House
215152,"35 WYLIE CIRCUIT, BURNSIDE HEIGHTS",-37.731597,144.755122,3.0,2.0,2,$400_per_week,February 2017,3023,2017,2,HEIGHTS,400,213041462,House
215153,"29 MENZIES DRIVE, BURNSIDE HEIGHTS",-37.728059,144.763555,3.0,2.0,2,$400_p.w.,November 2017,3023,2017,11,HEIGHTS,400,213041462,House
215154,"3 COOMA PLACE, BURNSIDE HEIGHTS",-37.73637348,144.74979565,4.0,2.0,2,$430,January 2017,3023,2017,1,HEIGHTS,430,213041462,House
215162,"38 BELLEVILLE CLOSE, BURNSIDE HEIGHTS",-37.7254185,144.7535818,3.0,2.0,1,$380,November 2017,3023,2017,11,HEIGHTS,380,213041462,House
215163,"38 BELLEVILLE CLOSE, BURNSIDE HEIGHTS",-37.7254185,144.7535818,3.0,2.0,1,$380_per_week,April 2017,3023,2017,4,HEIGHTS,380,213041462,House
215164,"4 HARWOOD COURT, BURNSIDE HEIGHTS",-37.737019,144.749881,3.0,2.0,2,$380_pw,November 2017,3023,2017,11,HEIGHTS,380,213041462,House
215165,"4 HARWOOD COURT, BURNSIDE HEIGHTS",-37.737019,144.749881,3.0,2.0,2,$380_pw,September 2017,3023,2017,9,HEIGHTS,380,213041462,House
215169,"2 JONATHAN PLACE, BURNSIDE HEIGHTS",-37.7292651,144.75436325,4.0,2.0,2,$460_per_week,October 2017,3023,2017,10,HEIGHTS,460,213041462,House
215170,"2 JONATHAN PLACE, BURNSIDE HEIGHTS",-37.7292651,144.75436325,4.0,2.0,2,$460_per_week,November 2017,3023,2017,11,HEIGHTS,460,213041462,House
215171,"2 HARWOOD COURT, BURNSIDE HEIGHTS",-37.737032,144.750041,3.0,2.0,2,$400_per_week,September 2017,3023,2017,9,HEIGHTS,400,213041462,House
215174,"17 GIVERNY, BURNSIDE HEIGHTS",-37.724468,144.7508911,4.0,2.0,2,$400_per_week,September 2017,3023,2017,9,HEIGHTS,400,213041462,House
215181,"14 DEAKIN GROVE, BURNSIDE HEIGHTS",-37.72736778,144.7589749,3.0,2.0,2,$400_per_week,May 2017,3023,2017,5,HEIGHTS,400,213041462,House
215182,"14 DEAKIN GROVE, BURNSIDE HEIGHTS",-37.72736778,144.7589749,3.0,2.0,2,$400_per_week,June 2017,3023,2017,6,HEIGHTS,400,213041462,House
215183,"14 DEAKIN GROVE, BURNSIDE HEIGHTS",-37.72736778,144.7589749,3.0,2.0,2,$410_per_week,May 2017,3023,2017,5,HEIGHTS,410,213041462,House
215184,"14 DEAKIN GROVE, BURNSIDE HEIGHTS",-37.72736778,144.7589749,3.0,2.0,2,$420_per_week,April 2017,3023,2017,4,HEIGHTS,420,213041462,House
215190,"18 KATRINA DRIVE, BURNSIDE HEIGHTS",-37.7289225,144.7582481,3.0,2.0,2,$410_per_week,April 2017,3023,2017,4,HEIGHTS,410,213041462,House
215199,"22 WILLS TERRACE, BURNSIDE HEIGHTS",-37.73183663,144.75832261,3.0,2.0,2,$380,March 2017,3023,2017,3,HEIGHTS,380,213041462,House
215200,"22 WILLS TERRACE, BURNSIDE HEIGHTS",-37.73183663,144.75832261,3.0,2.0,2,$385,February 2017,3023,2017,2,HEIGHTS,385,213041462,House
215203,"3 RYANS COURT, BURNSIDE HEIGHTS",-37.73216,144.757394,4.0,2.0,2,$390_per_week,February 2017,3023,2017,2,HEIGHTS,390,213041462,House
215204,"13 CATANI COURT, BURNSIDE HEIGHTS",-37.727872,144.751261,4.0,2.0,2,$500_pw,January 2017,3023,2017,1,HEIGHTS,500,213041462,House
215206,"3 CAMDEN WAY, BURNSIDE HEIGHTS",-37.727,144.76,4.0,2.0,2,$500_per_week,January 2017,3023,2017,1,HEIGHTS,500,213041462,House
215209,"4 APPLETREE GROVE, BURNSIDE HEIGHTS",-37.72778453,144.76238201,4.0,2.0,2,$410_per_week,January 2017,3023,2017,1,HEIGHTS,410,213041462,House
215210,"18 FLEMMING AVENUE, BURNSIDE",-37.748634,144.74286,3.0,1.0,1,$330_per_week,July 2017,3023,2017,7,BURNSIDE,330,213041461,House
215211,"18 FLEMMING AVENUE, BURNSIDE",-37.748634,144.74286,3.0,1.0,1,$330_per_week,June 2017,3023,2017,6,BURNSIDE,330,213041461,House
215214,"13 GRIGORIEVA COURT, BURNSIDE",-37.746501,144.747487,3.0,2.0,1,$335_Weekly,April 2017,3023,2017,4,BURNSIDE,335,213041461,House
215215,"13 GRIGORIEVA COURT, BURNSIDE",-37.746501,144.747487,3.0,2.0,1,$335_Weekly,March 2017,3023,2017,3,BURNSIDE,335,213041461,House
215218,"3 GOULD PLACE, BURNSIDE",-37.751245,144.749376,3.0,1.0,1,$370_per_week,July 2017,3023,2017,7,BURNSIDE,370,213041461,House
215219,"3 GOULD PLACE, BURNSIDE",-37.751245,144.749376,3.0,1.0,1,$370_per_week,June 2017,3023,2017,6,BURNSIDE,370,213041461,House
215221,"2/30 HAWTHORN ROAD, BURWOOD EAST",-37.845777,145.155087,2.0,1.0,2,$385_per_week,July 2017,3151,2017,7,EAST,385,207031166,House
215222,"42 BARRY ROAD, BURWOOD EAST",-37.857015,145.152045,3.0,1.0,1,$410,December 2017,3151,2017,12,EAST,410,207031166,House
215223,"42 BARRY ROAD, BURWOOD EAST",-37.857015,145.152045,3.0,1.0,1,$410_p.w.,November 2017,3151,2017,11,EAST,410,207031166,House
215224,"42 BARRY ROAD, BURWOOD EAST",-37.857015,145.152045,3.0,1.0,1,$410,September 2017,3151,2017,9,EAST,410,207031166,House
215235,"331 BLACKBURN ROAD, BURWOOD EAST",-37.850399,145.152664,4.0,2.0,1,$455,December 2017,3151,2017,12,EAST,455,207031166,House
215240,"16 HIGHVIEW GROVE, BURWOOD EAST",-37.853441,145.145522,3.0,1.0,2,$550_pw,November 2017,3151,2017,11,EAST,550,207031166,House
215241,"55 NEWHAVEN ROAD, BURWOOD EAST",-37.859198,145.1569,3.0,1.0,1,$395_per_week,December 2017,3151,2017,12,EAST,395,207031166,House
215243,"24 COOKSON WAY, BURWOOD",-37.8580693,145.1105976,3.0,2.0,1,$620_Weekly,March 2017,3125,2017,3,BURWOOD,620,212051319,House
215244,"68A ROSLYN STREET, BURWOOD",-37.845154,145.103348,1.0,1.0,1,$220_pw,May 2017,3125,2017,5,BURWOOD,220,207031165,Apartment
215245,"225/386 BURWOOD HIGHWAY, BURWOOD",-37.852243,145.130583,1.0,1.0,0,$225_per_week,October 2017,3125,2017,10,BURWOOD,225,207031165,Apartment
215246,"144/386 BURWOOD HIGHWAY, BURWOOD",-37.852243,145.130583,1.0,1.0,0,$230_per_week,October 2017,3125,2017,10,BURWOOD,230,207031165,Apartment
215247,"144/386 BURWOOD HIGHWAY, BURWOOD",-37.852243,145.130583,1.0,1.0,0,$230_per_week,September 2017,3125,2017,9,BURWOOD,230,207031165,Apartment
215248,"G13/386 BURWOOD HIGHWAY, BURWOOD",-37.852243,145.130583,1.0,1.0,0,$225,December 2017,3125,2017,12,BURWOOD,225,207031165,Apartment
215249,"108/386 BURWOOD HIGHWAY, BURWOOD",-37.852243,145.130583,1.0,1.0,0,$215,December 2017,3125,2017,12,BURWOOD,215,207031165,Apartment
215250,"2/6 LA FRANK STREET, BURWOOD",-37.852503,145.127205,2.0,2.0,1,$485,December 2017,3125,2017,12,BURWOOD,485,207031165,House
215251,"2/6 LA FRANK STREET, BURWOOD",-37.852503,145.127205,2.0,2.0,1,$485_per_week,November 2017,3125,2017,11,BURWOOD,485,207031165,House
215252,"209/386 BURWOOD HIGHWAY, BURWOOD",-37.852243,145.130583,1.0,1.0,0,$225_per_week,December 2017,3125,2017,12,BURWOOD,225,207031165,Apartment
215253,"G20/386 BURWOOD HIGHWAY, BURWOOD",-37.852243,145.130583,1.0,1.0,0,$225_per_week,December 2017,3125,2017,12,BURWOOD,225,207031165,Apartment
215254,"1A TENNYSON STREET, BURWOOD",-37.8511,145.131741,3.0,2.0,1,$380_pw,July 2017,3125,2017,7,BURWOOD,380,207031165,House
215255,"117/386 BURWOOD HIGHWAY, BURWOOD",-37.852243,145.130583,1.0,1.0,0,$225_per_week,December 2017,3125,2017,12,BURWOOD,225,207031165,Apartment
215256,"117/386 BURWOOD HIGHWAY, BURWOOD",-37.852243,145.130583,1.0,1.0,0,$225_per_week,September 2017,3125,2017,9,BURWOOD,225,207031165,Apartment
215257,"G11/386 BURWOOD HIGHWAY, BURWOOD",-37.852243,145.130583,1.0,1.0,0,$225_per_week,September 2017,3125,2017,9,BURWOOD,225,207031165,Apartment
215258,"1A KEOGH STREET, BURWOOD",-37.855697,145.110241,2.0,1.0,1,$330,August 2017,3125,2017,8,BURWOOD,330,212051319,House
215259,"1A KEOGH STREET, BURWOOD",-37.855697,145.110241,2.0,1.0,1,$330_pw,July 2017,3125,2017,7,BURWOOD,330,212051319,House
215260,"239/386 BURWOOD HIGHWAY, BURWOOD",-37.852243,145.130583,1.0,1.0,0,$245_per_week,September 2017,3125,2017,9,BURWOOD,245,207031165,Apartment
215261,"127/386 BURWOOD HIGHWAY, BURWOOD",-37.852243,145.130583,1.0,1.0,0,$220_per_week,January 2017,3125,2017,1,BURWOOD,220,207031165,Apartment
215262,"G09/386 BURWOOD HIGHWAY, BURWOOD",-37.852243,145.130583,1.0,1.0,0,$225_per_week,September 2017,3125,2017,9,BURWOOD,225,207031165,Apartment
215263,"130/386 BURWOOD HIGHWAY, BURWOOD",-37.852243,145.130583,1.0,1.0,0,$230,December 2017,3125,2017,12,BURWOOD,230,207031165,Apartment
215264,"60/390 BURWOOD HIGHWAY, BURWOOD",-37.852279,145.130904,1.0,1.0,0,$210_per_week,November 2017,3125,2017,11,BURWOOD,210,207031165,Apartment
215265,"15 PEARCE STREET, BURWOOD",-37.855764,145.1289,3.0,2.0,2,$430_per_week,March 2017,3125,2017,3,BURWOOD,430,207031165,House
215266,"69/390 BURWOOD HIGHWAY, BURWOOD",-37.852279,145.130904,1.0,1.0,0,$205_per_week,October 2017,3125,2017,10,BURWOOD,205,207031165,Apartment
215269,"G37/386 BURWOOD HIGHWAY, BURWOOD",-37.852243,145.130583,1.0,1.0,0,$230_per_week,February 2017,3125,2017,2,BURWOOD,230,207031165,Apartment
215270,"G12/386 BURWOOD HIGHWAY, BURWOOD",-37.852243,145.130583,1.0,1.0,0,$230_per_week,December 2017,3125,2017,12,BURWOOD,230,207031165,Apartment
215271,"G12/386 BURWOOD HIGHWAY, BURWOOD",-37.852243,145.130583,1.0,1.0,0,$230_per_week,September 2017,3125,2017,9,BURWOOD,230,207031165,Apartment
215272,"236/386 BURWOOD HIGHWAY, BURWOOD",-37.852243,145.130583,1.0,1.0,0,$225_per_week,April 2017,3125,2017,4,BURWOOD,225,207031165,Apartment
215273,"233/386 BURWOOD HIGHWAY, BURWOOD",-37.852243,145.130583,1.0,1.0,0,$225_per_week,December 2017,3125,2017,12,BURWOOD,225,207031165,Apartment
215274,"233/386 BURWOOD HIGHWAY, BURWOOD",-37.852243,145.130583,1.0,1.0,0,$225_per_week,October 2017,3125,2017,10,BURWOOD,225,207031165,Apartment
215275,"218/386 BURWOOD HIGHWAY, BURWOOD",-37.852243,145.130583,1.0,1.0,0,$225_per_week,September 2017,3125,2017,9,BURWOOD,225,207031165,Apartment
215276,"218/386 BURWOOD HIGHWAY, BURWOOD",-37.852243,145.130583,1.0,1.0,0,$225_per_week,August 2017,3125,2017,8,BURWOOD,225,207031165,Apartment
215277,"29/390 BURWOOD HIGHWAY, BURWOOD",-37.852279,145.130904,1.0,1.0,0,$210_per_week,August 2017,3125,2017,8,BURWOOD,210,207031165,Apartment
215278,"29/390 BURWOOD HIGHWAY, BURWOOD",-37.852279,145.130904,1.0,1.0,0,$200_per_week,August 2017,3125,2017,8,BURWOOD,200,207031165,Apartment
215279,"80 PARER STREET, BURWOOD",-37.844473,145.104706,3.0,2.0,2,$495_per_week,August 2017,3125,2017,8,BURWOOD,495,207031165,House
215283,"4 MAIDEN COURT, BURWOOD",-37.8577,145.109172,4.0,2.0,2,$710,December 2017,3125,2017,12,BURWOOD,710,212051319,House
215297,"203/386 BURWOOD HIGHWAY, BURWOOD",-37.852243,145.130583,1.0,1.0,0,$225_per_week,October 2017,3125,2017,10,BURWOOD,225,207031165,Apartment
215298,"124/386 BURWOOD HIGHWAY, BURWOOD",-37.852243,145.130583,1.0,1.0,0,$220_per_week,August 2017,3125,2017,8,BURWOOD,220,207031165,Apartment
215299,"241/386 BURWOOD HIGHWAY, BURWOOD",-37.852243,145.130583,1.0,1.0,0,$250_per_week,December 2017,3125,2017,12,BURWOOD,250,207031165,Apartment
215300,"241/386 BURWOOD HIGHWAY, BURWOOD",-37.852243,145.130583,1.0,1.0,0,$250_per_week,November 2017,3125,2017,11,BURWOOD,250,207031165,Apartment
215301,"4 WRIDGWAY AVENUE, BURWOOD",-37.851656,145.121036,3.0,1.0,1,$445_pw,May 2017,3125,2017,5,BURWOOD,445,207031165,House
215302,"2/29 RENOWN STREET, BURWOOD",-37.8541807,145.122365,3.0,2.0,2,$550_per_week,December 2017,3125,2017,12,BURWOOD,550,207031165,House
215303,"4A ANDREWS STREET, BURWOOD",-37.850701,145.128168,3.0,3.0,1,$600_pw,May 2017,3125,2017,5,BURWOOD,600,207031165,House
215306,"55/390 BURWOOD HIGHWAY, BURWOOD",-37.852279,145.130904,1.0,1.0,0,$210_per_week,November 2017,3125,2017,11,BURWOOD,210,207031165,Apartment
215311,"102/1 DELANY AVENUE, BURWOOD",-37.849554,145.119534,1.0,1.0,0,$230_per_week,October 2017,3125,2017,10,BURWOOD,230,207031165,Apartment
215312,"24/390 BURWOOD HIGHWAY, BURWOOD",-37.852279,145.130904,1.0,1.0,0,$210_per_week,October 2017,3125,2017,10,BURWOOD,210,207031165,Apartment
215313,"121/386 BURWOOD HIGHWAY, BURWOOD",-37.852243,145.130583,1.0,1.0,0,$225_per_week,June 2017,3125,2017,6,BURWOOD,225,207031165,Apartment
215317,"208/224 BURWOOD HIGHWAY, BURWOOD",-37.8501171,145.1144686,2.0,2.0,0,$405,December 2017,3125,2017,12,BURWOOD,405,207031165,House
215318,"G03/386 BURWOOD HIGHWAY, BURWOOD",-37.852243,145.130583,1.0,1.0,0,$230,December 2017,3125,2017,12,BURWOOD,230,207031165,Apartment
215319,"3/25 ROSLYN STREET, BURWOOD",-37.847975,145.102289,2.0,2.0,2,$400_pw,January 2017,3125,2017,1,BURWOOD,400,207031165,House
215320,"94 BRIDGE ROAD, BUSHFIELD",-38.322386,142.495382,3.0,1.0,1,$320,July 2017,3281,2017,7,BUSHFIELD,320,217041479,House
215321,"220 SPRING FLAT ROAD, BUSHFIELD",-38.3298325,142.5339478,5.0,3.0,2,$330_per_week,September 2017,3281,2017,9,BUSHFIELD,330,217041477,House
215322,"36 RODGERS PLACE, BUSHFIELD",-38.3269156,142.4981878,3.0,2.0,3,$360_pw,August 2017,3281,2017,8,BUSHFIELD,360,217041479,House
215330,"13 DARBYSHIRE STREET, BYADUK NORTH",-37.893047,141.956628,3.0,2.0,3,$250_p.w.,April 2017,3300,2017,4,NORTH,250,217011423,House
215331,"128 ARDOON ROAD, BYADUK NORTH",-37.890549,141.939229,5.0,2.0,0,$260_per_week,February 2017,3300,2017,2,NORTH,260,217011423,House
215345,"54 STOCKTON DRIVE, CAIRNLEA",-37.75343,144.781998,3.0,2.0,2,$470,July 2017,3023,2017,7,CAIRNLEA,470,213011329,House
215346,"54 STOCKTON DRIVE, CAIRNLEA",-37.75343,144.781998,3.0,2.0,2,$475_per_week,July 2017,3023,2017,7,CAIRNLEA,475,213011329,House
215347,"9 SILVERDALE WALK, CAIRNLEA",-37.765551,144.797567,4.0,2.0,2,$450,December 2017,3023,2017,12,CAIRNLEA,450,213011329,House
215348,"9 SILVERDALE WALK, CAIRNLEA",-37.765551,144.797567,4.0,2.0,2,$460,November 2017,3023,2017,11,CAIRNLEA,460,213011329,House
215352,"0 EDENS ROAD, CALDERMEADE",-38.2375242,145.5486417,3.0,2.0,2,$350,July 2017,3984,2017,7,CALDERMEADE,350,212011548,House
215357,"14 ALIZA AVENUE, CALIFORNIA GULLY",-36.7233039,144.2721543,4.0,2.0,2,$300_per_week,December 2017,3556,2017,12,GULLY,300,202011019,House
215358,"14 ALIZA AVENUE, CALIFORNIA GULLY",-36.7233039,144.2721543,4.0,2.0,2,$300_per_week,November 2017,3556,2017,11,GULLY,300,202011019,House
215363,"4/348 EAGLEHAWK ROAD, CALIFORNIA GULLY",-36.7282335,144.258592,2.0,1.0,1,$210,May 2017,3556,2017,5,GULLY,210,202011019,House
215365,"4/38 BROWN STREET, CALIFORNIA GULLY",-36.729904,144.250383,1.0,1.0,1,$160_pw,August 2017,3556,2017,8,GULLY,160,202011019,Apartment
215366,"4/38 BROWN STREET, CALIFORNIA GULLY",-36.729904,144.250383,1.0,1.0,1,$160_pw,January 2017,3556,2017,1,GULLY,160,202011019,Apartment
215370,"25 FACTORY RD, CALLIGNEE",-38.331201,146.576027,3.0,2.0,2,$395_per_week,December 2017,3844,2017,12,CALLIGNEE,395,205041094,House
215371,"1/3 HALLEY AVENUE, CAMBERWELL",-37.846282,145.069709,3.0,2.0,2,$550_pw,September 2017,3124,2017,9,CAMBERWELL,550,207011149,House
215373,"210/828 BURKE ROAD, CAMBERWELL",-37.821798,145.058718,1.0,1.0,1,$360_pw,January 2017,3124,2017,1,CAMBERWELL,360,207011149,Apartment
215374,"502/1101 TOORAK ROAD, CAMBERWELL",-37.847719,145.075153,1.0,1.0,1,$370_pw,April 2017,3124,2017,4,CAMBERWELL,370,207011149,Apartment
215375,"301/436 BURKE ROAD, CAMBERWELL",-37.8440951,145.0544857,2.0,2.0,1,$520_per_week,April 2017,3124,2017,4,CAMBERWELL,520,207011149,House
215376,"7 SEFTON PLACE, CAMBERWELL",-37.82472,145.068281,4.0,2.0,1,$1200_pw,October 2017,3124,2017,10,CAMBERWELL,1200,207011149,House
215377,"7 SEFTON PLACE, CAMBERWELL",-37.82472,145.068281,4.0,2.0,1,$1300_pw,September 2017,3124,2017,9,CAMBERWELL,1300,207011149,House
215378,"1 NEVIS STREET, CAMBERWELL",-37.842707,145.07858,4.0,2.0,3,$750,August 2017,3124,2017,8,CAMBERWELL,750,207011149,House
215379,"G09/1011 TOORAK ROAD, CAMBERWELL",-37.846539,145.066323,2.0,2.0,1,$490_pw,February 2017,3124,2017,2,CAMBERWELL,490,207011149,House
215382,"7 NICHOLSDALE ROAD, CAMBERWELL",-37.836122,145.091532,2.0,2.0,2,$570_p.w.,September 2017,3124,2017,9,CAMBERWELL,570,207011149,House
215383,"7 NICHOLSDALE ROAD, CAMBERWELL",-37.836122,145.091532,2.0,2.0,2,$570,January 2017,3124,2017,1,CAMBERWELL,570,207011149,House
215384,"15 WARBURTON ROAD, CAMBERWELL",-37.825922,145.070219,3.0,1.0,1,$730_pw,April 2017,3124,2017,4,CAMBERWELL,730,207011149,House
215385,"201/347 CAMBERWELL ROAD, CAMBERWELL",-37.833886,145.060422,1.0,1.0,1,$380_Weekly,August 2017,3124,2017,8,CAMBERWELL,380,207011149,Apartment
215386,"7 OBERWYL ROAD, CAMBERWELL",-37.846258,145.085261,4.0,2.0,3,$900_pw,December 2017,3124,2017,12,CAMBERWELL,900,207011149,House
215392,"2/596 RIVERSDALE ROAD, CAMBERWELL",-37.83227158,145.06324768,2.0,1.0,1,$400_per_week,June 2017,3124,2017,6,CAMBERWELL,400,207011149,Apartment
215393,"72 SPENCER ROAD, CAMBERWELL",-37.82643,145.070918,3.0,2.0,2,$800_p.w.,November 2017,3124,2017,11,CAMBERWELL,800,207011149,House
215394,"14 HOLLSMOOR ROAD, CAMBERWELL",-37.840809,145.09047,3.0,1.0,1,$450_pw,January 2017,3124,2017,1,CAMBERWELL,450,207011149,House
215395,"3 DONNA BUANG STREET, CAMBERWELL",-37.84434,145.064707,4.0,3.0,2,$800_per_week,December 2017,3124,2017,12,CAMBERWELL,800,207011149,House
215398,"39 LYNDEN STREET, CAMBERWELL",-37.840895,145.086331,6.0,2.0,2,$730,February 2017,3124,2017,2,CAMBERWELL,730,207011149,House
215399,"1/126 WATTLE VALLEY ROAD, CAMBERWELL",-37.837583,145.080986,2.0,1.0,1,$365_per_week,January 2017,3124,2017,1,CAMBERWELL,365,207011149,Apartment
215401,"2/2-4 GEORGINA PARADE, CAMBERWELL",-37.844055,145.074956,2.0,1.0,1,$440_pw,July 2017,3124,2017,7,CAMBERWELL,440,207011149,Apartment
215402,"121/347 CAMBERWELL ROAD, CAMBERWELL",-37.8338716,145.0603977,2.0,1.0,1,$430_Weekly,November 2017,3124,2017,11,CAMBERWELL,430,207011149,Apartment
215403,"12/1277 TOORAK ROAD, CAMBERWELL",-37.848211,145.074551,2.0,1.0,1,$380_pw,July 2017,3124,2017,7,CAMBERWELL,380,207011150,House
215407,"113/1101 TOORAK ROAD, CAMBERWELL",-37.847719,145.075153,2.0,2.0,1,$440_pw,January 2017,3124,2017,1,CAMBERWELL,440,207011149,House
215408,"520/585 LATROBE STREET, MELBOURNE, MELBOURNE",-37.851311,144.989177,3.0,2.0,0,$1290_per_week,August 2017,3000,2017,8,MELBOURNE,1290,206061136,House
215409,"1119/268 FLINDERS STREET, MELBOURNE",-37.817861,144.9655548,1.0,1.0,0,$310_per_week,June 2017,3000,2017,6,MELBOURNE,310,206041503,Apartment
215410,"500 FLINDERS STREET, MELBOURNE",-37.820019,144.957827,1.0,1.0,0,$450,September 2017,3000,2017,9,MELBOURNE,450,206041505,Apartment
215411,"1316/555-557 ST KILDA ROAD, MELBOURNE",-37.846967,144.9799153,2.0,2.0,1,$630_Week,May 2017,3000,2017,5,MELBOURNE,630,206041125,House
215412,"1316/555-557 ST KILDA ROAD, MELBOURNE",-37.846967,144.9799153,2.0,2.0,1,$640_Week,April 2017,3000,2017,4,MELBOURNE,640,206041125,House
215413,"502/5 SUTHERLAND STREET, MELBOURNE",-37.8113855,144.9609182,1.0,1.0,0,$440_per_week,July 2017,3000,2017,7,MELBOURNE,440,206041504,Apartment
215414,"502/5 SUTHERLAND STREET, MELBOURNE",-37.8113855,144.9609182,1.0,1.0,0,$440_per_week,June 2017,3000,2017,6,MELBOURNE,440,206041504,Apartment
215415,"627/118 FRANKLIN STREET, MELBOURNE",-37.808192,144.958953,1.0,1.0,0,$370_Weekly,July 2017,3000,2017,7,MELBOURNE,370,206041504,Apartment
215416,"1208/151 FRANKLIN STREET, MELBOURNE",-37.8086896,144.9593881,1.0,1.0,0,$425_pw,October 2017,3000,2017,10,MELBOURNE,425,206041504,Apartment
215417,"1419/555 ST KILDA ROAD, MELBOURNE",-37.846967,144.9799153,2.0,2.0,1,$650_pw,May 2017,3000,2017,5,MELBOURNE,650,206041125,House
215418,"2703/8 EXPLORATION LANE, MELBOURNE",-37.8092558,144.9683848,2.0,2.0,0,$600_per_week,January 2017,3000,2017,1,MELBOURNE,600,206041503,House
215419,"508/455 ELIZABETH STREET, MELBOURNE",-37.808459,144.960167,2.0,1.0,0,$500_per_week,May 2017,3000,2017,5,MELBOURNE,500,206041504,Apartment
215420,"508/455 ELIZABETH STREET, MELBOURNE",-37.808459,144.960167,2.0,1.0,0,$500_per_week,March 2017,3000,2017,3,MELBOURNE,500,206041504,Apartment
215421,"402/33 ROSE LANE, MELBOURNE",-37.815235,144.9541488,2.0,2.0,1,$620_Week,January 2017,3000,2017,1,MELBOURNE,620,206041505,House
215422,"402/33 ROSE LANE, MELBOURNE",-37.815235,144.9541488,2.0,2.0,1,$630_Week,January 2017,3000,2017,1,MELBOURNE,630,206041505,House
215423,"3203/35 SPRING STREET, MELBOURNE",-37.814171,144.97405,2.0,2.0,1,$1100_per_week,April 2017,3000,2017,4,MELBOURNE,1100,206041503,House
215424,"904/422 COLLINS STREET, MELBOURNE",-37.817137,144.96012,1.0,1.0,0,$400_per_week,March 2017,3000,2017,3,MELBOURNE,400,206041505,Apartment
215425,"1110/22-24 JANE BELL LANE, MELBOURNE",-37.81022,144.966265,1.0,1.0,1,$440_per_week,April 2017,3000,2017,4,MELBOURNE,440,206041504,Apartment
215426,"124/546 FLINDERS STREET, MELBOURNE",-37.820521,144.956143,1.0,1.0,0,$260_pw,July 2017,3000,2017,7,MELBOURNE,260,206041505,Apartment
215427,"124/546 FLINDERS STREET, MELBOURNE",-37.820521,144.956143,1.0,1.0,0,$260_pw,June 2017,3000,2017,6,MELBOURNE,260,206041505,Apartment
215428,"3410/33 ROSE LANE, MELBOURNE",-37.8154272,144.9542392,2.0,1.0,1,$580_pw,August 2017,3000,2017,8,MELBOURNE,580,206041505,Apartment
215429,"2102/25 THERRY STREET, MELBOURNE",-37.8068232,144.9608822,1.0,1.0,0,$510,January 2017,3000,2017,1,MELBOURNE,510,206041504,Apartment
215430,"3709/639 LONSDALE STREET, MELBOURNE",-37.8150108,144.9535651,2.0,1.0,1,$520_pw,August 2017,3000,2017,8,MELBOURNE,520,206041505,Apartment
215431,"4202/568 COLLINS STREET, MELBOURNE",-37.8183759,144.9554361,2.0,1.0,1,$695,July 2017,3000,2017,7,MELBOURNE,695,206041505,Apartment
215432,"4304/442 ELIZABETH STREET, MELBOURNE",-37.8083542,144.9607272,2.0,1.0,0,$650_pw,November 2017,3000,2017,11,MELBOURNE,650,206041504,Apartment
215433,"925/555 FLINDERS STREET, MELBOURNE",-37.821153,144.956585,2.0,2.0,1,$570_per_week,August 2017,3000,2017,8,MELBOURNE,570,206041505,House
215434,"1607/5 SUTHERLAND STREET, MELBOURNE",-37.8114109,144.960837,1.0,1.0,0,$450_per_week,July 2017,3000,2017,7,MELBOURNE,450,206041504,Apartment
215435,"310/268 FLINDERS STREET, MELBOURNE",-37.817606,144.965626,1.0,1.0,0,$320,August 2017,3000,2017,8,MELBOURNE,320,206041503,Apartment
215436,"1609/398 ELIZABETH STREET, MELBOURNE",-37.8093895,144.9612094,2.0,1.0,1,$630_Week,November 2017,3000,2017,11,MELBOURNE,630,206041504,Apartment
215437,"1609/398 ELIZABETH STREET, MELBOURNE",-37.8093895,144.9612094,2.0,1.0,1,$630_Week,September 2017,3000,2017,9,MELBOURNE,630,206041504,Apartment
215438,"1707/243 FRANKLIN STREET, MELBOURNE",-37.809699,144.956682,2.0,1.0,0,$540_pw,August 2017,3000,2017,8,MELBOURNE,540,206041504,Apartment
215439,"1707/243 FRANKLIN STREET, MELBOURNE",-37.809699,144.956682,2.0,1.0,0,$540_pw,July 2017,3000,2017,7,MELBOURNE,540,206041504,Apartment
215440,"1903/22-40 WILLS STREET, MELBOURNE",-37.8106903,144.9572146,1.0,1.0,0,$400_per_week,April 2017,3000,2017,4,MELBOURNE,400,206041504,Apartment
215441,"305/441 LONSDALE STREET, MELBOURNE",-37.813267,144.959325,1.0,1.0,0,$340_pw,May 2017,3000,2017,5,MELBOURNE,340,206041505,Apartment
215442,"2002/25 WILLS STREET, MELBOURNE",-37.8107426,144.956997,1.0,1.0,0,$430_pw,November 2017,3000,2017,11,MELBOURNE,430,206041504,Apartment
215443,"2002/25 WILLS STREET, MELBOURNE",-37.8107426,144.956997,1.0,1.0,0,$430_pw,April 2017,3000,2017,4,MELBOURNE,430,206041504,Apartment
215444,"4809/398 ELIZABETH STREET, MELBOURNE",-37.8093895,144.9612094,1.0,1.0,0,$450_Weekly,November 2017,3000,2017,11,MELBOURNE,450,206041504,Apartment
215445,"6B/131 LONSDALE STREET, MELBOURNE",-37.810713,144.968409,1.0,1.0,0,$350_per_week,July 2017,3000,2017,7,MELBOURNE,350,206041503,Apartment
215446,"148/139 LONSDALE STREET, MELBOURNE",-37.8114399,144.9685942,2.0,1.0,0,$400_pw,November 2017,3000,2017,11,MELBOURNE,400,206041503,Apartment
215447,"3510/500 ELIZABETH STREET, MELBOURNE",-37.8072345,144.960246,2.0,2.0,0,$640_per_week,April 2017,3000,2017,4,MELBOURNE,640,206041504,House
215448,"3510/500 ELIZABETH STREET, MELBOURNE",-37.8072345,144.960246,2.0,2.0,0,$640_per_week,February 2017,3000,2017,2,MELBOURNE,640,206041504,House
215449,"1007/565 FLINDERS STREET, MELBOURNE",-37.8210683,144.9558995,2.0,2.0,1,$675_pw,March 2017,3000,2017,3,MELBOURNE,675,206041505,House
215450,"200 SPENCER STREET, MELBOURNE",-37.81613541,144.95289612,2.0,2.0,1,$670_pw,November 2017,3000,2017,11,MELBOURNE,670,206041505,House
215451,"200 SPENCER STREET, MELBOURNE",-37.81613541,144.95289612,2.0,2.0,1,$450_Weekly,February 2017,3000,2017,2,MELBOURNE,450,206041505,House
215452,"31/398 LA TROBE STREET, MELBOURNE",-37.8113441,144.9580525,1.0,1.0,1,$450_per_week,July 2017,3000,2017,7,MELBOURNE,450,206041505,Apartment
215453,"1404/568 COLLINS STREET, MELBOURNE",-37.8185925,144.9554384,2.0,1.0,0,$500_pw,July 2017,3000,2017,7,MELBOURNE,500,206041505,Apartment
215454,"1706/200 SPENCER STREET, MELBOURNE",-37.816257,144.953288,1.0,1.0,1,$775_pw,September 2017,3000,2017,9,MELBOURNE,775,206041505,Apartment
215455,"1706/200 SPENCER STREET, MELBOURNE",-37.816257,144.953288,1.0,1.0,1,$812_pw,July 2017,3000,2017,7,MELBOURNE,812,206041505,Apartment
215456,"1706/200 SPENCER STREET, MELBOURNE",-37.816257,144.953288,1.0,1.0,1,$812_pw,February 2017,3000,2017,2,MELBOURNE,812,206041505,Apartment
215457,"1706/200 SPENCER STREET, MELBOURNE",-37.816257,144.953288,1.0,1.0,1,$812_pw,January 2017,3000,2017,1,MELBOURNE,812,206041505,Apartment
215458,"2105/39 LONSDALE STREET, MELBOURNE",-37.8097503,144.9711289,2.0,1.0,0,$500_per_week,February 2017,3000,2017,2,MELBOURNE,500,206041503,Apartment
215459,"110/133 BOURKE STREET, MELBOURNE",-37.812912,144.969358,1.0,1.0,1,$1295_pw,November 2017,3000,2017,11,MELBOURNE,1295,206041503,Apartment
215460,"110/133 BOURKE STREET, MELBOURNE",-37.812912,144.969358,1.0,1.0,1,$1295_pw,September 2017,3000,2017,9,MELBOURNE,1295,206041503,Apartment
215461,"110/133 BOURKE STREET, MELBOURNE",-37.812912,144.969358,1.0,1.0,1,$1295_pw,July 2017,3000,2017,7,MELBOURNE,1295,206041503,Apartment
215462,"110/133 BOURKE STREET, MELBOURNE",-37.812912,144.969358,1.0,1.0,1,$1295_pw,May 2017,3000,2017,5,MELBOURNE,1295,206041503,Apartment
215463,"110/133 BOURKE STREET, MELBOURNE",-37.812912,144.969358,1.0,1.0,1,$1295_pw,April 2017,3000,2017,4,MELBOURNE,1295,206041503,Apartment
215464,"110/133 BOURKE STREET, MELBOURNE",-37.812912,144.969358,1.0,1.0,1,$1295_pw,February 2017,3000,2017,2,MELBOURNE,1295,206041503,Apartment
215465,"110/250 ELIZABETH STREET, MELBOURNE",-37.81261,144.962885,1.0,1.0,1,$1085_pw,November 2017,3000,2017,11,MELBOURNE,1085,206041503,Apartment
215466,"110/250 ELIZABETH STREET, MELBOURNE",-37.81261,144.962885,1.0,1.0,1,$1085_pw,October 2017,3000,2017,10,MELBOURNE,1085,206041503,Apartment
215467,"110/250 ELIZABETH STREET, MELBOURNE",-37.81261,144.962885,1.0,1.0,1,$1085_pw,September 2017,3000,2017,9,MELBOURNE,1085,206041503,Apartment
215468,"110/250 ELIZABETH STREET, MELBOURNE",-37.81261,144.962885,1.0,1.0,1,$1085_pw,August 2017,3000,2017,8,MELBOURNE,1085,206041503,Apartment
215469,"110/250 ELIZABETH STREET, MELBOURNE",-37.81261,144.962885,1.0,1.0,1,$1085_pw,July 2017,3000,2017,7,MELBOURNE,1085,206041503,Apartment
215470,"110/250 ELIZABETH STREET, MELBOURNE",-37.81261,144.962885,1.0,1.0,1,$1085_pw,May 2017,3000,2017,5,MELBOURNE,1085,206041503,Apartment
215471,"110/250 ELIZABETH STREET, MELBOURNE",-37.81261,144.962885,1.0,1.0,1,$1085_pw,April 2017,3000,2017,4,MELBOURNE,1085,206041503,Apartment
215472,"110/250 ELIZABETH STREET, MELBOURNE",-37.81261,144.962885,1.0,1.0,1,$1085_pw,March 2017,3000,2017,3,MELBOURNE,1085,206041503,Apartment
215473,"110/250 ELIZABETH STREET, MELBOURNE",-37.81261,144.962885,1.0,1.0,1,$1085_pw,February 2017,3000,2017,2,MELBOURNE,1085,206041503,Apartment
215474,"3601/8 SUTHERLAND STREET, MELBOURNE",-37.811318,144.9609917,3.0,2.0,0,$900_per_week,July 2017,3000,2017,7,MELBOURNE,900,206041504,House
215475,"3601/8 SUTHERLAND STREET, MELBOURNE",-37.811318,144.9609917,3.0,2.0,0,$900_per_week,June 2017,3000,2017,6,MELBOURNE,900,206041504,House
215476,"2803/483 SWANSTON STREET, MELBOURNE",-37.807218,144.962336,2.0,1.0,0,$580_pw,July 2017,3000,2017,7,MELBOURNE,580,206041504,Apartment
215477,"709/11 COHEN PLACE, MELBOURNE",-37.811061,144.9690124,1.0,1.0,0,$400_pw,May 2017,3000,2017,5,MELBOURNE,400,206041503,Apartment
215478,"4405/639 LONSDALE STREET, MELBOURNE",-37.8150108,144.9535651,2.0,1.0,0,$600_pw,July 2017,3000,2017,7,MELBOURNE,600,206041505,Apartment
215479,"604/268 FLINDERS STREET, MELBOURNE",-37.8178628,144.9655187,1.0,1.0,0,$305_Weekly,January 2017,3000,2017,1,MELBOURNE,305,206041503,Apartment
215480,"604/268 FLINDERS STREET, MELBOURNE",-37.8178628,144.9655187,1.0,1.0,0,$310_Weekly,January 2017,3000,2017,1,MELBOURNE,310,206041503,Apartment
215481,"2304/250 ELIZABETH STREET, MELBOURNE",-37.812679,144.962733,1.0,1.0,0,$480_per_week,March 2017,3000,2017,3,MELBOURNE,480,206041503,Apartment
215482,"1902/5 SUTHERLAND STREET, MELBOURNE",-37.8114109,144.960837,1.0,1.0,0,$440_per_week,January 2017,3000,2017,1,MELBOURNE,440,206041504,Apartment
215483,"415/118 FRANKLIN STREET, MELBOURNE",-37.808357,144.959008,1.0,1.0,0,$380_Weekly,December 2017,3000,2017,12,MELBOURNE,380,206041504,Apartment
215484,"415/118 FRANKLIN STREET, MELBOURNE",-37.808357,144.959008,1.0,1.0,0,$390,May 2017,3000,2017,5,MELBOURNE,390,206041504,Apartment
215485,"11 ROSE LANE, MELBOURNE",-37.8154577,144.9542662,2.0,1.0,1,$580_Weekly,February 2017,3000,2017,2,MELBOURNE,580,206041505,Apartment
215486,"11 ROSE LANE, MELBOURNE",-37.8154577,144.9542662,2.0,1.0,1,$520_Weekly,February 2017,3000,2017,2,MELBOURNE,520,206041505,Apartment
215487,"2712/500 ELIZABETH STREET, MELBOURNE",-37.807359,144.960425,2.0,1.0,0,$550_per_week,April 2017,3000,2017,4,MELBOURNE,550,206041504,Apartment
215488,"2712/500 ELIZABETH STREET, MELBOURNE",-37.807359,144.960425,2.0,1.0,0,$550_per_week,March 2017,3000,2017,3,MELBOURNE,550,206041504,Apartment
215489,"1306/500 ELIZABETH STREET, MELBOURNE",-37.8071889,144.9603559,2.0,2.0,0,$660_pw,June 2017,3000,2017,6,MELBOURNE,660,206041504,House
215490,"1612/155 FRANKLIN STREET, MELBOURNE",-37.8087933,144.9595403,2.0,1.0,0,$580_pw,September 2017,3000,2017,9,MELBOURNE,580,206041504,Apartment
215491,"10/17 QUEENS ROAD, MELBOURNE",-37.818427,144.9621,1.0,1.0,1,$360_per_week,November 2017,3000,2017,11,MELBOURNE,360,206041505,Apartment
215498,"8 EXELL AVENUE, MELTON SOUTH",-37.700075,144.577667,3.0,2.0,2,$310_pw,August 2017,3338,2017,8,SOUTH,310,213041578,House
215499,"8 EXELL AVENUE, MELTON SOUTH",-37.700075,144.577667,3.0,2.0,2,$310_per_week,July 2017,3338,2017,7,SOUTH,310,213041578,House
215500,"8 EXELL AVENUE, MELTON SOUTH",-37.700075,144.577667,3.0,2.0,2,$310_per_week,June 2017,3338,2017,6,SOUTH,310,213041578,House
215505,"1/162 EXFORD ROAD, MELTON SOUTH",-37.718917,144.572648,3.0,2.0,1,$270_per_week,July 2017,3338,2017,7,SOUTH,270,213041578,House
215509,"39 BURSWOOD CIRCUIT, MELTON WEST",-37.6672831,144.5556893,4.0,2.0,2,$335_pw,October 2017,3337,2017,10,WEST,335,213041358,House
215510,"13 GLOUCESTER WAY, MELTON WEST",-37.67337,144.556356,4.0,2.0,2,$330,September 2017,3337,2017,9,WEST,330,213041358,House
215511,"13 GLOUCESTER WAY, MELTON WEST",-37.67337,144.556356,4.0,2.0,2,$340_pw,September 2017,3337,2017,9,WEST,340,213041358,House
215512,"126 WEST MELTON DRIVE, MELTON WEST",-37.6832767,144.595269,3.0,1.0,1,$295_pw,August 2017,3337,2017,8,WEST,295,213041577,House
215514,"2/16 MARLO DRIVE, MELTON WEST",-37.6689492,144.5557568,3.0,2.0,1,$305,April 2017,3337,2017,4,WEST,305,213041358,House
215520,"4/61 CHURCH STREET, MELTON",-37.6820362,144.5784434,2.0,1.0,1,$295_pw,November 2017,3337,2017,11,MELTON,295,213041577,Apartment
215521,"4 KINKORA ROAD, MELTON",-37.689558,144.571338,3.0,1.0,1,$330_per_week,June 2017,3337,2017,6,MELTON,330,213041577,House
215523,"13 / 20-24 PALMERSTON, MELTON",-37.687766,144.5837119,3.0,1.0,1,$271,April 2017,3337,2017,4,MELTON,271,213041577,House
215524,"2 VISTA DRIVE, MELTON",-37.682123,144.573474,3.0,1.0,2,$280_per_week,February 2017,3337,2017,2,MELTON,280,213041577,House
215525,"2 VISTA DRIVE, MELTON",-37.682123,144.573474,3.0,1.0,2,$280_per_week,January 2017,3337,2017,1,MELTON,280,213041577,House
215536,"27 CARINA DRIVE, MELTON",-37.6820302,144.5715837,4.0,2.0,1,$350_per_week,October 2017,3337,2017,10,MELTON,350,213041577,House
215539,"103 CENTENARY AVENUE, MELTON",-37.675225,144.586385,3.0,1.0,2,$310_per_week,October 2017,3337,2017,10,MELTON,310,213041577,House
215545,"23 PLOVER STREET, MELTON",-37.677741,144.573378,3.0,2.0,2,$265_pw,December 2017,3337,2017,12,MELTON,265,213041577,House
215547,"39 ROSINA DRIVE, MELTON",-37.685071,144.569605,3.0,1.0,2,$310,August 2017,3337,2017,8,MELTON,310,213041577,House
215552,"3/60 UNITT STREET, MELTON",-37.681666,144.579066,2.0,1.0,1,$185_per_week,October 2017,3337,2017,10,MELTON,185,213041577,Apartment
215553,"3/60 UNITT STREET, MELTON",-37.681666,144.579066,2.0,1.0,1,$185,September 2017,3337,2017,9,MELTON,185,213041577,Apartment
215557,"1/39 MILAN STREET, MENTONE",-37.984766,145.059807,2.0,1.0,1,$360_p.w.,September 2017,3194,2017,9,MENTONE,360,208031190,Apartment
215558,"405/7 BALCOMBE ROAD, MENTONE",-37.9820513,145.0706707,2.0,2.0,1,$420_pw,December 2017,3194,2017,12,MENTONE,420,208031190,House
215559,"3/2A FLORENCE STREET, MENTONE",-37.982311,145.059045,1.0,1.0,1,$260_pw,January 2017,3194,2017,1,MENTONE,260,208031190,Apartment
215560,"3/48 PLUMMER ROAD, MENTONE",-37.9826713,145.0584897,2.0,1.0,1,$450_per_week,April 2017,3194,2017,4,MENTONE,450,208031190,Apartment
215561,"12 BARRY STREET, MENTONE",-37.9863099,145.0702,3.0,2.0,1,$620_pw,July 2017,3194,2017,7,MENTONE,620,208031190,House
215563,"3/7 PALERMO STREET, MENTONE",-37.990169,145.066325,2.0,1.0,1,$385_per_week,January 2017,3194,2017,1,MENTONE,385,208031190,Apartment
215564,"14/31-35 COMO PARADE EAST, MENTONE",-37.986483,145.069557,2.0,2.0,1,$470_Weekly,August 2017,3194,2017,8,MENTONE,470,208031190,House
215565,"1/158 BALCOMBE ROAD, MENTONE",-37.980605,145.062069,3.0,2.0,2,$600_pw,July 2017,3194,2017,7,MENTONE,600,208031190,House
215566,"1/158 BALCOMBE ROAD, MENTONE",-37.980605,145.062069,3.0,2.0,2,$600_pw,June 2017,3194,2017,6,MENTONE,600,208031190,House
215568,"21 OLIVE GROVE, MENTONE",-37.984042,145.079111,3.0,1.0,2,$440_per_week,April 2017,3194,2017,4,MENTONE,440,208031190,House
215569,"311/7 BALCOMBE ROAD, MENTONE",-37.9820513,145.0706707,1.0,1.0,1,$325_per_week,July 2017,3194,2017,7,MENTONE,325,208031190,Apartment
215570,"311/7 BALCOMBE ROAD, MENTONE",-37.9820513,145.0706707,1.0,1.0,1,$325_per_week,June 2017,3194,2017,6,MENTONE,325,208031190,Apartment
215571,"311/7 BALCOMBE ROAD, MENTONE",-37.9820513,145.0706707,1.0,1.0,1,$330_per_week,June 2017,3194,2017,6,MENTONE,330,208031190,Apartment
215573,"1/56 BALCOMBE ROAD, MENTONE",-37.981442,145.067602,4.0,2.0,2,$635_pw,February 2017,3194,2017,2,MENTONE,635,208031190,House
215579,"8 / 45 VENICE STREET, MENTONE",-37.985708,145.06118,2.0,1.0,1,$300,April 2017,3194,2017,4,MENTONE,300,208031190,Apartment
215580,"162 BALCOMBE ROAD, MENTONE",-37.980724,145.061653,3.0,1.0,2,$535_per_week,February 2017,3194,2017,2,MENTONE,535,208031190,House
215581,"8/2-4 SALMON STREET, MENTONE",-37.9790535,145.06227112,1.0,1.0,1,$250_per_week,February 2017,3194,2017,2,MENTONE,250,208031190,Apartment
215582,"8/2-4 SALMON STREET, MENTONE",-37.9790535,145.06227112,1.0,1.0,1,$250_per_week,January 2017,3194,2017,1,MENTONE,250,208031190,Apartment
215583,"15/173 BALCOMBE ROAD, MENTONE",-37.98028,145.055356,1.0,1.0,1,$270_per_week,August 2017,3194,2017,8,MENTONE,270,208031190,Apartment
215585,"10/60 BEACH ROAD, MENTONE",-37.987447,145.058099,2.0,1.0,1,$380,May 2017,3194,2017,5,MENTONE,380,208031190,House
215586,"10/60 BEACH ROAD, MENTONE",-37.987447,145.058099,2.0,1.0,1,$390,April 2017,3194,2017,4,MENTONE,390,208031190,Apartment
215587,"3/18 FLINDERS STREET, MENTONE",-37.976155,145.056073,1.0,1.0,1,$320_per_week,January 2017,3194,2017,1,MENTONE,320,208031190,Apartment
215588,"4 HARKIN AVENUE, MENTONE",-37.98681,145.063788,4.0,2.0,2,$775_per_week,September 2017,3194,2017,9,MENTONE,775,208031190,House
215589,"2/80 BALCOMBE ROAD, MENTONE",-37.9813377,145.0654064,2.0,2.0,1,$375_pw,October 2017,3194,2017,10,MENTONE,375,208031190,House
215590,"2/15 LEVANTO STREET, MENTONE",-37.980384,145.07496,1.0,1.0,1,$250_per_week,July 2017,3194,2017,7,MENTONE,250,208031190,Apartment
215591,"9/2A FLORENCE STREET, MENTONE",-37.982468,145.059018,1.0,1.0,1,$250_pw,December 2017,3194,2017,12,MENTONE,250,208031190,Apartment
215592,"58 ALLANDALE ROAD, MENTONE",-37.979973,145.090697,3.0,1.0,2,$420_per_week,April 2017,3194,2017,4,MENTONE,420,208031190,House
215593,"20/30 MENTONE PARADE, MENTONE",-37.989619,145.065553,1.0,1.0,1,$330_per_week,February 2017,3194,2017,2,MENTONE,330,208031190,Apartment
215594,"5/39 MILAN STREET, MENTONE",-37.9847055,145.0598976,2.0,1.0,1,$400_pw,November 2017,3194,2017,11,MENTONE,400,208031190,Apartment
215595,"2/5 SWANSTON STREET, MENTONE",-37.980722,145.065357,3.0,2.0,2,$550_per_week,June 2017,3194,2017,6,MENTONE,550,208031190,House
215596,"5/5 OLIVE GROVE, MENTONE",-37.9853792,145.0791225,2.0,1.0,1,$350_per_week,June 2017,3194,2017,6,MENTONE,350,208031190,Apartment
215597,"5/1 LONG STREET, MENTONE",-37.984809,145.07777,2.0,2.0,1,$550_per_week,October 2017,3194,2017,10,MENTONE,550,208031190,House
215598,"9/52 PLUMMER ROAD, MENTONE",-37.982348,145.05855,1.0,1.0,1,$295_pw,November 2017,3194,2017,11,MENTONE,295,208031190,Apartment
215599,"9/52 PLUMMER ROAD, MENTONE",-37.982348,145.05855,1.0,1.0,1,$295_pw,October 2017,3194,2017,10,MENTONE,295,208031190,Apartment
215600,"707/7 BALCOMBE ROAD, MENTONE",-37.981813,145.0702445,1.0,1.0,2,$410_pw,May 2017,3194,2017,5,MENTONE,410,208031190,Apartment
215601,"302/144 COLLINS STREET, MENTONE",-37.98104,145.069109,2.0,2.0,1,$400_pw,May 2017,3194,2017,5,MENTONE,400,208031190,House
215602,"120 OAK AVENUE, MENTONE",-37.9746876,145.0711519,3.0,2.0,2,$570_per_week,August 2017,3194,2017,8,MENTONE,570,208031190,House
215603,"120 OAK AVENUE, MENTONE",-37.9746876,145.0711519,3.0,2.0,2,$580_per_week,July 2017,3194,2017,7,MENTONE,580,208031190,House
215607,"11 SCHOOL ROAD, MENZIES CREEK",-37.916912,145.394329,3.0,1.0,2,$400_pw,October 2017,3159,2017,10,CREEK,400,211051274,House
215608,"11 SCHOOL ROAD, MENZIES CREEK",-37.916912,145.394329,3.0,1.0,2,$370,February 2017,3159,2017,2,CREEK,370,211051274,House
215609,"11 SCHOOL ROAD, MENZIES CREEK",-37.916912,145.394329,3.0,1.0,2,$370_per_week,January 2017,3159,2017,1,CREEK,370,211051274,House
215610,"69B MENZIES ROAD, MENZIES CREEK",-37.923394,145.418149,1.0,1.0,0,$250_pw,January 2017,3159,2017,1,CREEK,250,211051274,Apartment
215618,"2 HOCKING COURT, MERBEIN",-34.164494,142.067237,3.0,2.0,2,$350_per_week,January 2017,3505,2017,1,MERBEIN,350,215021396,House
215620,"4/44 COMMERCIAL STREET, MERBEIN",-34.168337,142.057207,2.0,1.0,1,$180_pw,April 2017,3505,2017,4,MERBEIN,180,215021396,House
215621,"86 CHAFFEY STREET, MERBEIN",-34.16753,142.068288,3.0,1.0,2,$220_pw,June 2017,3505,2017,6,MERBEIN,220,215021396,House
215622,"86 CHAFFEY STREET, MERBEIN",-34.16753,142.068288,3.0,1.0,2,$220_per_week,March 2017,3505,2017,3,MERBEIN,220,215021396,House
215624,"2/60 BOX STREET, MERBEIN",-34.166958,142.061229,2.0,1.0,1,$190_per_week,April 2017,3505,2017,4,MERBEIN,190,215021396,House
215625,"2/60 BOX STREET, MERBEIN",-34.166958,142.061229,2.0,1.0,1,$190_per_week,March 2017,3505,2017,3,MERBEIN,190,215021396,House
215628,"16 MERCER ST, MEREDITH",-37.8410292,144.0756921,2.0,1.0,1,$230,January 2017,3333,2017,1,MEREDITH,230,203011035,Apartment
215629,"19 GLYNDON AVENUE, MERLYNSTON",-37.721711,144.958987,4.0,2.0,0,$540,July 2017,3058,2017,7,MERLYNSTON,540,210031236,House
215630,"6 PITTAWAY STREET, MERNDA",-37.589583,145.097101,4.0,3.0,2,$380_per_week,May 2017,3754,2017,5,MERNDA,380,209041531,House
215632,"6 SCOTCHMER CRESCENT, MERNDA",-37.5892795,145.103791,4.0,2.0,2,$355_Wk,January 2017,3754,2017,1,MERNDA,355,209041531,House
215639,"53 PALMERS HILL ROAD, MERRICKS BEACH",-38.396762,145.102357,3.0,1.0,1,$350_per_week,July 2017,3926,2017,7,BEACH,350,214021379,House
215640,"20 MINTO STREET, MERRICKS BEACH",-38.3986903,145.10225699,4.0,2.0,0,$1290_per_week,November 2017,3926,2017,11,BEACH,1290,214021379,House
215641,"20 MINTO STREET, MERRICKS BEACH",-38.3986903,145.10225699,4.0,2.0,0,$1290_per_week,July 2017,3926,2017,7,BEACH,1290,214021379,House
215642,"32 PALMERS HILL ROAD, MERRICKS BEACH",-38.397278,145.105506,3.0,1.0,6,$1260_per_week,November 2017,3926,2017,11,BEACH,1260,214021379,House
215643,"32 PALMERS HILL ROAD, MERRICKS BEACH",-38.397278,145.105506,3.0,1.0,6,$1260_per_week,July 2017,3926,2017,7,BEACH,1260,214021379,House
215644,"19 MINTO STREET, MERRICKS BEACH",-38.398954,145.101968,3.0,1.0,0,$1240_per_week,August 2017,3926,2017,8,BEACH,1240,214021379,House
215645,"19 MINTO STREET, MERRICKS BEACH",-38.398954,145.101968,3.0,1.0,0,$1240_per_week,July 2017,3926,2017,7,BEACH,1240,214021379,House
215646,"58 PALMERS HILL ROAD, MERRICKS BEACH",-38.396285,145.102246,3.0,1.0,1,$1140_per_week,August 2017,3926,2017,8,BEACH,1140,214021379,House
215647,"58 PALMERS HILL ROAD, MERRICKS BEACH",-38.396285,145.102246,3.0,1.0,1,$1140_per_week,July 2017,3926,2017,7,BEACH,1140,214021379,House
215648,"17 MINTO STREET, MERRICKS BEACH",-38.399012,145.102161,3.0,1.0,0,$1300_per_week,August 2017,3926,2017,8,BEACH,1300,214021379,House
215649,"17 MINTO STREET, MERRICKS BEACH",-38.399012,145.102161,3.0,1.0,0,$1300_per_week,July 2017,3926,2017,7,BEACH,1300,214021379,House
215662,"UNIT 2 DELATITE APARTMENTS, MERRIJIG",-37.1038962,146.2621236,1.0,1.0,0,$1194_-_$275_pw,November 2017,3723,2017,11,MERRIJIG,275,204011057,Apartment
215664,"271 BUTTERCUP ROAD, MERRIJIG",-37.086387,146.24446,2.0,2.0,1,$1387_-_$320_pw,March 2017,3723,2017,3,MERRIJIG,320,204011057,House
215665,"34 PURCELL DRIVE, MERRIJIG",-37.1124652,146.3562286,3.0,2.0,0,$350_per_week,February 2017,3723,2017,2,MERRIJIG,350,204011057,House
215666,"34 PURCELL DRIVE, MERRIJIG",-37.1124652,146.3562286,3.0,2.0,0,$1040_-_$240_pw,January 2017,3723,2017,1,MERRIJIG,240,204011057,House
215667,"152A BENCES ROAD, MERRIMU",-37.641284,144.475808,2.0,1.0,0,$190,April 2017,3340,2017,4,MERRIMU,190,213041353,Apartment
215668,"152A BENCES ROAD, MERRIMU",-37.641284,144.475808,2.0,1.0,0,$190,May 2017,3340,2017,5,MERRIMU,190,213041353,House
215683,"6/28 PATTERSON STREET, MIDDLE PARK",-37.854557,144.964909,2.0,2.0,1,$560_pw,November 2017,3206,2017,11,PARK,560,206051128,House
215684,"27 WRIGHT STREET, MIDDLE PARK",-37.846915,144.960591,2.0,2.0,0,$680_per_week,March 2017,3206,2017,3,PARK,680,206051128,House
215685,"46 ARMSTRONG STREET, MIDDLE PARK",-37.85101,144.963518,2.0,2.0,0,$860_pw,May 2017,3206,2017,5,PARK,860,206051128,House
215690,"6/70 PATTERSON STREET, MIDDLE PARK",-37.854167,144.964182,1.0,1.0,1,$360_per_week,June 2017,3206,2017,6,PARK,360,206051128,Apartment
215691,"7/62 HAROLD STREET, MIDDLE PARK",-37.85009,144.95946,3.0,1.0,0,$575_per_week,July 2017,3206,2017,7,PARK,575,206051128,House
215692,"23 WRIGHT STREET, MIDDLE PARK",-37.84669,144.96075,3.0,3.0,1,$1300_per_week,May 2017,3206,2017,5,PARK,1300,206051128,House
215693,"147 NEVILLE STREET, MIDDLE PARK",-37.85161,144.964631,2.0,2.0,1,$600_per_week,July 2017,3206,2017,7,PARK,600,206051128,House
215694,"84 NEVILLE STREET, MIDDLE PARK",-37.84998,144.960921,2.0,1.0,0,$650_per_week,May 2017,3206,2017,5,PARK,650,206051128,Apartment
215695,"84 NEVILLE STREET, MIDDLE PARK",-37.84998,144.960921,2.0,1.0,0,$680_per_week,May 2017,3206,2017,5,PARK,680,206051128,Apartment
215696,"111 HAROLD STREET, MIDDLE PARK",-37.851572,144.959047,2.0,1.0,0,$575_pw,August 2017,3206,2017,8,PARK,575,206051128,Apartment
215697,"111 HAROLD STREET, MIDDLE PARK",-37.851572,144.959047,2.0,1.0,0,$575_per_week,July 2017,3206,2017,7,PARK,575,206051128,Apartment
215698,"5 WRIGHT STREET, MIDDLE PARK",-37.846219,144.961138,2.0,1.0,0,$750_pw,December 2017,3206,2017,12,PARK,750,206051128,Apartment
215699,"5/66 PATTERSON STREET, MIDDLE PARK",-37.855083,144.96615,2.0,1.0,1,$425_per_week,May 2017,3206,2017,5,PARK,425,206051128,House
215703,"12 ERSKINE STREET, MIDDLE PARK",-37.847212,144.958544,2.0,1.0,1,$850_pw,June 2017,3206,2017,6,PARK,850,206051128,Apartment
215704,"3/109 NIMMO STREET, MIDDLE PARK",-37.852473,144.960602,2.0,1.0,0,$525_pw,May 2017,3206,2017,5,PARK,525,206051128,House
215705,"3/51 NIMMO STREET, MIDDLE PARK",-37.850501,144.962039,2.0,1.0,1,$495_pw,February 2017,3206,2017,2,PARK,495,206051128,Apartment
215706,"10/72 PATTERSON STREET, MIDDLE PARK",-37.855462,144.966635,1.0,1.0,1,$360_per_week,October 2017,3206,2017,10,PARK,360,206051128,Apartment
215708,"1/244 BEACONSFIELD PARADE, MIDDLE PARK",-37.853054,144.960497,1.0,1.0,0,$500_per_week,March 2017,3206,2017,3,PARK,500,206051128,Apartment
215710,"11/187 BEACONSFIELD PARADE, MIDDLE PARK",-37.8512495,144.9563761,2.0,1.0,1,$420_per_week,February 2017,3206,2017,2,PARK,420,206051128,Apartment
215711,"5/187 BEACONSFIELD PARADE, MIDDLE PARK",-37.851255,144.956318,1.0,1.0,1,$395_per_week,September 2017,3206,2017,9,PARK,395,206051128,Apartment
215712,"24/75 PARK ROAD, MIDDLE PARK",-37.854276,144.968038,1.0,1.0,1,$300_per_week,August 2017,3206,2017,8,PARK,300,206051128,Apartment
215714,"326 RICHARDSON STREET, MIDDLE PARK",-37.852041,144.965831,2.0,1.0,1,$500_per_week,November 2017,3206,2017,11,PARK,500,206051128,Apartment
215717,"4/86 ARMSTRONG STREET, MIDDLE PARK",-37.852925,144.961933,2.0,1.0,0,$650_per_week,May 2017,3206,2017,5,PARK,650,206051128,Apartment
215719,"43 ERSKINE STREET, MIDDLE PARK",-37.8470545,144.9588393,2.0,1.0,1,$745_per_week,October 2017,3206,2017,10,PARK,745,206051128,Apartment
215725,"1/999 FIFTEENTH STREET, MILDURA",-34.1955793,142.1229824,3.0,2.0,2,$350_p.w.,October 2017,3500,2017,10,MILDURA,350,215021470,House
215726,"1/999 FIFTEENTH STREET, MILDURA",-34.1955793,142.1229824,3.0,2.0,2,$350_p.w.,September 2017,3500,2017,9,MILDURA,350,215021470,House
215727,"12 STEPHANIE STREET, MILDURA",-34.2083184,142.1190785,3.0,2.0,2,$350_pw,October 2017,3500,2017,10,MILDURA,350,215021470,House
215728,"12 STEPHANIE STREET, MILDURA",-34.2083184,142.1190785,3.0,2.0,2,$350_pw,June 2017,3500,2017,6,MILDURA,350,215021470,House
215731,"2/267 CURETON AVENUE, MILDURA",-34.190374,142.175637,2.0,1.0,1,$350_pw,October 2017,3500,2017,10,MILDURA,350,215021469,Apartment
215732,"2/267 CURETON AVENUE, MILDURA",-34.190374,142.175637,2.0,1.0,1,$350_pw,February 2017,3500,2017,2,MILDURA,350,215021469,Apartment
215733,"1/238 DEAKIN AVENUE, MILDURA",-34.194226,142.15218,2.0,1.0,1,$230_per_week,November 2017,3500,2017,11,MILDURA,230,215021469,Apartment
215734,"1/238 DEAKIN AVENUE, MILDURA",-34.194226,142.15218,2.0,1.0,1,$230_per_week,October 2017,3500,2017,10,MILDURA,230,215021469,Apartment
215745,"2/226 DEAKIN AVENUE, MILDURA",-34.193509,142.153074,3.0,1.0,1,$230_pw,December 2017,3500,2017,12,MILDURA,230,215021469,House
215746,"4/124 THIRTEENTH STREET, MILDURA",-34.192858,142.154618,2.0,1.0,2,$230_per_week,March 2017,3500,2017,3,MILDURA,230,215021469,House
215747,"10/84 SEVENTH STREET, MILDURA",-34.1873042,142.1694427,1.0,1.0,1,$225_pw,April 2017,3500,2017,4,MILDURA,225,215021469,Apartment
215751,"2/27 WALNUT AVENUE, MILDURA",-34.179369,142.158623,2.0,1.0,1,$220_pw,October 2017,3500,2017,10,MILDURA,220,215021469,Apartment
215756,"2/487 SAN MATEO AVENUE, MILDURA",-34.21249,142.138555,3.0,2.0,2,$295_per_week,January 2017,3500,2017,1,MILDURA,295,215021470,House
215790,"4/65 LEICESTER STREET, MILDURA",-34.1693797,142.1346864,3.0,2.0,2,$350_per_week,November 2017,3500,2017,11,MILDURA,350,215021469,House
215791,"4/65 LEICESTER STREET, MILDURA",-34.1693797,142.1346864,3.0,2.0,2,$350_per_week,June 2017,3500,2017,6,MILDURA,350,215021469,House
215792,"4/65 LEICESTER STREET, MILDURA",-34.1693797,142.1346864,3.0,2.0,2,$360_per_week,June 2017,3500,2017,6,MILDURA,360,215021469,House
215793,"12 RURAL DRIVE, MILDURA",-34.168482,142.155965,3.0,2.0,2,$360,December 2017,3500,2017,12,MILDURA,360,215021469,House
215802,"1/389 ELEVENTH STREET, MILDURA",-34.178888,142.144255,3.0,2.0,2,$295_pw,March 2017,3500,2017,3,MILDURA,295,215021469,House
215805,"2/482 WALNUT AVENUE, MILDURA",-34.205697,142.128552,2.0,1.0,2,$240_per_week,October 2017,3500,2017,10,MILDURA,240,215021470,House
215809,"12 DIAMOND COURT, MILDURA",-34.202193,142.134271,3.0,1.0,2,$270_per_week,June 2017,3500,2017,6,MILDURA,270,215021470,House
215810,"12 DIAMOND COURT, MILDURA",-34.202193,142.134271,3.0,1.0,2,$280_per_week,June 2017,3500,2017,6,MILDURA,280,215021470,House
215811,"2/17 STEVEN STREET, MILDURA",-34.17519,142.151747,2.0,1.0,1,$190_per_week,December 2017,3500,2017,12,MILDURA,190,215021469,Apartment
215812,"2/17 STEVEN STREET, MILDURA",-34.17519,142.151747,2.0,1.0,1,$190_per_week,November 2017,3500,2017,11,MILDURA,190,215021469,Apartment
215813,"2/17 STEVEN STREET, MILDURA",-34.17519,142.151747,2.0,1.0,1,$190_per_week,October 2017,3500,2017,10,MILDURA,190,215021469,House
215814,"10/290 TWELFTH STREET, MILDURA",-34.178708,142.14230619,2.0,1.0,1,$250_per_week,April 2017,3500,2017,4,MILDURA,250,215021469,House
215815,"2/367 DEAKIN AVENUE, MILDURA",-34.201056,142.142727,2.0,1.0,1,$205_pw,October 2017,3500,2017,10,MILDURA,205,215021470,Apartment
215816,"2/367 DEAKIN AVENUE, MILDURA",-34.201056,142.142727,2.0,1.0,1,$205_pw,August 2017,3500,2017,8,MILDURA,205,215021470,House
215817,"13 ASHWOOD COURT, MILDURA",-34.194723,142.137148,2.0,1.0,2,$240_pw,October 2017,3500,2017,10,MILDURA,240,215021470,House
215818,"13 ASHWOOD COURT, MILDURA",-34.194723,142.137148,2.0,1.0,2,$240_pw,June 2017,3500,2017,6,MILDURA,240,215021470,House
215826,"4 BURNETT COURT, MILL PARK",-37.659915,145.062071,3.0,2.0,1,$330_per_week,October 2017,3082,2017,10,PARK,330,209041220,House
215827,"4 BURNETT COURT, MILL PARK",-37.659915,145.062071,3.0,2.0,1,$330_per_week,September 2017,3082,2017,9,PARK,330,209041220,House
215828,"112/24 OLEANDER DRIVE, MILL PARK",-37.6529888,145.0794195,2.0,2.0,1,$320_per_week,December 2017,3082,2017,12,PARK,320,209041220,House
215833,"23 CARBON CRESCENT, MILL PARK",-37.66325,145.039753,5.0,2.0,2,$500_per_week,May 2017,3082,2017,5,PARK,500,209041221,House
215834,"305/24 OLEANDER DRIVE, MILL PARK",-37.6529888,145.0794195,2.0,2.0,1,$320_per_week,December 2017,3082,2017,12,PARK,320,209041220,House
215868,"2A MIMOSA ROAD, MILL PARK",-37.674501,145.054915,3.0,1.0,2,$360,January 2017,3082,2017,1,PARK,360,209041221,House
215869,"7 DALRAY CLOSE, MILL PARK",-37.674597,145.061926,3.0,2.0,2,$400,November 2017,3082,2017,11,PARK,400,209041221,House
215870,"7 DALRAY CLOSE, MILL PARK",-37.674597,145.061926,3.0,2.0,2,$400_-_$425_per_week,November 2017,3082,2017,11,PARK,425,209041221,House
215871,"7 DALRAY CLOSE, MILL PARK",-37.674597,145.061926,3.0,2.0,2,$425_-_$450_per_week,October 2017,3082,2017,10,PARK,450,209041221,House
215872,"7 DALRAY CLOSE, MILL PARK",-37.674597,145.061926,3.0,2.0,2,$350,July 2017,3082,2017,7,PARK,350,209041221,House
215873,"12 QUIST COURT, MILL PARK",-37.655738,145.061216,4.0,2.0,2,$440_per_week,April 2017,3082,2017,4,PARK,440,209041220,House
215874,"12 QUIST COURT, MILL PARK",-37.655738,145.061216,4.0,2.0,2,$420,February 2017,3082,2017,2,PARK,420,209041220,House
215885,"1/50 GOLF LINKS DRIVE, MILL PARK",-37.659878,145.048452,3.0,1.0,1,$290_per_week,June 2017,3082,2017,6,PARK,290,209041220,House
215886,"1/50 GOLF LINKS DRIVE, MILL PARK",-37.659878,145.048452,3.0,1.0,1,$290_per_week,May 2017,3082,2017,5,PARK,290,209041220,House
215895,"301/24 OLEANDER DRIVE, MILL PARK",-37.6529888,145.0794195,2.0,1.0,1,$320_per_week,December 2017,3082,2017,12,PARK,320,209041220,Apartment
215908,"55 GROSVENOR DRIVE, WANDANA HEIGHTS",-38.1705981,144.3027419,4.0,2.0,2,$430,November 2017,3216,2017,11,HEIGHTS,430,203021042,House
215909,"55 GROSVENOR DRIVE, WANDANA HEIGHTS",-38.1705981,144.3027419,4.0,2.0,2,$450_per_week,November 2017,3216,2017,11,HEIGHTS,450,203021042,House
215910,"1/3-5 WANDANA DRIVE, WANDANA HEIGHTS",-38.1714722,144.3089029,1.0,1.0,1,$245_per_week,January 2017,3216,2017,1,HEIGHTS,245,203021042,Apartment
215915,"46 SUNDERLAND ROAD, WANDANA HEIGHTS",-38.176322,144.302299,3.0,2.0,2,$480_per_week,March 2017,3216,2017,3,HEIGHTS,480,203021042,House
215916,"1/38 WANDANA DRIVE, WANDANA HEIGHTS",-38.174669,144.306089,2.0,1.0,2,$385,September 2017,3216,2017,9,HEIGHTS,385,203021042,Apartment
215917,"13 SUNDERLAND ROAD, WANDANA HEIGHTS",-38.1746512,144.304882,4.0,3.0,2,$520,October 2017,3216,2017,10,HEIGHTS,520,203021042,House
215918,"1/1 WANDANA DRIVE, WANDANA HEIGHTS",-38.17172649,144.30894358,1.0,1.0,1,$250,December 2017,3216,2017,12,HEIGHTS,250,203021042,Apartment
215923,"102A BEENAK ROAD, WANDIN NORTH",-37.7900173,145.4349884,3.0,1.0,1,$380_per_week,February 2017,3139,2017,2,NORTH,380,211051285,House
215929,"31 MCDONALD DRIVE, WANDONG",-37.3646113,145.0343854,4.0,2.0,2,$450_pw,January 2017,3758,2017,1,WANDONG,450,209041224,House
215932,"19 DRY CREEK CRESCENT, WANDONG",-37.358954,145.030162,2.0,1.0,2,$285_pw,March 2017,3758,2017,3,WANDONG,285,209041224,House
215933,"19 DRY CREEK ROAD, WANDONG",-37.3609297,145.034904,2.0,1.0,2,$285_-_$1238_pw,February 2017,3758,2017,2,WANDONG,1238,209041224,Apartment
215938,"306B DETOUR ROAD, WANGARATTA SOUTH",-36.3500406,146.3670792,2.0,1.0,1,$190_per_week,August 2017,3678,2017,8,SOUTH,190,204021067,House
215939,"3/4 BANK STREET, WANGARATTA WEST",-36.349858,146.3306848,2.0,1.0,1,$260,October 2017,3677,2017,10,WEST,260,204021066,Apartment
215940,"18A MEDOWRA AVENUE, WANGARATTA",-36.357558,146.306758,3.0,1.0,1,$285_p.w.,October 2017,3677,2017,10,WANGARATTA,285,204021066,House
215967,"1 / 19 LANGTREE AVENUE, WANGARATTA",-36.352885,146.301282,2.0,1.0,1,$185_per_week,June 2017,3677,2017,6,WANGARATTA,185,204021066,House
215968,"1 / 19 LANGTREE AVENUE, WANGARATTA",-36.352885,146.301282,2.0,1.0,1,$185_per_week,January 2017,3677,2017,1,WANGARATTA,185,204021066,House
215969,"2/53 JOYCE WAY, WANGARATTA",-36.35725822,146.30887542,1.0,1.0,1,$150_per_week,August 2017,3677,2017,8,WANGARATTA,150,204021066,Apartment
215970,"3/81 MURDOCH ROAD, WANGARATTA",-36.369955,146.323462,2.0,1.0,1,$200,February 2017,3677,2017,2,WANGARATTA,200,204021066,Apartment
215988,"9 PHILLIPSON STREET, WANGARATTA",-36.358331,146.303819,2.0,1.0,1,$300,January 2017,3677,2017,1,WANGARATTA,300,204021066,Apartment
215990,"13 WARWILLAH AVENUE, WANGARATTA",-36.353437,146.308199,4.0,2.0,2,$320_per_week,May 2017,3677,2017,5,WANGARATTA,320,204021066,House
215991,"13 WARWILLAH AVENUE, WANGARATTA",-36.353437,146.308199,4.0,2.0,2,$300_per_week,April 2017,3677,2017,4,WANGARATTA,300,204021066,House
215993,"1/95 ROWAN STREET, WANGARATTA",-36.3516942,146.3160322,2.0,1.0,1,$240_per_week,May 2017,3677,2017,5,WANGARATTA,240,204021066,House
216000,"15 EDWARDS STREET, WANGARATTA",-36.344798,146.310384,3.0,1.0,1,$280_per_week,October 2017,3677,2017,10,WANGARATTA,280,204021066,House
216003,"29 MACQUARIE COURT, WANGARATTA",-36.3682777,146.3172149,4.0,3.0,2,$400_p.w.,August 2017,3677,2017,8,WANGARATTA,400,204021066,House
216004,"29 MACQUARIE COURT, WANGARATTA",-36.3682777,146.3172149,4.0,3.0,2,$400_per_week,July 2017,3677,2017,7,WANGARATTA,400,204021066,House
216005,"29 MACQUARIE COURT, WANGARATTA",-36.3682777,146.3172149,4.0,3.0,2,$400_per_week,January 2017,3677,2017,1,WANGARATTA,400,204021066,House
216006,"5/39 VICTORY PARADE, WANGARATTA",-36.352379,146.296827,2.0,1.0,1,$200,July 2017,3677,2017,7,WANGARATTA,200,204021066,House
216007,"5/39 VICTORY PARADE, WANGARATTA",-36.352379,146.296827,2.0,1.0,1,$200_pw,June 2017,3677,2017,6,WANGARATTA,200,204021066,House
216010,"2/13 THOMSON STREET, WANGARATTA",-36.368739,146.318901,2.0,1.0,1,$180_p.w.,October 2017,3677,2017,10,WANGARATTA,180,204021066,Apartment
216011,"16 HIGGINS STREET, WANGARATTA",-36.372329,146.312465,3.0,1.0,1,$280_per_week,October 2017,3677,2017,10,WANGARATTA,280,204021066,House
216012,"72 WILLOW DRIVE, WANGARATTA",-36.350475,146.2920354,4.0,2.0,2,$350_p.w.,September 2017,3677,2017,9,WANGARATTA,350,204021066,House
216015,"1 / 136 APPIN STREET, WANGARATTA",-36.343393,146.301065,2.0,1.0,1,$225_per_week,August 2017,3677,2017,8,WANGARATTA,225,204021066,House
216016,"1 / 136 APPIN STREET, WANGARATTA",-36.343393,146.301065,2.0,1.0,1,$225_per_week,July 2017,3677,2017,7,WANGARATTA,225,204021066,House
216017,"23 CUSACK STREET, WANGARATTA",-36.3563231,146.3175894,3.0,1.0,1,$360_per_week,March 2017,3677,2017,3,WANGARATTA,360,204021066,House
216018,"2 / 40 GREEN STREET, WANGARATTA",-36.352979,146.315376,2.0,1.0,1,$160_per_week,November 2017,3677,2017,11,WANGARATTA,160,204021066,Apartment
216019,"3 / 40 GREEN STREET, WANGARATTA",-36.352979,146.315376,2.0,1.0,1,$145_per_week,November 2017,3677,2017,11,WANGARATTA,145,204021066,Apartment
216020,"3 / 40 GREEN STREET, WANGARATTA",-36.352979,146.315376,2.0,1.0,1,$145_per_week,January 2017,3677,2017,1,WANGARATTA,145,204021066,House
216021,"1 HOAD STREET, WANGARATTA",-36.37813678,146.3198209,3.0,1.0,2,$265,July 2017,3677,2017,7,WANGARATTA,265,204021066,House
216022,"1 HOAD STREET, WANGARATTA",-36.37813678,146.3198209,3.0,1.0,2,$265_pw,June 2017,3677,2017,6,WANGARATTA,265,204021066,House
216023,"8 INCHBOLD STREET, WANGARATTA",-36.37815729,146.32147354,3.0,1.0,1,$270_per_week,January 2017,3677,2017,1,WANGARATTA,270,204021066,House
216024,"26 MURDOCH ROAD, WANGARATTA",-36.364822,146.323771,3.0,1.0,2,$340,August 2017,3677,2017,8,WANGARATTA,340,204021066,House
216025,"285 HUGHS ROAD, WANGOOM",-38.323323,142.575661,4.0,1.0,2,$350_pw,June 2017,3279,2017,6,WANGOOM,350,217041477,House
216034,"8/440 STUD ROAD, WANTIRNA SOUTH",-37.875933,145.232212,2.0,1.0,0,$370,November 2017,3152,2017,11,SOUTH,370,211011260,Apartment
216035,"8/440 STUD ROAD, WANTIRNA SOUTH",-37.875933,145.232212,2.0,1.0,0,$365,February 2017,3152,2017,2,SOUTH,365,211011260,Apartment
216042,"10/61 CATHIES LANE, WANTIRNA SOUTH",-37.863587,145.214219,3.0,2.0,2,$550,January 2017,3152,2017,1,SOUTH,550,211011260,House
216050,"8 MAURICE COURT, WANTIRNA SOUTH",-37.871916,145.238836,3.0,1.0,1,$360_per_week,January 2017,3152,2017,1,SOUTH,360,211011260,House
216054,"14/745 BORONIA ROAD, WANTIRNA",-37.8465843,145.2226802,3.0,2.0,1,$400_pw,November 2017,3152,2017,11,WANTIRNA,400,211011259,House
216057,"70 BIRCHFIELD CRESCENT, WANTIRNA",-37.865629,145.234732,3.0,1.0,2,$420_Week,December 2017,3152,2017,12,WANTIRNA,420,211011259,House
216073,"43 DAMMANS ROAD, WARBURTON",-37.752295,145.692642,4.0,2.0,1,$335,May 2017,3799,2017,5,WARBURTON,335,211051286,House
216074,"1/3401 WARBURTON HIGHWAY, WARBURTON",-37.753526,145.689079,3.0,1.0,0,$280_pw,January 2017,3799,2017,1,WARBURTON,280,211051286,House
216082,"82 SCOTT STREET, WARRACKNABEAL",-36.24989,142.39465,1.0,1.0,0,$160_pw,November 2017,3393,2017,11,WARRACKNABEAL,160,215011394,Apartment
216083,"72 SCOTT STREET, WARRACKNABEAL",-36.249723,142.394583,1.0,1.0,0,$160_pw,November 2017,3393,2017,11,WARRACKNABEAL,160,215011394,Apartment
216084,"46A MOLYNEAUX STREET, WARRACKNABEAL",-36.252546,142.397495,3.0,1.0,2,$195_pw,November 2017,3393,2017,11,WARRACKNABEAL,195,215011394,House
216085,"1/85 ANDERSON STREET, WARRACKNABEAL",-36.257933,142.39247,1.0,1.0,0,$140,October 2017,3393,2017,10,WARRACKNABEAL,140,215011394,Apartment
216093,"181 SCOTT STREET, WARRACKNABEAL",-36.254197,142.395463,4.0,1.0,3,$235_pw,October 2017,3393,2017,10,WARRACKNABEAL,235,215011394,House
216094,"181 SCOTT STREET, WARRACKNABEAL",-36.254197,142.395463,4.0,1.0,3,$235_pw,September 2017,3393,2017,9,WARRACKNABEAL,235,215011394,House
216102,"4 CENTRE AVENUE, WARRAGUL",-38.155823,145.92408,2.0,1.0,1,$250_p.w.,May 2017,3820,2017,5,WARRAGUL,250,205011079,House
216105,"86 BOWEN STREET, WARRAGUL",-38.154063,145.92878,2.0,1.0,2,$320_per_week,November 2017,3820,2017,11,WARRAGUL,320,205011079,Apartment
216110,"153 NORMANBY STREET, WARRAGUL",-38.157446,145.939915,3.0,1.0,2,$1430_-_$330_pw,March 2017,3820,2017,3,WARRAGUL,330,205011079,House
216123,"22 GLADSTONE STREET, WARRAGUL",-38.162945,145.9362,3.0,1.0,0,$310_per_week,November 2017,3820,2017,11,WARRAGUL,310,205011079,House
216128,"6 GRANGE CRESCENT, WARRAGUL",-38.157523,145.912869,4.0,2.0,2,$380_pw,October 2017,3820,2017,10,WARRAGUL,380,205011079,House
216144,"24 SINCLAIR STREET, WARRAGUL",-38.149351,145.937788,2.0,1.0,1,$310_per_week,November 2017,3820,2017,11,WARRAGUL,310,205011079,Apartment
216150,"11 HOMEWOOD RISE, WARRANDYTE",-37.742739,145.186644,5.0,4.0,3,$900_per_week,September 2017,3113,2017,9,WARRANDYTE,900,211021262,House
216151,"11 HOMEWOOD RISE, WARRANDYTE",-37.742739,145.186644,5.0,4.0,3,$900_per_week,August 2017,3113,2017,8,WARRANDYTE,900,211021262,House
216153,"26 MULLENS ROAD, WARRANDYTE",-37.740248,145.227356,3.0,2.0,2,$580_pw,December 2017,3113,2017,12,WARRANDYTE,580,211021262,House
216154,"26 MULLENS ROAD, WARRANDYTE",-37.740248,145.227356,3.0,2.0,2,$550_per_week,December 2017,3113,2017,12,WARRANDYTE,550,211021262,House
216155,"182 WONGA ROAD, WARRANWOOD",-37.780166,145.249549,3.0,2.0,2,$600_pw,October 2017,3134,2017,10,WARRANWOOD,600,211031265,House
216156,"182 WONGA ROAD, WARRANWOOD",-37.780166,145.249549,3.0,2.0,2,$600_pw,July 2017,3134,2017,7,WARRANWOOD,600,211031265,House
216157,"5 NALINGA COURT, WARRANWOOD",-37.777386,145.242353,4.0,2.0,2,$660_per_week,December 2017,3134,2017,12,WARRANWOOD,660,211031265,House
216158,"6/26 WARRANWOOD ROAD, WARRANWOOD",-37.778679,145.252337,2.0,1.0,1,$345_pw,February 2017,3134,2017,2,WARRANWOOD,345,211031265,Apartment
216159,"6/26 WARRANWOOD ROAD, WARRANWOOD",-37.778679,145.252337,2.0,1.0,1,$355_pw,January 2017,3134,2017,1,WARRANWOOD,355,211031265,Apartment
216160,"1 CARAMUT COURT, WARRANWOOD",-37.775769,145.240291,3.0,2.0,2,$480_per_week,March 2017,3134,2017,3,WARRANWOOD,480,211031265,House
216164,"17/1 MAHERS ROAD, WARRENHEIP",-37.5653721,143.9359192,2.0,2.0,1,$216_pw,July 2017,3352,2017,7,WARRENHEIP,216,201011481,House
216166,"16/1 MAHERS ROAD, WARRENHEIP",-37.5652835,143.9353719,2.0,2.0,0,$216_pw,October 2017,3352,2017,10,WARRENHEIP,216,201011481,House
216167,"ROOM 3/21 MAHERS ROAD, WARRENHEIP",-37.5655297,143.9362904,1.0,1.0,1,$175,November 2017,3352,2017,11,WARRENHEIP,175,201011481,Apartment
216168,"ROOM 3/21 MAHERS ROAD, WARRENHEIP",-37.5655297,143.9362904,1.0,1.0,1,$175,July 2017,3352,2017,7,WARRENHEIP,175,201011481,Apartment
216169,"ROOM 3/21 MAHERS ROAD, WARRENHEIP",-37.5655297,143.9362904,1.0,1.0,1,$170_Weekly,February 2017,3352,2017,2,WARRENHEIP,170,201011481,Apartment
216170,"ROOM 3/21 MAHERS ROAD, WARRENHEIP",-37.5655297,143.9362904,1.0,1.0,1,$170,January 2017,3352,2017,1,WARRENHEIP,170,201011481,Apartment
216172,"ROOM 3/21 MAHERS RD, WARRENHEIP",-37.5653314,143.9364627,1.0,1.0,1,$175_Weekly,July 2017,3352,2017,7,WARRENHEIP,175,201011481,Apartment
216173,"ROOM 3/21 MAHERS RD, WARRENHEIP",-37.5653314,143.9364627,1.0,1.0,1,$170_Weekly,January 2017,3352,2017,1,WARRENHEIP,170,201011481,Apartment
216174,"ROOM 2/21 MAHERS RD, WARRENHEIP",-37.5655121,143.9373233,1.0,1.0,1,$165_Weekly,July 2017,3352,2017,7,WARRENHEIP,165,201011481,Apartment
216175,"ROOM 1/21 MAHERS RD, WARRENHEIP",-37.5654875,143.9399538,1.0,1.0,1,$170_Weekly,July 2017,3352,2017,7,WARRENHEIP,170,201011481,Apartment
216176,"ROOM 5/21 MAHERS ROAD, WARRENHEIP",-37.5654875,143.9399538,1.0,1.0,1,$170,April 2017,3352,2017,4,WARRENHEIP,170,201011481,Apartment
216177,"ROOM 5/21 MAHERS RD, WARRENHEIP",-37.5654875,143.9399538,1.0,1.0,1,$170_Weekly,April 2017,3352,2017,4,WARRENHEIP,170,201011481,Apartment
216179,"175 MELROSE ROAD, WARRION",-38.211749,143.545846,3.0,1.0,1,$280_per_week,November 2017,3249,2017,11,WARRION,280,217031473,House
216181,"100 FOSTER STREET, WARRNAMBOOL",-38.383104,142.496669,3.0,1.0,1,$280_pw,August 2017,3280,2017,8,WARRNAMBOOL,280,217041479,House
216182,"100 FOSTER STREET, WARRNAMBOOL",-38.383104,142.496669,3.0,1.0,1,$290_pw,February 2017,3280,2017,2,WARRNAMBOOL,290,217041479,House
216187,"6/14 LYNDEN GROVE, WARRNAMBOOL",-38.3893106,142.5099939,2.0,1.0,1,$200_pw,March 2017,3280,2017,3,WARRNAMBOOL,200,217041480,House
216193,"1/94 HICKFORD PARADE, WARRNAMBOOL",-38.393236,142.50135,2.0,1.0,1,$200_per_week,October 2017,3280,2017,10,WARRNAMBOOL,200,217041480,Apartment
216194,"1/94 HICKFORD PARADE, WARRNAMBOOL",-38.393236,142.50135,2.0,1.0,1,$195_per_week,July 2017,3280,2017,7,WARRNAMBOOL,195,217041480,House
216209,"1 WANSTEAD STREET, WARRNAMBOOL",-38.3834264,142.5086467,3.0,1.0,1,$280_Weekly,March 2017,3280,2017,3,WARRNAMBOOL,280,217041479,House
216210,"52 LAVA STREET, WARRNAMBOOL",-38.383315,142.489228,2.0,1.0,1,$280_Weekly,January 2017,3280,2017,1,WARRNAMBOOL,280,217041480,House
216211,"2 / 5 PYE COURT, WARRNAMBOOL",-38.365593,142.484984,2.0,1.0,1,$250_pw,December 2017,3280,2017,12,WARRNAMBOOL,250,217041479,Apartment
216212,"2 / 5 PYE COURT, WARRNAMBOOL",-38.365593,142.484984,2.0,1.0,1,$250_p.w.,November 2017,3280,2017,11,WARRNAMBOOL,250,217041479,Apartment
216217,"9/4-6 BANYAN STREET, WARRNAMBOOL",-38.387766,142.484389,2.0,1.0,1,$340,November 2017,3280,2017,11,WARRNAMBOOL,340,217041480,Apartment
216218,"31 SWAN STREET, WARRNAMBOOL",-38.370327,142.489876,3.0,1.0,2,$325_pw,August 2017,3280,2017,8,WARRNAMBOOL,325,217041479,House
216224,"23 MORRISS ROAD, WARRNAMBOOL",-38.368615,142.463551,3.0,1.0,2,$260_per_week,June 2017,3280,2017,6,WARRNAMBOOL,260,217041480,House
216225,"1324 WARRNAMBOOL-PENSHURST ROAD, WARRONG",-38.2101747,142.313774,4.0,2.0,2,$350,October 2017,3283,2017,10,WARRONG,350,217041478,House
216226,"1324 WARRNAMBOOL-PENSHURST ROAD, WARRONG",-38.2101747,142.313774,4.0,2.0,2,$380,February 2017,3283,2017,2,WARRONG,380,217041478,House
216235,"11 CHOPARD AVENUE, WATERWAYS",-38.013457,145.139149,5.0,2.0,2,$670_per_week,October 2017,3195,2017,10,WATERWAYS,670,208031183,House
216241,"17 KURRAJONG CRESCENT, WATSONIA NORTH",-37.698968,145.088173,3.0,2.0,2,$400_pw,February 2017,3087,2017,2,NORTH,400,209011204,House
216242,"348 GRIMSHAW STREET, WATSONIA NORTH",-37.701881,145.080141,3.0,1.0,2,$420,October 2017,3087,2017,10,NORTH,420,209011204,House
216243,"9 BROWNING COURT, WATSONIA NORTH",-37.701104,145.0812966,3.0,1.0,2,$350_pw,September 2017,3087,2017,9,NORTH,350,209011204,House
216247,"580 WORMBETE STATION ROAD, GHERANG",-38.3214499,144.0783128,4.0,2.0,4,$550_Week,March 2017,3240,2017,3,GHERANG,550,203011036,House
216248,"580 WORMBETE STATION ROAD, GHERANG",-38.3214499,144.0783128,4.0,2.0,4,$580_pw,February 2017,3240,2017,2,GHERANG,580,203011036,House
216249,"145 OWENS LANE, GIFFARD WEST",-38.372699,147.113898,4.0,2.0,6,$360_Week,April 2017,3874,2017,4,WEST,360,205051104,House
216253,"34 KEILY ROAD, GISBORNE",-37.4968847,144.5967045,4.0,2.0,2,$450_pw,August 2017,3437,2017,8,GISBORNE,450,210021232,House
216263,"45 SOUTH CIRCULAR ROAD, GLADSTONE PARK",-37.689879,144.886795,3.0,1.0,1,$380_per_week,January 2017,3043,2017,1,PARK,380,210051245,House
216265,"9 SUTTON CLOSE, GLADSTONE PARK",-37.6909998,144.8850615,3.0,1.0,1,$370_Weekly,March 2017,3043,2017,3,PARK,370,210051245,House
216268,"10 SHANE COURT, GLADSTONE PARK",-37.696301,144.897288,3.0,1.0,1,$320_Weekly,April 2017,3043,2017,4,PARK,320,210051245,House
216277,"1 / 193 GRANGE RD, GLEN HUNTLY",-37.895261,145.045196,3.0,2.0,1,$450_Weekly,June 2017,3163,2017,6,HUNTLY,450,208021182,House
216279,"2/8 ROSEDALE AVENUE, GLEN HUNTLY",-37.891087,145.043896,1.0,1.0,1,$440_per_week,May 2017,3163,2017,5,HUNTLY,440,208021182,Apartment
216280,"3/144 BOORAN ROAD, GLEN HUNTLY",-37.892167,145.037423,2.0,1.0,1,$380_per_week,June 2017,3163,2017,6,HUNTLY,380,208021182,Apartment
216281,"3/144 BOORAN ROAD, GLEN HUNTLY",-37.892167,145.037423,2.0,1.0,1,$380_per_week,May 2017,3163,2017,5,HUNTLY,380,208021182,House
216284,"103/115 NEERIM ROAD, GLEN HUNTLY",-37.886838,145.041328,2.0,1.0,1,$400_per_week,June 2017,3163,2017,6,HUNTLY,400,208021182,Apartment
216285,"8/15 WARATAH AVENUE, GLEN HUNTLY",-37.891661,145.042483,1.0,1.0,1,$276_pw,June 2017,3163,2017,6,HUNTLY,276,208021182,Apartment
216286,"4/133 GRANGE ROAD, GLEN HUNTLY",-37.891371,145.044979,1.0,1.0,1,$350_per_week,January 2017,3163,2017,1,HUNTLY,350,208021182,Apartment
216287,"167/115 NEERIM ROAD, GLEN HUNTLY",-37.886764,145.042038,2.0,1.0,1,$410_per_week,February 2017,3163,2017,2,HUNTLY,410,208021182,Apartment
216288,"3/127 GRANGE ROAD, GLEN HUNTLY",-37.890564,145.044893,1.0,1.0,1,$315_pw,December 2017,3163,2017,12,HUNTLY,315,208021182,Apartment
216291,"103/15-17 MANCHESTER GROVE, GLEN HUNTLY",-37.887862,145.040701,2.0,2.0,1,$480_per_week,January 2017,3163,2017,1,HUNTLY,480,208021182,House
216292,"2 / 34 DOROTHY AVENUE, GLEN HUNTLY",-37.896693,145.040225,2.0,1.0,1,$430_pw,October 2017,3163,2017,10,HUNTLY,430,208021182,Apartment
216293,"306/1177 GLEN HUNTLY ROAD, GLEN HUNTLY",-37.889222,145.043158,2.0,1.0,1,$450_per_week,September 2017,3163,2017,9,HUNTLY,450,208021182,Apartment
216294,"7/1080 GLENHUNTLY ROAD, GLEN HUNTLY",-37.889151,145.038517,1.0,1.0,0,$330_per_week,January 2017,3163,2017,1,HUNTLY,330,208021182,Apartment
216297,"8/20 ROYAL AVENUE, GLEN HUNTLY",-37.892251,145.042395,2.0,1.0,1,$360_per_week,January 2017,3163,2017,1,HUNTLY,360,208021182,Apartment
216298,"15/4 ROSEDALE AVENUE, GLEN HUNTLY",-37.891027,145.043399,1.0,1.0,1,$276_pw,January 2017,3163,2017,1,HUNTLY,276,208021182,Apartment
216299,"2/146 GLEN IRIS ROAD, GLEN IRIS",-37.856658,145.066442,2.0,1.0,1,$520_per_week,May 2017,3146,2017,5,IRIS,520,207011150,House
216300,"6 GARDINER PARADE, GLEN IRIS",-37.854336,145.066162,5.0,2.0,2,$880_pw,October 2017,3146,2017,10,IRIS,880,207011150,House
216302,"5/13 MYRNIONG STREET, GLEN IRIS",-37.852363,145.094077,2.0,1.0,1,$330_pw,April 2017,3146,2017,4,IRIS,330,207011150,Apartment
216303,"3/1494 HIGH STREET, GLEN IRIS",-37.858933,145.045227,3.0,3.0,1,$720_per_week,October 2017,3146,2017,10,IRIS,720,208041194,House
216304,"3/24 ALBION ROAD, GLEN IRIS",-37.863896,145.064939,2.0,1.0,1,$390_pw,July 2017,3146,2017,7,IRIS,390,207011150,House
216308,"102 VALLEY PARADE, GLEN IRIS",-37.852303,145.067499,2.0,1.0,1,$370_pw,December 2017,3146,2017,12,IRIS,370,207011150,Apartment
216311,"7/19 CLYDE STREET, GLEN IRIS",-37.86202,145.049581,2.0,1.0,1,$330_pw,September 2017,3146,2017,9,IRIS,330,208041194,Apartment
216312,"303/770D TOORAK ROAD, GLEN IRIS",-37.846562,145.0469112,2.0,1.0,1,$500_pw,February 2017,3146,2017,2,IRIS,500,207011150,Apartment
216313,"6/4 OSBORNE AVENUE, GLEN IRIS",-37.857959,145.046684,2.0,1.0,1,$365_per_week,June 2017,3146,2017,6,IRIS,365,208041194,House
216324,"6/39 SCOTT GROVE, GLEN IRIS",-37.854941,145.05019,1.0,1.0,1,$395_pw,December 2017,3146,2017,12,IRIS,395,208041194,Apartment
216325,"6 DUNDAS STREET, GLEN IRIS",-37.853794,145.090385,3.0,2.0,1,$745_p.w.,September 2017,3146,2017,9,IRIS,745,207011150,House
216326,"32 CELIA STREET, GLEN IRIS",-37.855595,145.078086,3.0,3.0,2,$750_pw,March 2017,3146,2017,3,IRIS,750,207011150,House
216327,"21 BOURNE ROAD, GLEN IRIS",-37.857281,145.063834,3.0,2.0,1,$650_pw,March 2017,3146,2017,3,IRIS,650,207011150,House
216328,"9/62 EDGAR STREET NORTH, GLEN IRIS",-37.8501998,145.0465063,2.0,1.0,1,$400_pw,March 2017,3146,2017,3,IRIS,400,208041194,Apartment
216329,"9/14 NASH STREET, GLEN IRIS",-37.8559471,145.0490066,2.0,1.0,1,$395_p.w.,September 2017,3146,2017,9,IRIS,395,208041194,Apartment
216330,"5/68 ERICA AVENUE, GLEN IRIS",-37.859557,145.0482,2.0,1.0,1,$350_pw,August 2017,3146,2017,8,IRIS,350,208041194,House
216331,"6/68 ERICA AVENUE, GLEN IRIS",-37.859557,145.0482,2.0,1.0,1,$355_pw,November 2017,3146,2017,11,IRIS,355,208041194,Apartment
216332,"1/43 OSBORNE AVENUE, GLEN IRIS",-37.853112,145.046902,3.0,2.0,0,$580_pw,January 2017,3146,2017,1,IRIS,580,208041194,House
216334,"3/12 BELMONT AVENUE, GLEN IRIS",-37.857628,145.048333,1.0,1.0,1,$300_pw,June 2017,3146,2017,6,IRIS,300,208041194,Apartment
216335,"4/15 IRIS ROAD, GLEN IRIS",-37.847922,145.058728,2.0,1.0,1,$420,January 2017,3146,2017,1,IRIS,420,207011150,Apartment
216336,"2/18 EDGAR STREET, GLEN IRIS",-37.856579,145.04536,2.0,1.0,2,$450_pw,August 2017,3146,2017,8,IRIS,450,208041194,House
