,address,latitude,longitude,nbed,nbath,ncar,price,historical_dates,postcode,year,month,suburb,weekly_rent,SA2_CODE,residence_type
14,"2794 MCDONALDS TRACK, CHILDERS",-38.30491021,146.12198199,3.0,1.0,4,$280,September 2018,3824,2018,9,CHILDERS,280,205011078,House
15,"2/20 NICKLESS STREET, CHILTERN",-36.154038,146.602977,2.0,1.0,2,$220,December 2018,3683,2018,12,CHILTERN,220,204031070,Apartment
20,"29-31 ALBERT ROAD, CHILTERN",-36.1499141,146.5995142,4.0,2.0,4,$450,December 2018,3683,2018,12,CHILTERN,450,204031070,House
28,"7 SCOTT STREET, CHILTERN",-36.153794,146.592627,2.0,1.0,4,$200_per_week,January 2018,3683,2018,1,CHILTERN,200,204031070,House
30,"1 KIMBERLEY DRIVE, CHIRNSIDE PARK",-37.75733143,145.31101741,2.0,1.0,1,$380_pw,April 2018,3116,2018,4,PARK,380,211051275,Apartment
39,"734 RIDGE ROAD, CHRISTMAS HILLS",-37.658364,145.317834,3.0,1.0,0,$380_per_week,January 2018,3775,2018,1,HILLS,380,209031212,House
41,"511-525 RIDGE ROAD, CHRISTMAS HILLS",-37.6593641,145.3008935,3.0,1.0,0,$390_per_week,May 2018,3775,2018,5,HILLS,390,209031212,House
42,"733 CHUM CREEK ROAD, CHUM CREEK",-37.64491085,145.49757232,3.0,1.0,2,$380_per_week,December 2018,3777,2018,12,CREEK,380,211051276,House
46,"5 INALA CLOSE, CHURCHILL",-38.323757,146.424585,4.0,1.0,0,$225_pw,July 2018,3842,2018,7,CHURCHILL,225,205041094,House
47,"15 CURRINGA COURT, CHURCHILL",-38.319109,146.420642,4.0,2.0,2,$310,February 2018,3842,2018,2,CHURCHILL,310,205041094,House
49,"27 CHURINGA DRIVE, CHURCHILL",-38.3210366,146.4247311,3.0,1.0,1,$280_per_week,January 2018,3842,2018,1,CHURCHILL,280,205041094,House
50,"6370 MIDLAND HIGHWAY, CLARENDON",-37.691946,143.973609,3.0,1.0,6,$430_p.w.,June 2018,3352,2018,6,CLARENDON,430,201021012,House
61,"1 DAVANZO AVENUE, CLARINDA",-37.944349,145.102336,4.0,2.0,2,$550,July 2018,3169,2018,7,CLARINDA,550,212041309,House
62,"1 DAVANZO AVENUE, CLARINDA",-37.944349,145.102336,4.0,2.0,2,$550,January 2018,3169,2018,1,CLARINDA,550,212041309,House
74,"1556 LANCEFIELD ROAD, CLARKEFIELD",-37.5143296,144.7615042,2.0,1.0,2,$300,July 2018,3430,2018,7,CLARKEFIELD,300,210041240,House
78,"1/19 BURNS AVENUE, CLAYTON SOUTH",-37.936444,145.134354,2.0,1.0,1,$300_Week,March 2018,3169,2018,3,SOUTH,300,212041310,Apartment
79,"1/31 SPRINGS ROAD, CLAYTON SOUTH",-37.930285,145.109556,2.0,1.0,1,$355_pw,November 2018,3169,2018,11,SOUTH,355,212041310,Apartment
80,"1/31 SPRINGS ROAD, CLAYTON SOUTH",-37.930285,145.109556,2.0,1.0,1,$355,October 2018,3169,2018,10,SOUTH,355,212041310,Apartment
86,"2C HELENA STREET, CLAYTON SOUTH",-37.932583,145.123881,3.0,2.0,1,$595,December 2018,3169,2018,12,SOUTH,595,212041310,House
87,"8/31-33 FIRST STREET, CLAYTON SOUTH",-37.933051,145.134866,2.0,1.0,1,$300,January 2018,3169,2018,1,SOUTH,300,212041310,Apartment
95,"63 ROSEBANK AVENUE, CLAYTON SOUTH",-37.939755,145.135925,3.0,2.0,2,$520_pw,December 2018,3169,2018,12,SOUTH,520,212041310,House
96,"63 ROSEBANK AVENUE, CLAYTON SOUTH",-37.939755,145.135925,3.0,2.0,2,$520,November 2018,3169,2018,11,SOUTH,520,212041310,House
97,"3/31 SPRINGS ROAD, CLAYTON SOUTH",-37.930285,145.109556,2.0,1.0,1,$350,March 2018,3169,2018,3,SOUTH,350,212041310,Apartment
100,"A202/59 AUTUMN TERRACE, CLAYTON SOUTH",-37.9391661,145.1385972,1.0,1.0,1,$350_per_week,March 2018,3169,2018,3,SOUTH,350,212041310,Apartment
164,"3/21 FRANCIS STREET, CLAYTON",-37.924041,145.121709,2.0,1.0,1,$400,November 2018,3168,2018,11,CLAYTON,400,212051568,Apartment
165,"1/56 PANORAMA STREET, CLAYTON",-37.921779,145.129744,1.0,1.0,1,$210_p.w.,December 2018,3168,2018,12,CLAYTON,210,212051568,Apartment
166,"1/56 PANORAMA STREET, CLAYTON",-37.921779,145.129744,1.0,1.0,1,$200,February 2018,3168,2018,2,CLAYTON,200,212051568,Apartment
168,"9/34 WELLINGTON ROAD, CLAYTON",-37.915995,145.133951,1.0,1.0,1,$260,December 2018,3168,2018,12,CLAYTON,260,212051567,Apartment
169,"9/34 WELLINGTON ROAD, CLAYTON",-37.915995,145.133951,1.0,1.0,1,$260,January 2018,3168,2018,1,CLAYTON,260,212051567,Apartment
174,"6/55 KOONAWARRA STREET, CLAYTON",-37.9111821,145.1243493,1.0,1.0,0,$295,June 2018,3168,2018,6,CLAYTON,295,212051567,Apartment
175,"220/1457 NORTH ROAD, CLAYTON",-37.913578,145.124129,1.0,1.0,0,$265_per_week,November 2018,3168,2018,11,CLAYTON,265,212051567,Apartment
176,"3/320 HAUGHTON ROAD, CLAYTON",-37.919046,145.111712,2.0,1.0,2,$400_per_week,November 2018,3168,2018,11,CLAYTON,400,212051568,Apartment
177,"3/320 HAUGHTON ROAD, CLAYTON",-37.919046,145.111712,2.0,1.0,2,$400_per_week,October 2018,3168,2018,10,CLAYTON,400,212051568,Apartment
209,"1/434 WELLINGTON STREET, CLIFTON HILL",-37.793054,144.988618,2.0,2.0,0,$560,September 2018,3068,2018,9,HILL,560,206071145,House
210,"33 RUTLAND STREET, CLIFTON HILL",-37.793422,144.995945,2.0,1.0,0,$590_per_week,October 2018,3068,2018,10,HILL,590,206071145,Apartment
211,"33 RUTLAND STREET, CLIFTON HILL",-37.793422,144.995945,2.0,1.0,0,$590_per_week,September 2018,3068,2018,9,HILL,590,206071145,Apartment
212,"12/82 ROSENEATH STREET, CLIFTON HILL",-37.793089,144.99717,3.0,2.0,1,$730_Week,December 2018,3068,2018,12,HILL,730,206071145,House
213,"12/82 ROSENEATH STREET, CLIFTON HILL",-37.793089,144.99717,3.0,2.0,1,$730_Week,November 2018,3068,2018,11,HILL,730,206071145,House
220,"2/57 CAROLINE STREET, CLIFTON HILL",-37.790209,145.00096,1.0,1.0,1,$310,August 2018,3068,2018,8,HILL,310,206071145,Apartment
221,"18/14 THE ESPLANADE, CLIFTON HILL",-37.788057,145.005844,1.0,1.0,1,$330,August 2018,3068,2018,8,HILL,330,206071145,Apartment
222,"18/14 THE ESPLANADE, CLIFTON HILL",-37.788057,145.005844,1.0,1.0,1,$330_Week,July 2018,3068,2018,7,HILL,330,206071145,Apartment
223,"2/142 SPENSLEY STREET, CLIFTON HILL",-37.7867712,145.0030182,1.0,1.0,1,$330_pw,November 2018,3068,2018,11,HILL,330,206071145,Apartment
225,"11 DALLY STREET, CLIFTON HILL",-37.792519,144.999611,2.0,1.0,0,$520,April 2018,3068,2018,4,HILL,520,206071145,Apartment
229,"3/15 SOUTH TERRACE, CLIFTON HILL",-37.792417,144.992996,2.0,2.0,1,$530_Week,July 2018,3068,2018,7,HILL,530,206071145,House
230,"3/15 SOUTH TERRACE, CLIFTON HILL",-37.792417,144.992996,2.0,2.0,1,$530,June 2018,3068,2018,6,HILL,530,206071145,House
231,"7/57 CAROLINE STREET, CLIFTON HILL",-37.789892,144.998232,2.0,1.0,1,$360,September 2018,3068,2018,9,HILL,360,206071145,Apartment
232,"1/81 FIELD STREET, CLIFTON HILL",-37.7921964,145.0022619,2.0,1.0,1,$530_pw,December 2018,3068,2018,12,HILL,530,206071145,Apartment
233,"1/81 FIELD STREET, CLIFTON HILL",-37.7921964,145.0022619,2.0,1.0,1,$530_pw,November 2018,3068,2018,11,HILL,530,206071145,Apartment
234,"4/15 ANDERSON STREET, CLIFTON HILL",-37.792677,144.99261,2.0,1.0,1,$400_Week,November 2018,3068,2018,11,HILL,400,206071145,Apartment
235,"4/15 ANDERSON STREET, CLIFTON HILL",-37.792677,144.99261,2.0,1.0,1,$400_pw,October 2018,3068,2018,10,HILL,400,206071145,Apartment
237,"22 GROOM STREET, CLIFTON HILL",-37.793529,144.997952,2.0,2.0,1,$465,May 2018,3068,2018,5,HILL,465,206071145,House
240,"11/56 JOHN STREET, CLIFTON HILL",-37.789298,144.995897,2.0,2.0,1,$430_per_week,December 2018,3068,2018,12,HILL,430,206071145,House
241,"11/56 JOHN STREET, CLIFTON HILL",-37.789298,144.995897,2.0,2.0,1,$430,March 2018,3068,2018,3,HILL,430,206071145,House
242,"10 ANDERSON ST, CLIFTON HILL",-37.792765,144.993104,2.0,1.0,1,$570,July 2018,3068,2018,7,HILL,570,206071145,Apartment
243,"10 ANDERSON STREET, CLIFTON HILL",-37.792946,144.993254,2.0,1.0,1,$570,July 2018,3068,2018,7,HILL,570,206071145,Apartment
244,"57 DALLY STREET, CLIFTON HILL",-37.792276,144.997986,2.0,1.0,1,$575_per_week,June 2018,3068,2018,6,HILL,575,206071145,Apartment
245,"8/56 JOHN STREET, CLIFTON HILL",-37.787359,144.995813,2.0,1.0,1,$450_per_week,December 2018,3068,2018,12,HILL,450,206071145,Apartment
246,"78 RAMSDEN STREET, CLIFTON HILL",-37.79056,144.999593,3.0,1.0,2,$800_pw,October 2018,3068,2018,10,HILL,800,206071145,House
247,"78 RAMSDEN STREET, CLIFTON HILL",-37.79056,144.999593,3.0,1.0,2,$800,September 2018,3068,2018,9,HILL,800,206071145,House
248,"45 HEIDELBERG ROAD, CLIFTON HILL",-37.786475,144.998131,3.0,2.0,1,$650_Week,January 2018,3068,2018,1,HILL,650,206071145,House
251,"363 WELLINGTON STREET, CLIFTON HILL",-37.793646,144.987995,3.0,2.0,1,$625,November 2018,3068,2018,11,HILL,625,206071145,House
252,"363 WELLINGTON STREET, CLIFTON HILL",-37.793646,144.987995,3.0,2.0,1,$650,September 2018,3068,2018,9,HILL,650,206071145,House
254,"14 YARRAMUNDI DRIVE, CLIFTON SPRINGS",-38.1579965,144.5571227,3.0,1.0,2,$350_per_week,August 2018,3222,2018,8,SPRINGS,350,203031048,House
261,"56 BEACON POINT ROAD, CLIFTON SPRINGS",-38.1480888,144.5754182,2.0,1.0,2,$335_per_week,December 2018,3222,2018,12,SPRINGS,335,203031048,Apartment
264,"10 LACORRA COURT, CLIFTON SPRINGS",-38.151941,144.576798,4.0,2.0,1,$380_per_week,February 2018,3222,2018,2,SPRINGS,380,203031048,House
273,"15 BUTE CLOSE, CLUNES",-37.2861585,143.7624076,3.0,1.0,4,$300,August 2018,3370,2018,8,CLUNES,300,201021010,House
287,"47 KERSHOPE VIEW, CLYDE NORTH",-38.1143435,145.3419847,3.0,2.0,2,$395_pw,August 2018,3978,2018,8,NORTH,395,212031556,House
288,"47 KERSHOPE VIEW, CLYDE NORTH",-38.1143435,145.3419847,3.0,2.0,2,$385,August 2018,3978,2018,8,NORTH,385,212031556,House
289,"6 COTTONGRASS AVENUE, CLYDE NORTH",-38.0799985,145.3399545,4.0,2.0,2,$395_per_week,July 2018,3978,2018,7,NORTH,395,212031555,House
290,"6 COTTONGRASS AVENUE, CLYDE NORTH",-38.0799985,145.3399545,4.0,2.0,2,$425,June 2018,3978,2018,6,NORTH,425,212031555,House
309,"235 CLYDE-FIVE WAYS ROAD, CLYDE",-38.13985,145.319078,4.0,3.0,2,$600_Wk,January 2018,3978,2018,1,CLYDE,600,212031303,House
324,"8 PELION AVENUE, CLYDE",-38.133137,145.330643,4.0,2.0,2,$420_Wk,January 2018,3978,2018,1,CLYDE,420,212031303,House
327,"328 BENGWORDEN ROAD, COBAINS",-38.072845,147.110754,2.0,1.0,2,$240_per_week,October 2018,3851,2018,10,COBAINS,240,205051100,Apartment
328,"328 BENGWORDEN ROAD, COBAINS",-38.072845,147.110754,2.0,1.0,2,$240_per_week,September 2018,3851,2018,9,COBAINS,240,205051100,Apartment
337,"2/46 SILVESTER STREET, COBDEN",-38.3265291,143.0741625,2.0,1.0,1,$240_per_week,March 2018,3266,2018,3,COBDEN,240,217031475,Apartment
338,"2/46 SILVESTER STREET, COBDEN",-38.3265291,143.0741625,2.0,1.0,1,$240_per_week,January 2018,3266,2018,1,COBDEN,240,217031475,Apartment
339,"397 STONEYFORD ROAD, COBDEN",-38.332701,143.126845,3.0,1.0,1,$240_per_week,March 2018,3266,2018,3,COBDEN,240,217031475,House
340,"109 BARNES ROAD, COBRAM EAST",-35.98474259,145.73184148,3.0,1.0,4,$320,October 2018,3644,2018,10,EAST,320,216021411,House
341,"109 BARNES ROAD, COBRAM EAST",-35.98474259,145.73184148,3.0,1.0,4,$320,September 2018,3644,2018,9,EAST,320,216021411,House
346,"23 GATTUSO DRIVE, COBRAM",-35.925188,145.669623,4.0,2.0,2,$430,June 2018,3644,2018,6,COBRAM,430,216021411,House
348,"42 GEMMELL STREET, COBRAM",-35.912563,145.6471428,3.0,2.0,2,$320_per_week,May 2018,3644,2018,5,COBRAM,320,216021411,House
349,"42 GEMMELL STREET, COBRAM",-35.912563,145.6471428,3.0,2.0,2,$320,April 2018,3644,2018,4,COBRAM,320,216021411,House
350,"42 GEMMELL STREET, COBRAM",-35.912563,145.6471428,3.0,2.0,2,$320_per_week,March 2018,3644,2018,3,COBRAM,320,216021411,House
358,"109 SPECTRUM WAY, COBURG NORTH",-37.7290495,144.9790651,3.0,2.0,2,$450,March 2018,3058,2018,3,NORTH,450,210031236,House
365,"65 BAKERS ROAD, COBURG NORTH",-37.727112,144.959713,2.0,1.0,2,$450_per_week,October 2018,3058,2018,10,NORTH,450,210031236,Apartment
366,"65 BAKERS ROAD, COBURG NORTH",-37.727112,144.959713,2.0,1.0,2,$450_per_week,September 2018,3058,2018,9,NORTH,450,210031236,Apartment
367,"2/20 GALEKA STREET, COBURG NORTH",-37.722051,144.95731,3.0,1.0,1,$420_-_$450_per_week,March 2018,3058,2018,3,NORTH,450,210031236,House
368,"4 COPE STREET, COBURG",-37.736649,144.961891,3.0,1.0,1,$480_per_week,February 2018,3058,2018,2,COBURG,480,206011498,House
369,"2 BELGRAVE STREET, COBURG",-37.742793,144.974864,3.0,1.0,1,$500_pw,September 2018,3058,2018,9,COBURG,500,206011497,House
371,"63 PHILLIPS STREET, COBURG",-37.74662,144.954331,3.0,1.0,3,$500_per_week,October 2018,3058,2018,10,COBURG,500,206011498,House
372,"63 PHILLIPS STREET, COBURG",-37.74662,144.954331,3.0,1.0,3,$520_per_week,October 2018,3058,2018,10,COBURG,520,206011498,House
373,"63 PHILLIPS STREET, COBURG",-37.74662,144.954331,3.0,1.0,3,$520,September 2018,3058,2018,9,COBURG,520,206011498,House
374,"1 CONNOLLY AVENUE, COBURG",-37.735905,144.980822,3.0,1.0,1,$450_pw,March 2018,3058,2018,3,COBURG,450,206011497,House
375,"405/146 BELL STREET, COBURG",-37.740837,144.9632357,2.0,2.0,1,$430,August 2018,3058,2018,8,COBURG,430,206011498,House
378,"30 VICTORIA STREET, COBURG",-37.7429133,144.9637724,2.0,1.0,1,$400_Weekly,October 2018,3058,2018,10,COBURG,400,206011497,Apartment
380,"5 CARRON STREET, COBURG",-37.751754,144.963576,2.0,1.0,0,$420_Week,March 2018,3058,2018,3,COBURG,420,206011497,Apartment
381,"4/11 METHVEN STREET, COBURG",-37.746901,144.963811,2.0,1.0,1,$420_per_week,October 2018,3058,2018,10,COBURG,420,206011497,Apartment
385,"2/7-9 BELL STREET, COBURG",-37.742764,144.977229,2.0,2.0,1,$400,August 2018,3058,2018,8,COBURG,400,206011497,House
386,"2/7-9 BELL STREET, COBURG",-37.742764,144.977229,2.0,2.0,1,$410_per_week,August 2018,3058,2018,8,COBURG,410,206011497,House
389,"2/44 STAWELL STREET, COBURG",-37.73444,144.960272,3.0,2.0,3,$550_per_week,October 2018,3058,2018,10,COBURG,550,206011498,House
395,"1/69 MURRAY STREET, COBURG",-37.738199,144.952588,3.0,1.0,0,$410_pw,January 2018,3058,2018,1,COBURG,410,206011498,House
396,"801/146 BELL STREET, COBURG",-37.740837,144.9632357,2.0,1.0,1,$420,August 2018,3058,2018,8,COBURG,420,206011498,Apartment
397,"32A LOCH STREET, COBURG",-37.74664,144.962241,4.0,2.0,2,$630,December 2018,3058,2018,12,COBURG,630,206011498,House
398,"32A LOCH STREET, COBURG",-37.74664,144.962241,4.0,2.0,2,$630,November 2018,3058,2018,11,COBURG,630,206011498,House
408,"69 CAMPBELL STREET, COBURG",-37.753608,144.969821,2.0,2.0,1,$545_Week,January 2018,3058,2018,1,COBURG,545,206011497,House
409,"237/14-20 NICHOLSON STREET, COBURG",-37.755441,144.975716,1.0,1.0,0,$295,September 2018,3058,2018,9,COBURG,295,206011497,Apartment
410,"237/14-20 NICHOLSON STREET, COBURG",-37.755441,144.975716,1.0,1.0,0,$310_per_week,September 2018,3058,2018,9,COBURG,310,206011497,Apartment
411,"1 BECKWITH STREET, COBURG",-37.738086,144.965278,3.0,1.0,3,$550_-_$570_per_week,July 2018,3058,2018,7,COBURG,570,206011497,House
412,"2/33 SHAFTSBURY STREET, COBURG",-37.751325,144.953636,3.0,1.0,1,$600_Week,May 2018,3058,2018,5,COBURG,600,206011498,House
413,"2/33 SHAFTSBURY STREET, COBURG",-37.751325,144.953636,3.0,1.0,1,$600_pw,April 2018,3058,2018,4,COBURG,600,206011498,House
414,"2/33 SHAFTSBURY STREET, COBURG",-37.751325,144.953636,3.0,1.0,1,$370,February 2018,3058,2018,2,COBURG,370,206011498,House
418,"56 WALSH STREET, COBURG",-37.748608,144.970474,2.0,1.0,1,$610_pw,March 2018,3058,2018,3,COBURG,610,206011497,Apartment
423,"109A/41-43 STOCKADE AVENUE, COBURG",-37.7390664,144.9698398,1.0,1.0,1,$285_per_week,October 2018,3058,2018,10,COBURG,285,206011497,Apartment
424,"109A/41-43 STOCKADE AVENUE, COBURG",-37.7390664,144.9698398,1.0,1.0,1,$285,September 2018,3058,2018,9,COBURG,285,206011497,Apartment
425,"68 BRUCE STREET, COBURG",-37.743287,144.948467,3.0,1.0,1,$510,July 2018,3058,2018,7,COBURG,510,206011498,House
427,"4/156 BARROW STREET, COBURG",-37.742919,144.973082,2.0,1.0,1,$350_per_week,November 2018,3058,2018,11,COBURG,350,206011497,Apartment
428,"35 BAKERS ROAD, COBURG",-37.7274333,144.9624865,3.0,1.0,1,$500,August 2018,3058,2018,8,COBURG,500,210031236,House
429,"102A/1 MANNA GUM COURT, COBURG",-37.737353,144.976093,1.0,1.0,1,$360_per_week,December 2018,3058,2018,12,COBURG,360,206011497,Apartment
430,"102A/1 MANNA GUM COURT, COBURG",-37.737353,144.976093,1.0,1.0,1,$360_per_week,October 2018,3058,2018,10,COBURG,360,206011497,Apartment
441,"1/14 FLORENCE STREET, COBURG",-37.7516577,144.959873,3.0,2.0,1,$580,April 2018,3058,2018,4,COBURG,580,206011498,House
442,"1/14 FLORENCE STREET, COBURG",-37.7516577,144.959873,3.0,2.0,1,$580,March 2018,3058,2018,3,COBURG,580,206011498,House
443,"5/130 RENNIE STREET, COBURG",-37.751879,144.978146,2.0,2.0,1,$380,March 2018,3058,2018,3,COBURG,380,206011497,House
444,"508/14-20 NICHOLSON STREET, COBURG",-37.755441,144.975716,1.0,1.0,1,$350,October 2018,3058,2018,10,COBURG,350,206011497,Apartment
445,"23A MURRAY STREET, COBURG",-37.738829,144.958816,3.0,1.0,1,$480,June 2018,3058,2018,6,COBURG,480,206011498,House
446,"21/1 MANNA GUM COURT, COBURG",-37.737353,144.976093,3.0,2.0,2,$600,April 2018,3058,2018,4,COBURG,600,206011497,House
447,"1/1 INDUSTRY LANE, COBURG",-37.7369442,144.9699153,1.0,1.0,1,$350_per_week,April 2018,3058,2018,4,COBURG,350,206011497,Apartment
448,"2/27 GLADSTONE STREET, COBURG",-37.74468,144.976117,2.0,1.0,1,$395_pw,January 2018,3058,2018,1,COBURG,395,206011497,Apartment
449,"10 CLARENDON STREET, COBURG",-37.753069,144.952598,3.0,2.0,2,$620,June 2018,3058,2018,6,COBURG,620,206011498,House
450,"3/170 GORDON STREET, COBURG",-37.742134,144.94979,2.0,1.0,1,$380,June 2018,3058,2018,6,COBURG,380,206011498,Apartment
451,"3/22 CHAMBERS STREET, COBURG",-37.747267,144.96884,2.0,1.0,1,$385_pw,January 2018,3058,2018,1,COBURG,385,206011497,Apartment
452,"4/9 SHEFFIELD STREET, COBURG",-37.746293,144.966699,1.0,1.0,1,$260_Weekly,May 2018,3058,2018,5,COBURG,260,206011497,Apartment
453,"4/9 SHEFFIELD STREET, COBURG",-37.746293,144.966699,1.0,1.0,1,$260,April 2018,3058,2018,4,COBURG,260,206011497,Apartment
455,"20 CASH STREET, COBURG",-37.748976,144.967068,3.0,1.0,2,$580_-_$600_per_week,December 2018,3058,2018,12,COBURG,600,206011497,House
456,"20 CASH STREET, COBURG",-37.748976,144.967068,3.0,1.0,2,$580_-_$600_per_week,November 2018,3058,2018,11,COBURG,600,206011497,House
457,"20 CASH STREET, COBURG",-37.748976,144.967068,3.0,1.0,2,$550_-_$600_per_week,February 2018,3058,2018,2,COBURG,600,206011497,House
463,"35A SAUNDERS STREET, COBURG",-37.7509857,144.9507578,2.0,2.0,2,$540_pw,May 2018,3058,2018,5,COBURG,540,206011498,House
464,"35A SAUNDERS STREET, COBURG",-37.7509857,144.9507578,2.0,2.0,2,$540,April 2018,3058,2018,4,COBURG,540,206011498,House
467,"22 BELGRAVE-GEMBROOK ROAD, COCKATOO",-37.936065,145.494084,3.0,1.0,0,$370_per_week,June 2018,3781,2018,6,COCKATOO,370,212011289,House
468,"2 BELGRAVE AVENUE, COCKATOO",-37.92732,145.495818,4.0,2.0,6,$390_per_week,October 2018,3781,2018,10,COCKATOO,390,212011289,House
469,"2 BELGRAVE AVENUE, COCKATOO",-37.92732,145.495818,4.0,2.0,6,$390_per_week,September 2018,3781,2018,9,COCKATOO,390,212011289,House
476,"80 RAINY HILL ROAD, COCKATOO",-37.91618,145.516997,3.0,1.0,0,$500_per_week,February 2018,3781,2018,2,COCKATOO,500,212011289,House
485,"1/27 DOWLING STREET, COLAC",-38.351997,143.582613,3.0,1.0,1,$300_per_week,October 2018,3250,2018,10,COLAC,300,217031472,House
486,"1/27 DOWLING STREET, COLAC",-38.351997,143.582613,3.0,1.0,1,$300_per_week,April 2018,3250,2018,4,COLAC,300,217031472,House
488,"4 SELWOOD STREET, COLAC",-38.347277,143.592928,2.0,1.0,0,$250_per_week,December 2018,3250,2018,12,COLAC,250,217031472,Apartment
489,"5A MARKS STREET, COLAC",-38.338987,143.575414,1.0,1.0,1,$175_per_week,March 2018,3250,2018,3,COLAC,175,217031472,Apartment
490,"5A MARKS STREET, COLAC",-38.338987,143.575414,1.0,1.0,1,$175_per_week,January 2018,3250,2018,1,COLAC,175,217031472,Apartment
499,"22 GRAVESEND STREET, COLAC",-38.346357,143.5853,3.0,2.0,1,$300_per_week,March 2018,3250,2018,3,COLAC,300,217031472,House
509,"50 LAURISTON DRIVE, COLDSTREAM",-37.728935,145.38654,3.0,2.0,2,$450_Weekly,December 2018,3770,2018,12,COLDSTREAM,450,211051278,House
515,"9 MCCONOCHIE STREET, COLERAINE",-37.6028556,141.6993735,4.0,1.0,2,$200_per_week,March 2018,3315,2018,3,COLERAINE,200,217011423,House
516,"9 MCCONOCHIE STREET, COLERAINE",-37.6028556,141.6993735,4.0,1.0,2,$200_per_week,January 2018,3315,2018,1,COLERAINE,200,217011423,House
517,"3844 GLENELG HIGHWAY, COLERAINE",-37.59233633,141.6458652,3.0,1.0,2,$250,March 2018,3315,2018,3,COLERAINE,250,217011423,House
522,"802/60 STANLEY STREET, COLLINGWOOD",-37.801974,144.985936,2.0,1.0,1,$550_p.w.,February 2018,3066,2018,2,COLLINGWOOD,550,206071141,Apartment
523,"802/60 STANLEY STREET, COLLINGWOOD",-37.801974,144.985936,2.0,1.0,1,$560_p.w.,February 2018,3066,2018,2,COLLINGWOOD,560,206071141,Apartment
524,"802/60 STANLEY STREET, COLLINGWOOD",-37.801974,144.985936,2.0,1.0,1,$560,January 2018,3066,2018,1,COLLINGWOOD,560,206071141,Apartment
526,"129 SACKVILLE STREET, COLLINGWOOD",-37.79908,144.991078,2.0,1.0,0,$585_Week,July 2018,3066,2018,7,COLLINGWOOD,585,206071141,Apartment
527,"2/19-23 BENDIGO STREET, COLLINGWOOD",-37.795915,144.992664,1.0,1.0,1,$375_Week,March 2018,3066,2018,3,COLLINGWOOD,375,206071141,Apartment
528,"11/115 OXFORD STREET, COLLINGWOOD",-37.802615,144.984783,3.0,2.0,2,$1200_Week,October 2018,3066,2018,10,COLLINGWOOD,1200,206071141,House
529,"11/115 OXFORD STREET, COLLINGWOOD",-37.802615,144.984783,3.0,2.0,2,$1300_Week,September 2018,3066,2018,9,COLLINGWOOD,1300,206071141,House
531,"2/136 OXFORD STREET, COLLINGWOOD",-37.803526,144.985039,2.0,1.0,1,$695_per_week,June 2018,3066,2018,6,COLLINGWOOD,695,206071141,Apartment
532,"2/136 OXFORD STREET, COLLINGWOOD",-37.803526,144.985039,2.0,1.0,1,$695_per_week,May 2018,3066,2018,5,COLLINGWOOD,695,206071141,Apartment
533,"5/15-17 BENDIGO STREET, COLLINGWOOD",-37.796087,144.992632,1.0,1.0,1,$265_per_week,July 2018,3066,2018,7,COLLINGWOOD,265,206071141,Apartment
534,"5/15-17 BENDIGO STREET, COLLINGWOOD",-37.796087,144.992632,1.0,1.0,1,$265_per_week,June 2018,3066,2018,6,COLLINGWOOD,265,206071141,Apartment
535,"5/15-17 BENDIGO STREET, COLLINGWOOD",-37.796087,144.992632,1.0,1.0,1,$265_per_week,February 2018,3066,2018,2,COLLINGWOOD,265,206071141,Apartment
536,"504/45 VICTORIA PARADE, COLLINGWOOD",-37.808835,144.984151,1.0,1.0,0,$320_per_week,February 2018,3066,2018,2,COLLINGWOOD,320,206071141,Apartment
537,"410/158 SMITH STREET, COLLINGWOOD",-37.8041561,144.9834623,2.0,2.0,1,$590,May 2018,3066,2018,5,COLLINGWOOD,590,206071141,House
538,"19 LITTLE WELLINGTON STREET, COLLINGWOOD",-37.8012,144.985384,2.0,1.0,1,$630_pw,August 2018,3066,2018,8,COLLINGWOOD,630,206071141,Apartment
539,"26 CAMPBELL STREET, COLLINGWOOD",-37.803517,144.989147,2.0,1.0,0,$540_-_$570,September 2018,3066,2018,9,COLLINGWOOD,570,206071141,Apartment
540,"26 CAMPBELL STREET, COLLINGWOOD",-37.803517,144.989147,2.0,1.0,0,$540_-_$570,August 2018,3066,2018,8,COLLINGWOOD,570,206071141,Apartment
541,"223 / 107 CAMBRIDGE STREET, COLLINGWOOD",-37.8045372,144.985193,1.0,1.0,1,$450,February 2018,3066,2018,2,COLLINGWOOD,450,206071141,Apartment
542,"9/1 PEEL STREET, COLLINGWOOD",-37.805201,144.983757,1.0,1.0,1,$390_pw,April 2018,3066,2018,4,COLLINGWOOD,390,206071141,Apartment
543,"330/158 SMITH STREET, COLLINGWOOD",-37.8041561,144.9834623,1.0,1.0,1,$450,August 2018,3066,2018,8,COLLINGWOOD,450,206071141,Apartment
547,"807E/9 ROBERT STREET, COLLINGWOOD",-37.8057448,144.9871414,1.0,1.0,1,$430,July 2018,3066,2018,7,COLLINGWOOD,430,206071141,Apartment
548,"515/158 SMITH STREET, COLLINGWOOD",-37.8041561,144.9834623,2.0,2.0,1,$540,March 2018,3066,2018,3,COLLINGWOOD,540,206071141,House
549,"507/107 CAMBRIDGE STREET, COLLINGWOOD",-37.8035817,144.9854989,2.0,1.0,1,$530_per_week,July 2018,3066,2018,7,COLLINGWOOD,530,206071141,Apartment
550,"507/107 CAMBRIDGE STREET, COLLINGWOOD",-37.8035817,144.9854989,2.0,1.0,1,$530,June 2018,3066,2018,6,COLLINGWOOD,530,206071141,Apartment
551,"507/107 CAMBRIDGE STREET, COLLINGWOOD",-37.8035817,144.9854989,2.0,1.0,1,$530_per_week,March 2018,3066,2018,3,COLLINGWOOD,530,206071141,Apartment
552,"507/107 CAMBRIDGE STREET, COLLINGWOOD",-37.8035817,144.9854989,2.0,1.0,1,$530_per_week,February 2018,3066,2018,2,COLLINGWOOD,530,206071141,Apartment
553,"507/107 CAMBRIDGE STREET, COLLINGWOOD",-37.8035817,144.9854989,2.0,1.0,1,$550,January 2018,3066,2018,1,COLLINGWOOD,550,206071141,Apartment
554,"15/15-25 OXFORD STREET, COLLINGWOOD",-37.8076309,144.9840188,2.0,1.0,2,$500_pw,January 2018,3066,2018,1,COLLINGWOOD,500,206071141,Apartment
555,"117/3 HODDLE STREET, COLLINGWOOD",-37.8089283,144.9913524,2.0,1.0,2,$495_per_week,December 2018,3066,2018,12,COLLINGWOOD,495,206071141,Apartment
556,"301/45 VICTORIA PARADE, COLLINGWOOD",-37.8087039,144.9841198,1.0,1.0,1,$335_per_week,October 2018,3066,2018,10,COLLINGWOOD,335,206071141,Apartment
557,"304/44 BEDFORD STREET, COLLINGWOOD",-37.801579,144.98484,2.0,1.0,1,$540_per_week,December 2018,3066,2018,12,COLLINGWOOD,540,206071141,Apartment
573,"24/34 SMITH STREET, COLLINGWOOD",-37.807413,144.983606,2.0,1.0,1,$540_pw,March 2018,3066,2018,3,COLLINGWOOD,540,206071141,Apartment
574,"202/11 HODDLE STREET, COLLINGWOOD",-37.8088988,144.9906795,1.0,1.0,1,$390,June 2018,3066,2018,6,COLLINGWOOD,390,206071141,Apartment
575,"4GF/50 STANLEY STREET, COLLINGWOOD",-37.8022219,144.9857824,2.0,1.0,1,$600,August 2018,3066,2018,8,COLLINGWOOD,600,206071141,Apartment
576,"407 / 51 NAPOLEON STREET, COLLINGWOOD",-37.8016359,144.9865869,1.0,1.0,0,$390_per_week,June 2018,3066,2018,6,COLLINGWOOD,390,206071141,Apartment
577,"2/284 SMITH STREET, COLLINGWOOD",-37.800779,144.984044,3.0,2.0,0,$680,February 2018,3066,2018,2,COLLINGWOOD,680,206071141,House
578,"182 EASEY STREET, COLLINGWOOD",-37.79824,144.992589,2.0,1.0,0,$470,July 2018,3066,2018,7,COLLINGWOOD,470,206071141,Apartment
579,"504/107 CAMBRIDGE STREET, COLLINGWOOD",-37.8035817,144.9854989,2.0,2.0,1,$580_per_week,November 2018,3066,2018,11,COLLINGWOOD,580,206071141,House
582,"112/51 NAPOLEON STREET, COLLINGWOOD",-37.8016359,144.9865869,1.0,1.0,1,$450_pw,September 2018,3066,2018,9,COLLINGWOOD,450,206071141,Apartment
583,"208/28 STANLEY STREET, COLLINGWOOD",-37.801969,144.985071,1.0,1.0,0,$460,April 2018,3066,2018,4,COLLINGWOOD,460,206071141,Apartment
584,"6/15-25 OXFORD STREET, COLLINGWOOD",-37.807803,144.984175,2.0,1.0,1,$550_Week,January 2018,3066,2018,1,COLLINGWOOD,550,206071141,Apartment
585,"2/9-11 OTTER STREET, COLLINGWOOD",-37.800996,144.985087,2.0,1.0,1,$400_pw,January 2018,3066,2018,1,COLLINGWOOD,400,206071141,Apartment
593,"27 PEARSON CRESCENT, COOLAROO",-37.657836,144.932751,3.0,1.0,2,$370,August 2018,3048,2018,8,COOLAROO,370,210051243,House
594,"112 LONGFORD CRESCENT, COOLAROO",-37.655438,144.929122,3.0,1.0,4,$370,December 2018,3048,2018,12,COOLAROO,370,210051243,House
597,"4 EDI COURT, COOLAROO",-37.663448,144.931865,3.0,1.0,1,$315,December 2018,3048,2018,12,COOLAROO,315,210051243,House
598,"7 ALMURTA AVENUE, COOLAROO",-37.659159,144.935219,3.0,1.0,1,$350_per_week,May 2018,3048,2018,5,COOLAROO,350,210051243,House
599,"7 ALMURTA AVENUE, COOLAROO",-37.659159,144.935219,3.0,1.0,1,$360,May 2018,3048,2018,5,COOLAROO,360,210051243,House
601,"19 KARNAK CRESCENT, COOLAROO",-37.657032,144.93317,3.0,1.0,3,$330_per_week,July 2018,3048,2018,7,COOLAROO,330,210051243,House
604,"62 COOMOORA SCHOOL ROAD, COOMOORA",-37.3324402,144.1917676,4.0,1.0,2,$440_per_week,September 2018,3461,2018,9,COOMOORA,440,201021011,House
614,"6 KILBURN STREET, CORINELLA",-38.415896,145.434962,2.0,1.0,1,$300,June 2018,3984,2018,6,CORINELLA,300,205031093,House
615,"41 MOORINGS PLACE, CORINELLA",-38.411505,145.430496,3.0,2.0,6,$425,August 2018,3984,2018,8,CORINELLA,425,205031093,House
616,"23 MOORINGS PLACE, CORINELLA",-38.4124682,145.4306845,4.0,2.0,2,$350_per_week,November 2018,3984,2018,11,CORINELLA,350,205031093,House
617,"23 MOORINGS PLACE, CORINELLA",-38.4124682,145.4306845,4.0,2.0,2,$350_per_week,October 2018,3984,2018,10,CORINELLA,350,205031093,House
620,"3/13 ONTARIO AVENUE, CORIO",-38.0811036,144.3595703,2.0,2.0,1,$310_per_week,December 2018,3214,2018,12,CORIO,310,203021486,House
621,"4 VICKERS COURT, CORIO",-38.06667176,144.35398235,3.0,1.0,1,$290_per_week,September 2018,3214,2018,9,CORIO,290,203021486,House
622,"12 GRANAULT PARADE, CORIO",-38.075683,144.365084,3.0,1.0,2,$290_per_week,October 2018,3214,2018,10,CORIO,290,203021486,House
641,"9 KINGSLEY DRIVE, CORIO",-38.07158647,144.34516111,3.0,1.0,2,$330_per_week,December 2018,3214,2018,12,CORIO,330,203021486,House
644,"124 PLANTATION ROAD, CORIO",-38.067161,144.362963,3.0,2.0,2,$310,February 2018,3214,2018,2,CORIO,310,203021486,House
645,"124 PLANTATION ROAD, CORIO",-38.067161,144.362963,3.0,2.0,2,$310,January 2018,3214,2018,1,CORIO,310,203021486,House
648,"16C WILKINS CLOSE, CORIO",-38.0785193,144.3447955,3.0,2.0,1,$320_per_week,April 2018,3214,2018,4,CORIO,320,203021486,House
650,"36 BUFFALO AVENUE, CORIO",-38.074243,144.366944,3.0,1.0,1,$325_per_week,August 2018,3214,2018,8,CORIO,325,203021486,House
651,"36 BUFFALO AVENUE, CORIO",-38.074243,144.366944,3.0,1.0,1,$325_per_week,July 2018,3214,2018,7,CORIO,325,203021486,House
666,"18 HAMILTON CRESCENT, CORRYONG",-36.1947705,147.9012108,3.0,1.0,0,$180,July 2018,3707,2018,7,CORRYONG,180,204031072,House
670,"4/154 HARRIS STREET, CORRYONG",-36.198582,147.89388,1.0,1.0,1,$95_per_week,August 2018,3707,2018,8,CORRYONG,95,204031072,Apartment
671,"4/154 HARRIS STREET, CORRYONG",-36.198582,147.89388,1.0,1.0,1,$95,July 2018,3707,2018,7,CORRYONG,95,204031072,Apartment
672,"4/154 HARRIS STREET, CORRYONG",-36.198582,147.89388,1.0,1.0,1,$110_per_week,March 2018,3707,2018,3,CORRYONG,110,204031072,Apartment
673,"5/154 HARRIS STREET ST, CORRYONG",-36.1985817,147.8938804,2.0,1.0,1,$110_per_week,September 2018,3707,2018,9,CORRYONG,110,204031072,Apartment
674,"5/154 HARRIS STREET ST, CORRYONG",-36.1985817,147.8938804,2.0,1.0,1,$130_per_week,March 2018,3707,2018,3,CORRYONG,130,204031072,House
675,"5/154 HARRIS STREET ST, CORRYONG",-36.1985817,147.8938804,2.0,1.0,1,$130_per_week,January 2018,3707,2018,1,CORRYONG,130,204031072,Apartment
708,"2 SHOALHAVEN ROAD, COWES",-38.460513,145.2551077,4.0,2.0,2,$450,June 2018,3922,2018,6,COWES,450,205031091,House
715,"1/4 GRANDVIEW GROVE, COWES",-38.45692444,145.23738098,3.0,2.0,1,$280,June 2018,3922,2018,6,COWES,280,205031091,House
716,"39 VENTNOR ROAD, COWES",-38.4633336,145.2319682,5.0,2.0,4,$450,August 2018,3922,2018,8,COWES,450,205031091,House
718,"8 MELDRUM COURT, COWES",-38.461217,145.231884,4.0,2.0,2,$420,September 2018,3922,2018,9,COWES,420,205031091,House
719,"480 TOONGABBIE/COWWARR RD, COWWARR",-38.0172988,146.6474469,3.0,1.0,3,$280_Weekly,June 2018,3857,2018,6,COWWARR,280,205051102,House
730,"31/1-11 HYDE PARK AVENUE, CRAIGIEBURN",-37.5780669,144.9299385,2.0,1.0,1,$330_Week,May 2018,3064,2018,5,CRAIGIEBURN,330,210051442,House
735,"5/11 TROWARD HARVEY WAY, CRAIGIEBURN",-37.5761539,144.9322587,3.0,2.0,2,$380,July 2018,3064,2018,7,CRAIGIEBURN,380,210051442,House
736,"5/11 TROWARD HARVEY WAY, CRAIGIEBURN",-37.5761539,144.9322587,3.0,2.0,2,$390,June 2018,3064,2018,6,CRAIGIEBURN,390,210051442,House
741,"102 DOMAIN WAY, CRAIGIEBURN",-37.5696357,144.9099298,3.0,2.0,2,$400_Weekly,August 2018,3064,2018,8,CRAIGIEBURN,400,210051542,House
742,"102 DOMAIN WAY, CRAIGIEBURN",-37.5696357,144.9099298,3.0,2.0,2,$415,August 2018,3064,2018,8,CRAIGIEBURN,415,210051542,House
743,"3/5 FALMER PLACE, CRAIGIEBURN",-37.601596,144.93039,2.0,1.0,1,$320,January 2018,3064,2018,1,CRAIGIEBURN,320,210051443,Apartment
747,"110 DIANNE AVENUE, CRAIGIEBURN",-37.595269,144.927281,4.0,1.0,4,$370_pw,February 2018,3064,2018,2,CRAIGIEBURN,370,210051441,House
748,"10 FLAGSTAFF LOOP, CRAIGIEBURN",-37.58541074,144.938703,3.0,2.0,1,$380,August 2018,3064,2018,8,CRAIGIEBURN,380,210051442,House
749,"21/1 BRUNSWICK CRESCENT, CRAIGIEBURN",-37.5938768,144.917407,3.0,2.0,1,$390,June 2018,3064,2018,6,CRAIGIEBURN,390,210051543,House
774,"59 FURLONG STREET, CRAIGIEBURN",-37.5914881,144.9170852,1.0,1.0,1,$310_per_week,May 2018,3064,2018,5,CRAIGIEBURN,310,210051543,Apartment
787,"77 ELIBURN DRIVE, CRANBOURNE EAST",-38.1186122,145.2985383,5.0,2.0,2,$420_per_week,November 2018,3977,2018,11,EAST,420,212031558,House
788,"77 ELIBURN DRIVE, CRANBOURNE EAST",-38.1186122,145.2985383,5.0,2.0,2,$450_per_week,October 2018,3977,2018,10,EAST,450,212031558,House
789,"77 ELIBURN DRIVE, CRANBOURNE EAST",-38.1186122,145.2985383,5.0,2.0,2,$480,August 2018,3977,2018,8,EAST,480,212031558,House
791,"6 AJUGA LANE, CRANBOURNE NORTH",-38.07932,145.3184165,3.0,2.0,2,$385_p.w.,February 2018,3977,2018,2,NORTH,385,212031559,House
792,"6 AJUGA LANE, CRANBOURNE NORTH",-38.07932,145.3184165,3.0,2.0,2,$385_p.w.,January 2018,3977,2018,1,NORTH,385,212031559,House
821,"10 NELSE STREET, CRANBOURNE NORTH",-38.07,145.291,4.0,2.0,2,$420,April 2018,3977,2018,4,NORTH,420,212031560,House
822,"4/20 HUON PARK ROAD, CRANBOURNE NORTH",-38.074527,145.27318,3.0,2.0,2,$345_per_week,April 2018,3977,2018,4,NORTH,345,212031560,House
823,"4/20 HUON PARK ROAD, CRANBOURNE NORTH",-38.074527,145.27318,3.0,2.0,2,$345_per_week,March 2018,3977,2018,3,NORTH,345,212031560,House
854,"18 HARVARD STREET, CRANBOURNE WEST",-38.0960867,145.2678755,3.0,2.0,2,$395,August 2018,3977,2018,8,WEST,395,212031304,House
858,"2 GREAVES STREET, CRANBOURNE",-38.11065,145.280222,3.0,2.0,3,$310_p.w.,July 2018,3977,2018,7,CRANBOURNE,310,212031300,House
859,"3 TAMWORTH COURT, CRANBOURNE",-38.082578,145.266685,3.0,2.0,2,$345_p.w.,October 2018,3977,2018,10,CRANBOURNE,345,212031300,House
860,"3 TAMWORTH COURT, CRANBOURNE",-38.082578,145.266685,3.0,2.0,2,$345,September 2018,3977,2018,9,CRANBOURNE,345,212031300,House
863,"4/205 SLADEN STREET, CRANBOURNE",-38.113304,145.288071,2.0,1.0,1,$270_p.w.,May 2018,3977,2018,5,CRANBOURNE,270,212031300,House
864,"4/205 SLADEN STREET, CRANBOURNE",-38.113304,145.288071,2.0,1.0,1,$250_p.w.,April 2018,3977,2018,4,CRANBOURNE,250,212031300,Apartment
874,"19 JILLIAN STREET, CRANBOURNE",-38.107651,145.274156,3.0,1.0,1,$310,December 2018,3977,2018,12,CRANBOURNE,310,212031300,House
875,"19 JILLIAN STREET, CRANBOURNE",-38.107651,145.274156,3.0,1.0,1,$385_Weekly,September 2018,3977,2018,9,CRANBOURNE,385,212031300,House
876,"19 JILLIAN STREET, CRANBOURNE",-38.107651,145.274156,3.0,1.0,1,$385,August 2018,3977,2018,8,CRANBOURNE,385,212031300,House
907,"40 CUNNINGHAM CHASE, BURNSIDE HEIGHTS",-37.735431,144.761693,3.0,2.0,2,$350,December 2018,3023,2018,12,HEIGHTS,350,213041462,House
908,"1/7 KATRINA DRIVE, BURNSIDE HEIGHTS",-37.729215,144.757724,3.0,2.0,1,$380_per_week,May 2018,3023,2018,5,HEIGHTS,380,213041462,House
925,"7 BURKE ROAD, BURNSIDE HEIGHTS",-37.733581,144.758083,4.0,2.0,2,$430,July 2018,3023,2018,7,HEIGHTS,430,213041462,House
926,"41 LEICHHARDT AVENUE, BURNSIDE HEIGHTS",-37.73303346,144.75562875,3.0,2.0,2,$420_per_week,October 2018,3023,2018,10,HEIGHTS,420,213041462,House
927,"41 LEICHHARDT AVENUE, BURNSIDE HEIGHTS",-37.73303346,144.75562875,3.0,2.0,2,$420_pw,April 2018,3023,2018,4,HEIGHTS,420,213041462,House
934,"3 SAVIOUR ROAD, BURNSIDE HEIGHTS",-37.7263099,144.7571593,3.0,2.0,1,$395_per_week,March 2018,3023,2018,3,HEIGHTS,395,213041462,House
943,"14 BARTON ROAD, BURNSIDE HEIGHTS",-37.7262084,144.7576957,4.0,2.0,2,$520_pw,December 2018,3023,2018,12,HEIGHTS,520,213041462,House
950,"28 GIVERNY CLOSE, BURNSIDE HEIGHTS",-37.724803,144.7522739,4.0,2.0,2,$430_p.w.,October 2018,3023,2018,10,HEIGHTS,430,213041462,House
951,"28 GIVERNY CLOSE, BURNSIDE HEIGHTS",-37.724803,144.7522739,4.0,2.0,2,$460_p.w.,September 2018,3023,2018,9,HEIGHTS,460,213041462,House
958,"38 ARBOUR BOULEVARD, BURNSIDE HEIGHTS",-37.728567,144.751529,5.0,2.0,2,$630,September 2018,3023,2018,9,HEIGHTS,630,213041462,House
959,"14 BELLEVILLE CLOSE, BURNSIDE HEIGHTS",-37.7251593,144.7546257,3.0,2.0,2,$350,September 2018,3023,2018,9,HEIGHTS,350,213041462,House
968,"33 MANNY PAUL CIRCUIT, BURNSIDE HEIGHTS",-37.72843953,144.75673015,4.0,2.0,2,$460,May 2018,3023,2018,5,HEIGHTS,460,213041462,House
987,"15 ROYCROFT AVENUE, BURNSIDE HEIGHTS",-37.751757,144.749065,3.0,2.0,4,$410,February 2018,3023,2018,2,HEIGHTS,410,213041461,House
988,"27 BELLEVILLE CLOSE, BURNSIDE HEIGHTS",-37.7264289,144.7530183,3.0,2.0,2,$410_per_week,January 2018,3023,2018,1,HEIGHTS,410,213041462,House
989,"27 BELLEVILLE CLOSE, BURNSIDE HEIGHTS",-37.7264289,144.7530183,3.0,2.0,2,$410_per_week,February 2018,3023,2018,2,HEIGHTS,410,213041462,House
990,"120 TENTERFIELD DRIVE, BURNSIDE HEIGHTS",-37.7353732,144.7566062,4.0,2.0,2,$500_per_week,January 2018,3023,2018,1,HEIGHTS,500,213041462,House
991,"120 TENTERFIELD DRIVE, BURNSIDE HEIGHTS",-37.7353732,144.7566062,4.0,2.0,2,$500_per_week,February 2018,3023,2018,2,HEIGHTS,500,213041462,House
994,"35 WYLIE CIRCUIT, BURNSIDE HEIGHTS",-37.731597,144.755122,3.0,2.0,2,$410_per_week,January 2018,3023,2018,1,HEIGHTS,410,213041462,House
995,"29 MENZIES DRIVE, BURNSIDE HEIGHTS",-37.728059,144.763555,3.0,2.0,2,$420_pw,January 2018,3023,2018,1,HEIGHTS,420,213041462,House
996,"3 COOMA PLACE, BURNSIDE HEIGHTS",-37.73637348,144.74979565,4.0,2.0,2,$450_pw,January 2018,3023,2018,1,HEIGHTS,450,213041462,House
1000,"3 SULLIVAN TERRACE, BURNSIDE",-37.742238,144.748869,3.0,2.0,1,$360,May 2018,3023,2018,5,BURNSIDE,360,213041461,House
1001,"18 FLEMMING AVENUE, BURNSIDE",-37.748634,144.74286,3.0,1.0,1,$350_pw,July 2018,3023,2018,7,BURNSIDE,350,213041461,House
1002,"3 GOULD PLACE, BURNSIDE",-37.751245,144.749376,3.0,1.0,1,$380_pw,July 2018,3023,2018,7,BURNSIDE,380,213041461,House
1003,"42 BARRY ROAD, BURWOOD EAST",-37.857015,145.152045,3.0,1.0,1,$410_Weekly,September 2018,3151,2018,9,EAST,410,207031166,House
1008,"6 STRATHBOGIE WALK, BURWOOD EAST",-37.857073,145.141027,3.0,2.0,2,$580,March 2018,3151,2018,3,EAST,580,207031166,House
1022,"46 DOROTHY STREET, BURWOOD EAST",-37.854819,145.148391,4.0,1.0,2,$440,November 2018,3151,2018,11,EAST,440,207031166,House
1023,"46 DOROTHY STREET, BURWOOD EAST",-37.854819,145.148391,4.0,1.0,2,$460,September 2018,3151,2018,9,EAST,460,207031166,House
1024,"331 BLACKBURN ROAD, BURWOOD EAST",-37.850399,145.152664,4.0,2.0,1,$455,January 2018,3151,2018,1,EAST,455,207031166,House
1025,"273 BURWOOD HIGHWAY, BURWOOD EAST",-37.853212,145.157891,1.0,1.0,0,$175,September 2018,3151,2018,9,EAST,175,207031166,Apartment
1026,"273 BURWOOD HIGHWAY, BURWOOD EAST",-37.853212,145.157891,1.0,1.0,0,$175,August 2018,3151,2018,8,EAST,175,207031166,Apartment
1027,"273 BURWOOD HIGHWAY, BURWOOD EAST",-37.853212,145.157891,1.0,1.0,0,$175,March 2018,3151,2018,3,EAST,175,207031166,Apartment
1033,"119/386 BURWOOD HIGHWAY, BURWOOD",-37.852243,145.130583,1.0,1.0,0,$240,October 2018,3125,2018,10,BURWOOD,240,207031165,Apartment
1034,"119/386 BURWOOD HIGHWAY, BURWOOD",-37.852243,145.130583,1.0,1.0,0,$240_per_week,September 2018,3125,2018,9,BURWOOD,240,207031165,Apartment
1035,"119/386 BURWOOD HIGHWAY, BURWOOD",-37.852243,145.130583,1.0,1.0,0,$230_per_week,January 2018,3125,2018,1,BURWOOD,230,207031165,Apartment
1036,"139/386 BURWOOD HIGHWAY, BURWOOD",-37.852243,145.130583,1.0,1.0,0,$235,August 2018,3125,2018,8,BURWOOD,235,207031165,Apartment
1037,"139/386 BURWOOD HIGHWAY, BURWOOD",-37.852243,145.130583,1.0,1.0,0,$225_per_week,January 2018,3125,2018,1,BURWOOD,225,207031165,Apartment
1038,"G13/386 BURWOOD HIGHWAY, BURWOOD",-37.852243,145.130583,1.0,1.0,0,$235,October 2018,3125,2018,10,BURWOOD,235,207031165,Apartment
1039,"G13/386 BURWOOD HIGHWAY, BURWOOD",-37.852243,145.130583,1.0,1.0,0,$235_per_week,September 2018,3125,2018,9,BURWOOD,235,207031165,Apartment
1040,"G13/386 BURWOOD HIGHWAY, BURWOOD",-37.852243,145.130583,1.0,1.0,0,$225_per_week,January 2018,3125,2018,1,BURWOOD,225,207031165,Apartment
1041,"108/386 BURWOOD HIGHWAY, BURWOOD",-37.852243,145.130583,1.0,1.0,0,$215_per_week,July 2018,3125,2018,7,BURWOOD,215,207031165,Apartment
1042,"2/6 LA FRANK STREET, BURWOOD",-37.852503,145.127205,2.0,2.0,1,$515_per_week,August 2018,3125,2018,8,BURWOOD,515,207031165,House
1043,"2/6 LA FRANK STREET, BURWOOD",-37.852503,145.127205,2.0,2.0,1,$500,May 2018,3125,2018,5,BURWOOD,500,207031165,House
1044,"49/390 BURWOOD HIGHWAY, BURWOOD",-37.852279,145.130904,1.0,1.0,0,$210_per_week,April 2018,3125,2018,4,BURWOOD,210,207031165,Apartment
1045,"1A TENNYSON STREET, BURWOOD",-37.8511,145.131741,3.0,2.0,1,$390_per_week,July 2018,3125,2018,7,BURWOOD,390,207031165,House
1046,"117/386 BURWOOD HIGHWAY, BURWOOD",-37.852243,145.130583,1.0,1.0,0,$235_per_week,September 2018,3125,2018,9,BURWOOD,235,207031165,Apartment
1047,"4 SUTHERLAND PLACE, BURWOOD",-37.846171,145.131852,4.0,2.0,1,$580_per_week,September 2018,3125,2018,9,BURWOOD,580,207031165,House
1048,"G11/386 BURWOOD HIGHWAY, BURWOOD",-37.852243,145.130583,1.0,1.0,0,$235_per_week,September 2018,3125,2018,9,BURWOOD,235,207031165,Apartment
1049,"G11/386 BURWOOD HIGHWAY, BURWOOD",-37.852243,145.130583,1.0,1.0,0,$235,August 2018,3125,2018,8,BURWOOD,235,207031165,Apartment
1050,"G11/386 BURWOOD HIGHWAY, BURWOOD",-37.852243,145.130583,1.0,1.0,0,$225_per_week,February 2018,3125,2018,2,BURWOOD,225,207031165,Apartment
1051,"112/386 BURWOOD HIGHWAY, BURWOOD",-37.852243,145.130583,1.0,1.0,0,$215_per_week,January 2018,3125,2018,1,BURWOOD,215,207031165,Apartment
1052,"10/4 MILFORD AVENUE, BURWOOD",-37.849766,145.117788,1.0,1.0,1,$395_per_week,September 2018,3125,2018,9,BURWOOD,395,207031165,Apartment
1053,"222/386 BURWOOD HIGHWAY, BURWOOD",-37.852243,145.130583,1.0,1.0,0,$240,January 2018,3125,2018,1,BURWOOD,240,207031165,Apartment
1054,"G09/386 BURWOOD HIGHWAY, BURWOOD",-37.852243,145.130583,1.0,1.0,0,$225_per_week,May 2018,3125,2018,5,BURWOOD,225,207031165,Apartment
1055,"60/390 BURWOOD HIGHWAY, BURWOOD",-37.852279,145.130904,1.0,1.0,0,$210_per_week,January 2018,3125,2018,1,BURWOOD,210,207031165,Apartment
1056,"G06/386 BURWOOD HIGHWAY, BURWOOD",-37.852243,145.130583,1.0,1.0,0,$250_per_week,September 2018,3125,2018,9,BURWOOD,250,207031165,Apartment
1057,"G06/386 BURWOOD HIGHWAY, BURWOOD",-37.852243,145.130583,1.0,1.0,0,$250,August 2018,3125,2018,8,BURWOOD,250,207031165,Apartment
1058,"G06/386 BURWOOD HIGHWAY, BURWOOD",-37.852243,145.130583,1.0,1.0,0,$240_per_week,February 2018,3125,2018,2,BURWOOD,240,207031165,Apartment
1060,"29/390 BURWOOD HIGHWAY, BURWOOD",-37.852279,145.130904,1.0,1.0,0,$220,October 2018,3125,2018,10,BURWOOD,220,207031165,Apartment
1061,"29/390 BURWOOD HIGHWAY, BURWOOD",-37.852279,145.130904,1.0,1.0,0,$220_per_week,September 2018,3125,2018,9,BURWOOD,220,207031165,Apartment
1063,"4 MAIDEN COURT, BURWOOD",-37.8577,145.109172,4.0,2.0,2,$710_pw,January 2018,3125,2018,1,BURWOOD,710,212051319,House
1078,"203/386 BURWOOD HIGHWAY, BURWOOD",-37.852243,145.130583,1.0,1.0,0,$225_per_week,January 2018,3125,2018,1,BURWOOD,225,207031165,Apartment
1079,"G27/386 BURWOOD HIGHWAY, BURWOOD",-37.852243,145.130583,1.0,1.0,0,$225_per_week,February 2018,3125,2018,2,BURWOOD,225,207031165,Apartment
1080,"205/386 BURWOOD HIGHWAY, BURWOOD",-37.852243,145.130583,1.0,1.0,0,$220,January 2018,3125,2018,1,BURWOOD,220,207031165,Apartment
1081,"241/386 BURWOOD HIGHWAY, BURWOOD",-37.852243,145.130583,1.0,1.0,0,$250_per_week,September 2018,3125,2018,9,BURWOOD,250,207031165,Apartment
1082,"43/390 BURWOOD HIGHWAY, BURWOOD",-37.852279,145.130904,1.0,1.0,0,$210_per_week,January 2018,3125,2018,1,BURWOOD,210,207031165,Apartment
1084,"108/1 DELANY AVENUE, BURWOOD",-37.849554,145.119534,1.0,1.0,0,$230_per_week,January 2018,3125,2018,1,BURWOOD,230,207031165,Apartment
1086,"132/386 BURWOOD HIGHWAY, BURWOOD",-37.852243,145.130583,1.0,1.0,0,$235,December 2018,3125,2018,12,BURWOOD,235,207031165,Apartment
1087,"30 NEWBIGIN STREET, BURWOOD",-37.852578,145.128119,3.0,2.0,2,$620_per_week,July 2018,3125,2018,7,BURWOOD,620,207031165,House
1089,"24/390 BURWOOD HIGHWAY, BURWOOD",-37.852279,145.130904,1.0,1.0,0,$205_per_week,January 2018,3125,2018,1,BURWOOD,205,207031165,Apartment
1090,"121/386 BURWOOD HIGHWAY, BURWOOD",-37.852243,145.130583,1.0,1.0,0,$235_per_week,December 2018,3125,2018,12,BURWOOD,235,207031165,Apartment
1091,"G22/386 BURWOOD HIGHWAY, BURWOOD",-37.852243,145.130583,1.0,1.0,0,$225_per_week,February 2018,3125,2018,2,BURWOOD,225,207031165,Apartment
1092,"G22/386 BURWOOD HIGHWAY, BURWOOD",-37.852243,145.130583,1.0,1.0,0,$225,January 2018,3125,2018,1,BURWOOD,225,207031165,Apartment
1100,"208/224 BURWOOD HIGHWAY, BURWOOD",-37.8501171,145.1144686,2.0,2.0,0,$415,December 2018,3125,2018,12,BURWOOD,415,207031165,House
1101,"G03/386 BURWOOD HIGHWAY, BURWOOD",-37.852243,145.130583,1.0,1.0,0,$230,June 2018,3125,2018,6,BURWOOD,230,207031165,Apartment
1102,"G03/386 BURWOOD HIGHWAY, BURWOOD",-37.852243,145.130583,1.0,1.0,0,$230_per_week,February 2018,3125,2018,2,BURWOOD,230,207031165,Apartment
1105,"94 BRIDGE ROAD, BUSHFIELD",-38.322386,142.495382,3.0,1.0,1,$320_per_week,June 2018,3281,2018,6,BUSHFIELD,320,217041479,House
1106,"1/66 BRIDGE ROAD, BUSHFIELD",-38.323566,142.498116,1.0,1.0,1,$190,December 2018,3281,2018,12,BUSHFIELD,190,217041479,Apartment
1107,"1/66 BRIDGE ROAD, BUSHFIELD",-38.323566,142.498116,1.0,1.0,1,$195_per_week,September 2018,3281,2018,9,BUSHFIELD,195,217041479,Apartment
1119,"24 ALIZA AVENUE, CALIFORNIA GULLY",-36.722933,144.271314,4.0,2.0,2,$310,February 2018,3556,2018,2,GULLY,310,202011019,House
1125,"4/348 EAGLEHAWK ROAD, CALIFORNIA GULLY",-36.7282335,144.258592,2.0,1.0,1,$220_pw,April 2018,3556,2018,4,GULLY,220,202011019,Apartment
1129,"36 MURDOCK STREET, CALIFORNIA GULLY",-36.728019,144.254278,3.0,2.0,1,$300_per_week,July 2018,3556,2018,7,GULLY,300,202011019,House
1130,"36 MURDOCK STREET, CALIFORNIA GULLY",-36.728019,144.254278,3.0,2.0,1,$300,February 2018,3556,2018,2,GULLY,300,202011019,House
1133,"9/5 FERMANAGH ROAD, CAMBERWELL",-37.8295344,145.0610323,2.0,1.0,1,$510_pw,July 2018,3124,2018,7,CAMBERWELL,510,207011149,Apartment
1134,"9/5 FERMANAGH ROAD, CAMBERWELL",-37.8295344,145.0610323,2.0,1.0,1,$520,June 2018,3124,2018,6,CAMBERWELL,520,207011149,Apartment
1135,"4 SEYMOUR GROVE, CAMBERWELL",-37.835861,145.060622,5.0,3.0,3,$820_per_week,August 2018,3124,2018,8,CAMBERWELL,820,207011149,House
1136,"4 SEYMOUR GROVE, CAMBERWELL",-37.835861,145.060622,5.0,3.0,3,$1000,July 2018,3124,2018,7,CAMBERWELL,1000,207011149,House
1137,"G09/1011 TOORAK ROAD, CAMBERWELL",-37.846539,145.066323,2.0,2.0,1,$470_per_week,September 2018,3124,2018,9,CAMBERWELL,470,207011149,House
1138,"G09/1011 TOORAK ROAD, CAMBERWELL",-37.846539,145.066323,2.0,2.0,1,$490,August 2018,3124,2018,8,CAMBERWELL,490,207011149,House
1140,"7 NICHOLSDALE ROAD, CAMBERWELL",-37.836122,145.091532,2.0,2.0,2,$570,September 2018,3124,2018,9,CAMBERWELL,570,207011149,House
1145,"113/565 CAMBERWELL ROAD, CAMBERWELL",-37.844491,145.071988,1.0,1.0,1,$380_per_week,October 2018,3124,2018,10,CAMBERWELL,380,207011149,Apartment
1146,"15 DAVIS AVENUE, CAMBERWELL",-37.843138,145.056522,4.0,2.0,2,$995,November 2018,3124,2018,11,CAMBERWELL,995,207011149,House
1147,"15 DAVIS AVENUE, CAMBERWELL",-37.843138,145.056522,4.0,2.0,2,$995,October 2018,3124,2018,10,CAMBERWELL,995,207011149,House
1148,"15 DAVIS AVENUE, CAMBERWELL",-37.843138,145.056522,4.0,2.0,2,$950,September 2018,3124,2018,9,CAMBERWELL,950,207011149,House
1149,"3/37 HIGH ROAD, CAMBERWELL",-37.8422913,145.057476,2.0,2.0,1,$520,April 2018,3124,2018,4,CAMBERWELL,520,207011149,House
1150,"7 OBERWYL ROAD, CAMBERWELL",-37.846258,145.085261,4.0,2.0,3,$880_pw,January 2018,3124,2018,1,CAMBERWELL,880,207011149,House
1151,"41 CHRISTOWEL STREET, CAMBERWELL",-37.83778,145.067185,4.0,2.0,3,$1050_pw,March 2018,3124,2018,3,CAMBERWELL,1050,207011149,House
1165,"19 IMMARNA ROAD, CAMBERWELL",-37.841871,145.077056,3.0,1.0,1,$550_pw,August 2018,3124,2018,8,CAMBERWELL,550,207011149,House
1166,"72 SPENCER ROAD, CAMBERWELL",-37.82643,145.070918,3.0,2.0,2,$800,December 2018,3124,2018,12,CAMBERWELL,800,207011149,House
1167,"3 DONNA BUANG STREET, CAMBERWELL",-37.84434,145.064707,4.0,3.0,2,$800_pw,January 2018,3124,2018,1,CAMBERWELL,800,207011149,House
1169,"3/891 TOORAK ROAD, CAMBERWELL",-37.845667,145.055262,2.0,2.0,1,$550_pw,February 2018,3124,2018,2,CAMBERWELL,550,207011149,House
1170,"33 RADNOR STREET, CAMBERWELL",-37.841908,145.061985,4.0,3.0,0,$1195_per_week,October 2018,3124,2018,10,CAMBERWELL,1195,207011149,House
1171,"33 RADNOR STREET, CAMBERWELL",-37.841908,145.061985,4.0,3.0,0,$1250_Weekly,July 2018,3124,2018,7,CAMBERWELL,1250,207011149,House
1175,"39 LYNDEN STREET, CAMBERWELL",-37.840895,145.086331,6.0,2.0,2,$750_pw,October 2018,3124,2018,10,CAMBERWELL,750,207011149,House
1176,"2 HARTWELL HILL ROAD, CAMBERWELL",-37.845086,145.07695,3.0,2.0,2,$625,December 2018,3124,2018,12,CAMBERWELL,625,207011149,House
1180,"5/184 WATTLE VALLEY ROAD, CAMBERWELL",-37.844727,145.080322,2.0,1.0,1,$580,April 2018,3124,2018,4,CAMBERWELL,580,207011149,Apartment
1181,"5/184 WATTLE VALLEY ROAD, CAMBERWELL",-37.844727,145.080322,2.0,1.0,1,$580,March 2018,3124,2018,3,CAMBERWELL,580,207011149,Apartment
1182,"106/828 BURKE ROAD, CAMBERWELL",-37.821798,145.058718,1.0,1.0,1,$400_per_week,January 2018,3124,2018,1,CAMBERWELL,400,207011149,Apartment
1185,"6/18 GLENCAIRN AVENUE, CAMBERWELL",-37.846807,145.081541,2.0,1.0,1,$345_pw,December 2018,3124,2018,12,CAMBERWELL,345,207011149,Apartment
1186,"6/18 GLENCAIRN AVENUE, CAMBERWELL",-37.846807,145.081541,2.0,1.0,1,$345_pw,November 2018,3124,2018,11,CAMBERWELL,345,207011149,Apartment
1187,"6/18 GLENCAIRN AVENUE, CAMBERWELL",-37.846807,145.081541,2.0,1.0,1,$345,October 2018,3124,2018,10,CAMBERWELL,345,207011149,Apartment
1188,"1 BETHELA STREET, CAMBERWELL",-37.846692,145.08925,2.0,1.0,2,$470,December 2018,3124,2018,12,CAMBERWELL,470,207011149,Apartment
1189,"1 BETHELA STREET, CAMBERWELL",-37.846692,145.08925,2.0,1.0,2,$500,November 2018,3124,2018,11,CAMBERWELL,500,207011149,Apartment
1190,"520/585 LATROBE STREET, MELBOURNE, MELBOURNE",-37.851311,144.989177,3.0,2.0,0,$1290_per_week,October 2018,3000,2018,10,MELBOURNE,1290,206061136,House
1191,"520/585 LATROBE STREET, MELBOURNE, MELBOURNE",-37.851311,144.989177,3.0,2.0,0,$1290,March 2018,3000,2018,3,MELBOURNE,1290,206061136,House
1192,"500 FLINDERS STREET, MELBOURNE",-37.820019,144.957827,1.0,1.0,0,$399_per_week,November 2018,3000,2018,11,MELBOURNE,399,206041505,Apartment
1193,"500 FLINDERS STREET, MELBOURNE",-37.820019,144.957827,1.0,1.0,0,$350_-_$450_per_week,October 2018,3000,2018,10,MELBOURNE,450,206041505,Apartment
1194,"3405/500 ELIZABETH STREET, MELBOURNE",-37.8071889,144.9603559,3.0,2.0,1,$800_per_week,February 2018,3000,2018,2,MELBOURNE,800,206041504,House
1195,"3405/500 ELIZABETH STREET, MELBOURNE",-37.8071889,144.9603559,3.0,2.0,1,$800_per_week,January 2018,3000,2018,1,MELBOURNE,800,206041504,House
1196,"5106/318 RUSSELL STREET, MELBOURNE",-37.809259,144.9665674,2.0,2.0,0,$700,February 2018,3000,2018,2,MELBOURNE,700,206041503,House
1197,"1208/151 FRANKLIN STREET, MELBOURNE",-37.8086896,144.9593881,1.0,1.0,0,$440,November 2018,3000,2018,11,MELBOURNE,440,206041504,Apartment
1198,"1813/199 WILLIAM STREET, MELBOURNE",-37.81456,144.9574098,2.0,1.0,0,$620_per_week,February 2018,3000,2018,2,MELBOURNE,620,206041505,Apartment
1199,"1111/408 LONSDALE STREET, MELBOURNE",-37.812547,144.960394,2.0,1.0,0,$430_pw,July 2018,3000,2018,7,MELBOURNE,430,206041504,Apartment
1200,"1510/22-24 JANE BELL LANE, MELBOURNE",-37.8102038,144.9661963,1.0,1.0,1,$480_Week,January 2018,3000,2018,1,MELBOURNE,480,206041504,Apartment
1201,"2703/8 EXPLORATION LANE, MELBOURNE",-37.8092558,144.9683848,2.0,2.0,0,$620_Week,January 2018,3000,2018,1,MELBOURNE,620,206041503,House
1202,"907/5 SUTHERLAND STREET, MELBOURNE",-37.8113855,144.9609182,1.0,1.0,0,$480_per_week,June 2018,3000,2018,6,MELBOURNE,480,206041504,Apartment
1203,"3203/35 SPRING STREET, MELBOURNE",-37.814171,144.97405,2.0,2.0,1,$1000_per_week,July 2018,3000,2018,7,MELBOURNE,1000,206041503,House
1204,"1110/22-24 JANE BELL LANE, MELBOURNE",-37.81022,144.966265,1.0,1.0,1,$450_per_week,May 2018,3000,2018,5,MELBOURNE,450,206041504,Apartment
1205,"124/546 FLINDERS STREET, MELBOURNE",-37.820521,144.956143,1.0,1.0,0,$260_pw,February 2018,3000,2018,2,MELBOURNE,260,206041505,Apartment
1206,"2102/25 THERRY STREET, MELBOURNE",-37.8068232,144.9608822,1.0,1.0,0,$510,December 2018,3000,2018,12,MELBOURNE,510,206041504,Apartment
1207,"4304/442 ELIZABETH STREET, MELBOURNE",-37.8083542,144.9607272,2.0,1.0,0,$650,November 2018,3000,2018,11,MELBOURNE,650,206041504,Apartment
1208,"2113/33 MACKENZIE STREET, MELBOURNE",-37.8076818,144.9668306,1.0,1.0,0,$430,March 2018,3000,2018,3,MELBOURNE,430,206041503,Apartment
1209,"1607/5 SUTHERLAND STREET, MELBOURNE",-37.8114109,144.960837,1.0,1.0,0,$450_per_week,July 2018,3000,2018,7,MELBOURNE,450,206041504,Apartment
1210,"428/118 FRANKLIN STREET, MELBOURNE",-37.808357,144.959008,1.0,1.0,1,$315_per_week,March 2018,3000,2018,3,MELBOURNE,315,206041504,Apartment
1211,"310/268 FLINDERS STREET, MELBOURNE",-37.817606,144.965626,1.0,1.0,0,$320,August 2018,3000,2018,8,MELBOURNE,320,206041503,Apartment
1212,"1707/243 FRANKLIN STREET, MELBOURNE",-37.809699,144.956682,2.0,1.0,0,$540,July 2018,3000,2018,7,MELBOURNE,540,206041504,Apartment
1213,"1602/270 KING STREET, MELBOURNE",-37.813723,144.954929,3.0,2.0,0,$850_per_week,October 2018,3000,2018,10,MELBOURNE,850,206041505,House
1214,"708/108 FLINDERS STREET, MELBOURNE",-37.8162572,144.9711963,1.0,1.0,1,$525_per_week,December 2018,3000,2018,12,MELBOURNE,525,206041503,Apartment
1215,"708/108 FLINDERS STREET, MELBOURNE",-37.8162572,144.9711963,1.0,1.0,1,$525_per_week,November 2018,3000,2018,11,MELBOURNE,525,206041503,Apartment
1216,"708/108 FLINDERS STREET, MELBOURNE",-37.8162572,144.9711963,1.0,1.0,1,$525_per_week,August 2018,3000,2018,8,MELBOURNE,525,206041503,Apartment
1217,"708/108 FLINDERS STREET, MELBOURNE",-37.8162572,144.9711963,1.0,1.0,1,$525_per_week,January 2018,3000,2018,1,MELBOURNE,525,206041503,Apartment
1218,"228 LA TROBE STREET, MELBOURNE",-37.8097604,144.9623828,1.0,1.0,1,$500_per_week,October 2018,3000,2018,10,MELBOURNE,500,206041504,Apartment
1219,"4809/398 ELIZABETH STREET, MELBOURNE",-37.8093895,144.9612094,1.0,1.0,0,$475,December 2018,3000,2018,12,MELBOURNE,475,206041504,Apartment
1220,"1011/225 ELIZABETH STREET, MELBOURNE",-37.8131346,144.9624998,1.0,1.0,0,$450_per_week,February 2018,3000,2018,2,MELBOURNE,450,206041505,Apartment
1221,"250 ELIZABETH STREET, MELBOURNE",-37.81278992,144.96253967,1.0,1.0,1,$550_p.w.,October 2018,3000,2018,10,MELBOURNE,550,206041503,Apartment
1222,"250 ELIZABETH STREET, MELBOURNE",-37.81278992,144.96253967,1.0,1.0,1,$1155_pw,October 2018,3000,2018,10,MELBOURNE,1155,206041503,Apartment
1223,"250 ELIZABETH STREET, MELBOURNE",-37.81278992,144.96253967,1.0,1.0,1,$850_per_week,October 2018,3000,2018,10,MELBOURNE,850,206041503,Apartment
1224,"250 ELIZABETH STREET, MELBOURNE",-37.81278992,144.96253967,1.0,1.0,1,$850_per_week,August 2018,3000,2018,8,MELBOURNE,850,206041503,Apartment
1225,"250 ELIZABETH STREET, MELBOURNE",-37.81278992,144.96253967,1.0,1.0,1,$850,May 2018,3000,2018,5,MELBOURNE,850,206041503,Apartment
1226,"603/25-33 WILLS STREET, MELBOURNE",-37.810743,144.956997,1.0,1.0,0,$410_per_week,January 2018,3000,2018,1,MELBOURNE,410,206041504,Apartment
1227,"148/139 LONSDALE STREET, MELBOURNE",-37.8114399,144.9685942,2.0,1.0,0,$410_pw,May 2018,3000,2018,5,MELBOURNE,410,206041503,Apartment
1228,"1706/200 SPENCER STREET, MELBOURNE",-37.816257,144.953288,1.0,1.0,1,$825_pw,January 2018,3000,2018,1,MELBOURNE,825,206041505,Apartment
1229,"1707/155 FRANKLIN STREET, MELBOURNE",-37.8088259,144.9595488,2.0,1.0,0,$650,May 2018,3000,2018,5,MELBOURNE,650,206041504,Apartment
1230,"1610/199 WILLIAM STREET, MELBOURNE",-37.81456,144.9574098,2.0,2.0,0,$650_per_week,June 2018,3000,2018,6,MELBOURNE,650,206041505,House
1231,"110/133 BOURKE STREET, MELBOURNE",-37.812912,144.969358,1.0,1.0,1,$1295,December 2018,3000,2018,12,MELBOURNE,1295,206041503,Apartment
1232,"110/133 BOURKE STREET, MELBOURNE",-37.812912,144.969358,1.0,1.0,1,$1295_per_week,November 2018,3000,2018,11,MELBOURNE,1295,206041503,Apartment
1233,"110/133 BOURKE STREET, MELBOURNE",-37.812912,144.969358,1.0,1.0,1,$1295_pw,June 2018,3000,2018,6,MELBOURNE,1295,206041503,Apartment
1234,"110/133 BOURKE STREET, MELBOURNE",-37.812912,144.969358,1.0,1.0,1,$1295_pw,May 2018,3000,2018,5,MELBOURNE,1295,206041503,Apartment
1235,"110/133 BOURKE STREET, MELBOURNE",-37.812912,144.969358,1.0,1.0,1,$1295_pw,March 2018,3000,2018,3,MELBOURNE,1295,206041503,Apartment
1236,"110/133 BOURKE STREET, MELBOURNE",-37.812912,144.969358,1.0,1.0,1,$1295_pw,February 2018,3000,2018,2,MELBOURNE,1295,206041503,Apartment
1237,"110/133 BOURKE STREET, MELBOURNE",-37.812912,144.969358,1.0,1.0,1,$1295_pw,January 2018,3000,2018,1,MELBOURNE,1295,206041503,Apartment
1238,"110/250 ELIZABETH STREET, MELBOURNE",-37.81261,144.962885,1.0,1.0,1,$1155,December 2018,3000,2018,12,MELBOURNE,1155,206041503,Apartment
1239,"110/250 ELIZABETH STREET, MELBOURNE",-37.81261,144.962885,1.0,1.0,1,$1155_per_week,November 2018,3000,2018,11,MELBOURNE,1155,206041503,Apartment
1240,"110/250 ELIZABETH STREET, MELBOURNE",-37.81261,144.962885,1.0,1.0,1,$1155_pw,May 2018,3000,2018,5,MELBOURNE,1155,206041503,Apartment
1241,"110/250 ELIZABETH STREET, MELBOURNE",-37.81261,144.962885,1.0,1.0,1,$1085_pw,March 2018,3000,2018,3,MELBOURNE,1085,206041503,Apartment
1242,"110/250 ELIZABETH STREET, MELBOURNE",-37.81261,144.962885,1.0,1.0,1,$1085_pw,February 2018,3000,2018,2,MELBOURNE,1085,206041503,Apartment
1243,"110/250 ELIZABETH STREET, MELBOURNE",-37.81261,144.962885,1.0,1.0,1,$1085_pw,January 2018,3000,2018,1,MELBOURNE,1085,206041503,Apartment
1244,"3601/8 SUTHERLAND STREET, MELBOURNE",-37.811318,144.9609917,3.0,2.0,0,$910_per_week,November 2018,3000,2018,11,MELBOURNE,910,206041504,House
1245,"3601/8 SUTHERLAND STREET, MELBOURNE",-37.811318,144.9609917,3.0,2.0,0,$910_per_week,October 2018,3000,2018,10,MELBOURNE,910,206041504,House
1246,"2402/155 FRANKLIN STREET, MELBOURNE",-37.8088259,144.9595488,2.0,2.0,0,$750,May 2018,3000,2018,5,MELBOURNE,750,206041504,House
1247,"604/268 FLINDERS STREET, MELBOURNE",-37.8178628,144.9655187,1.0,1.0,0,$310_Week,August 2018,3000,2018,8,MELBOURNE,310,206041503,Apartment
1248,"2206/181 A'BECKETT STREET, MELBOURNE",-37.8100887,144.9580146,1.0,1.0,0,$460,July 2018,3000,2018,7,MELBOURNE,460,206041504,Apartment
1249,"1902/5 SUTHERLAND STREET, MELBOURNE",-37.8114109,144.960837,1.0,1.0,0,$440_per_week,February 2018,3000,2018,2,MELBOURNE,440,206041504,Apartment
1250,"1902/5 SUTHERLAND STREET, MELBOURNE",-37.8114109,144.960837,1.0,1.0,0,$440_per_week,January 2018,3000,2018,1,MELBOURNE,440,206041504,Apartment
1251,"201/455 ELIZABETH STREET, MELBOURNE",-37.808429,144.960206,2.0,1.0,0,$500_per_week,May 2018,3000,2018,5,MELBOURNE,500,206041504,Apartment
1252,"201/455 ELIZABETH STREET, MELBOURNE",-37.808429,144.960206,2.0,1.0,0,$500_per_week,April 2018,3000,2018,4,MELBOURNE,500,206041504,Apartment
1253,"4106/220 SPENCER STREET, MELBOURNE",-37.8155837,144.9530742,1.0,1.0,0,$430_per_week,July 2018,3000,2018,7,MELBOURNE,430,206041505,Apartment
1254,"2712/500 ELIZABETH STREET, MELBOURNE",-37.807359,144.960425,2.0,1.0,0,$550_per_week,March 2018,3000,2018,3,MELBOURNE,550,206041504,Apartment
1255,"1306/500 ELIZABETH STREET, MELBOURNE",-37.8071889,144.9603559,2.0,2.0,0,$660,June 2018,3000,2018,6,MELBOURNE,660,206041504,House
1256,"2209/500 ELIZABETH STREET, MELBOURNE",-37.8072345,144.960246,1.0,1.0,0,$450_per_week,June 2018,3000,2018,6,MELBOURNE,450,206041504,Apartment
1257,"912/87 FRANKLIN STREET, MELBOURNE",-37.808028,144.961681,1.0,1.0,1,$450_per_week,July 2018,3000,2018,7,MELBOURNE,450,206041504,Apartment
1258,"405/39 QUEEN STREET, MELBOURNE",-37.8179076,144.9617347,1.0,1.0,0,$480_per_week,July 2018,3000,2018,7,MELBOURNE,480,206041505,Apartment
1267,"24 MONASH STREET, MELTON SOUTH",-37.713437,144.576955,3.0,1.0,2,$290,January 2018,3338,2018,1,SOUTH,290,213041578,House
1269,"24 BRENNAN STREET, MELTON SOUTH",-37.704785,144.572111,3.0,1.0,1,$300_per_week,August 2018,3338,2018,8,SOUTH,300,213041578,House
1270,"24 BRENNAN STREET, MELTON SOUTH",-37.704785,144.572111,3.0,1.0,1,$300_Weekly,July 2018,3338,2018,7,SOUTH,300,213041578,House
1271,"24 BRENNAN STREET, MELTON SOUTH",-37.704785,144.572111,3.0,1.0,1,$320,July 2018,3338,2018,7,SOUTH,320,213041578,House
1272,"24 BRENNAN STREET, MELTON SOUTH",-37.704785,144.572111,3.0,1.0,1,$320_per_week,June 2018,3338,2018,6,SOUTH,320,213041578,House
1274,"8 EXELL AVENUE, MELTON SOUTH",-37.700075,144.577667,3.0,2.0,2,$300_pw,June 2018,3338,2018,6,SOUTH,300,213041578,House
1279,"113 WEST MELTON DRIVE, MELTON WEST",-37.675026,144.554336,3.0,2.0,1,$330_per_week,December 2018,3337,2018,12,WEST,330,213041358,House
1284,"67 WEST MELTON DRIVE, MELTON WEST",-37.6762016,144.5607801,3.0,1.0,2,$330_per_week,August 2018,3337,2018,8,WEST,330,213041358,House
1290,"149 CENTENARY AVENUE, MELTON",-37.674546,144.581464,3.0,1.0,2,$330_per_week,November 2018,3337,2018,11,MELTON,330,213041577,House
1291,"149 CENTENARY AVENUE, MELTON",-37.674546,144.581464,3.0,1.0,2,$330,May 2018,3337,2018,5,MELTON,330,213041577,House
1293,"110 PALMERSTON STREET, MELTON",-37.677332,144.583721,4.0,2.0,1,$350_per_week,July 2018,3337,2018,7,MELTON,350,213041577,House
1294,"13/20-24 PALMERSTON STREET, MELTON",-37.688049,144.584038,3.0,1.0,1,$275_pw,January 2018,3337,2018,1,MELTON,275,213041577,House
1296,"2 VISTA DRIVE, MELTON",-37.682123,144.573474,3.0,1.0,2,$295_per_week,October 2018,3337,2018,10,MELTON,295,213041577,House
1297,"2 VISTA DRIVE, MELTON",-37.682123,144.573474,3.0,1.0,2,$295_per_week,September 2018,3337,2018,9,MELTON,295,213041577,House
1312,"6-8 MARINA DRIVE, MELTON",-37.679697,144.582159,6.0,3.0,2,$500_pw,January 2018,3337,2018,1,MELTON,500,213041577,House
1313,"15 BITTERN STREET, MELTON",-37.678635,144.573905,3.0,1.0,2,$300_per_week,February 2018,3337,2018,2,MELTON,300,213041577,House
1316,"42 BARRIES ROAD, MELTON",-37.6887,144.578249,2.0,2.0,2,$310_per_week,March 2018,3337,2018,3,MELTON,310,213041577,House
1327,"1 CASHIN COURT, MELTON",-37.678394,144.589378,3.0,1.0,2,$340_per_week,November 2018,3337,2018,11,MELTON,340,213041577,House
1333,"1/56 HENRY STREET, MELTON",-37.685759,144.579819,2.0,1.0,1,$270,April 2018,3337,2018,4,MELTON,270,213041577,Apartment
1338,"405/7 BALCOMBE ROAD, MENTONE",-37.9820513,145.0706707,2.0,2.0,1,$420_pw,August 2018,3194,2018,8,MENTONE,420,208031190,House
1339,"12/3-5 ALVENA STREET, MENTONE",-37.9754355,145.0611778,2.0,2.0,1,$430,May 2018,3194,2018,5,MENTONE,430,208031190,House
1340,"3/2A FLORENCE STREET, MENTONE",-37.982311,145.059045,1.0,1.0,1,$280_pw,December 2018,3194,2018,12,MENTONE,280,208031190,Apartment
1341,"3/2A FLORENCE STREET, MENTONE",-37.982311,145.059045,1.0,1.0,1,$280,November 2018,3194,2018,11,MENTONE,280,208031190,Apartment
1342,"304/33-35 CHILDERS STREET, MENTONE",-37.9828997,145.0705487,1.0,1.0,1,$340_per_week,May 2018,3194,2018,5,MENTONE,340,208031190,Apartment
1343,"12 BARRY STREET, MENTONE",-37.9863099,145.0702,3.0,2.0,1,$600,December 2018,3194,2018,12,MENTONE,600,208031190,House
1346,"7/5-7 VENICE STREET, MENTONE",-37.9853792,145.0611653,2.0,1.0,1,$330,June 2018,3194,2018,6,MENTONE,330,208031190,Apartment
1347,"14/70 BEACH ROAD, MENTONE",-37.988562,145.059898,2.0,1.0,1,$330_pw,August 2018,3194,2018,8,MENTONE,330,208031190,Apartment
1348,"5/14 VENICE STREET, MENTONE",-37.986091,145.061693,1.0,1.0,0,$310_per_week,July 2018,3194,2018,7,MENTONE,310,208031190,Apartment
1349,"1/56 BALCOMBE ROAD, MENTONE",-37.981442,145.067602,4.0,2.0,2,$690,June 2018,3194,2018,6,MENTONE,690,208031190,House
1357,"3/15 LEVANTO STREET, MENTONE",-37.980384,145.07496,2.0,1.0,1,$310_per_week,July 2018,3194,2018,7,MENTONE,310,208031190,Apartment
1358,"1/35 LEVANTO STREET, MENTONE",-37.978576,145.075432,2.0,1.0,3,$365_pw,February 2018,3194,2018,2,MENTONE,365,208031190,Apartment
1359,"10/94 BEACH ROAD, MENTONE",-37.991219,145.064586,1.0,1.0,1,$300_per_week,April 2018,3194,2018,4,MENTONE,300,208031190,Apartment
1362,"10/12 COLLINS STREET, MENTONE",-37.979114,145.054773,2.0,1.0,1,$350_per_week,October 2018,3194,2018,10,MENTONE,350,208031190,Apartment
1363,"4 HARKIN AVENUE, MENTONE",-37.98681,145.063788,4.0,2.0,2,$775_per_week,May 2018,3194,2018,5,MENTONE,775,208031190,House
1364,"9/8 SALMON STREET, MENTONE",-37.979093,145.062755,2.0,2.0,1,$550,April 2018,3194,2018,4,MENTONE,550,208031190,House
1365,"1/8-10 ALVENA STREET, MENTONE",-37.975499,145.061756,3.0,2.0,2,$650_per_week,October 2018,3194,2018,10,MENTONE,650,208031190,House
1366,"1/8-10 ALVENA STREET, MENTONE",-37.975499,145.061756,3.0,2.0,2,$650_per_week,September 2018,3194,2018,9,MENTONE,650,208031190,House
1367,"4/29 BOURKE STREET, MENTONE",-37.978441,145.056032,2.0,1.0,1,$370,December 2018,3194,2018,12,MENTONE,370,208031190,Apartment
1368,"2/9 COLLINS STREET, MENTONE",-37.978979,145.053695,2.0,1.0,2,$490_per_week,June 2018,3194,2018,6,MENTONE,490,208031190,Apartment
1369,"11/19 BRINDISI STREET, MENTONE",-37.984005,145.062796,2.0,1.0,1,$390,December 2018,3194,2018,12,MENTONE,390,208031190,Apartment
1370,"206/116 BALCOMBE ROAD, MENTONE",-37.9808336,145.063997,1.0,1.0,1,$400_pw,February 2018,3194,2018,2,MENTONE,400,208031190,Apartment
1371,"58 ALLANDALE ROAD, MENTONE",-37.979973,145.090697,3.0,1.0,2,$405_Weekly,August 2018,3194,2018,8,MENTONE,405,208031190,House
1372,"58 ALLANDALE ROAD, MENTONE",-37.979973,145.090697,3.0,1.0,2,$405,July 2018,3194,2018,7,MENTONE,405,208031190,House
1373,"8 / 30 SWANSTON STREET, MENTONE",-37.9784498,145.0662828,1.0,1.0,1,$240_per_week,January 2018,3194,2018,1,MENTONE,240,208031190,Apartment
1374,"2/3-5 ALVENA STREET, MENTONE",-37.975568,145.061354,2.0,2.0,1,$465,September 2018,3194,2018,9,MENTONE,465,208031190,House
1375,"2/11 KELSO STREET, MENTONE",-37.984102,145.059548,1.0,1.0,1,$290_per_week,October 2018,3194,2018,10,MENTONE,290,208031190,Apartment
1376,"2/11 KELSO STREET, MENTONE",-37.984102,145.059548,1.0,1.0,1,$290,September 2018,3194,2018,9,MENTONE,290,208031190,Apartment
1377,"4/5 CHILDERS STREET, MENTONE",-37.9823457,145.0676742,1.0,1.0,1,$310,September 2018,3194,2018,9,MENTONE,310,208031190,Apartment
1378,"35 BEACH ROAD, MENTONE",-37.98565478,145.05214259,3.0,2.0,4,$1200,June 2018,3194,2018,6,MENTONE,1200,208031190,House
1379,"5/39 MILAN STREET, MENTONE",-37.9847055,145.0598976,2.0,1.0,1,$410_per_week,December 2018,3194,2018,12,MENTONE,410,208031190,Apartment
1380,"5/39 MILAN STREET, MENTONE",-37.9847055,145.0598976,2.0,1.0,1,$400_per_week,November 2018,3194,2018,11,MENTONE,400,208031190,Apartment
1381,"35 / 80 BALCOMBE ROAD, MENTONE",-37.98134,145.0654221,2.0,2.0,1,$420_pw,June 2018,3194,2018,6,MENTONE,420,208031190,House
1382,"5/5 OLIVE GROVE, MENTONE",-37.9853792,145.0791225,2.0,1.0,1,$360_per_week,August 2018,3194,2018,8,MENTONE,360,208031190,Apartment
1383,"5/5 OLIVE GROVE, MENTONE",-37.9853792,145.0791225,2.0,1.0,1,$360,July 2018,3194,2018,7,MENTONE,360,208031190,Apartment
1385,"17/44 BOURKE STREET, MENTONE",-37.9749735,145.056644,3.0,1.0,2,$485_per_week,September 2018,3194,2018,9,MENTONE,485,208031190,House
1386,"7/27 MILAN STREET, MENTONE",-37.9856108,145.0590607,2.0,1.0,1,$460_per_week,November 2018,3194,2018,11,MENTONE,460,208031190,Apartment
1387,"7/27 MILAN STREET, MENTONE",-37.9856108,145.0590607,2.0,1.0,1,$460_pw,October 2018,3194,2018,10,MENTONE,460,208031190,Apartment
1388,"1/14 MILAN STREET, MENTONE",-37.986688,145.059913,2.0,1.0,2,$360_per_week,September 2018,3194,2018,9,MENTONE,360,208031190,Apartment
1389,"7 WARRIGAL ROAD, MENTONE",-37.993156,145.069069,4.0,3.0,2,$750_per_week,January 2018,3194,2018,1,MENTONE,750,208031190,House
1390,"4/33-35 CHILDERS STREET, MENTONE",-37.982793,145.070435,2.0,2.0,1,$420_per_week,June 2018,3194,2018,6,MENTONE,420,208031190,House
1395,"2 CHURCH ROAD, MENZIES CREEK",-37.918857,145.403467,3.0,1.0,2,$380_per_week,August 2018,3159,2018,8,CREEK,380,211051274,House
1399,"86 CHAFFEY STREET, MERBEIN",-34.16753,142.068288,3.0,1.0,2,$220_pw,December 2018,3505,2018,12,MERBEIN,220,215021396,House
1400,"86 CHAFFEY STREET, MERBEIN",-34.16753,142.068288,3.0,1.0,2,$225_per_week,April 2018,3505,2018,4,MERBEIN,225,215021396,House
1401,"86 CHAFFEY STREET, MERBEIN",-34.16753,142.068288,3.0,1.0,2,$225_pw,March 2018,3505,2018,3,MERBEIN,225,215021396,House
1406,"4/107 COMMERCIAL STREET, MERBEIN",-34.167521,142.06157,2.0,1.0,1,$225_per_week,August 2018,3505,2018,8,MERBEIN,225,215021396,Apartment
1408,"2/60 BOX STREET, MERBEIN",-34.166958,142.061229,2.0,1.0,1,$200_per_week,March 2018,3505,2018,3,MERBEIN,200,215021396,Apartment
1409,"2/60 BOX STREET, MERBEIN",-34.166958,142.061229,2.0,1.0,1,$200_per_week,February 2018,3505,2018,2,MERBEIN,200,215021396,Apartment
1410,"4 WILSON STREET, MEREDITH",-37.84675644,144.07811336,3.0,2.0,6,$350,August 2018,3333,2018,8,MEREDITH,350,203011035,House
1411,"205 PIONEER RIDGE RD, MEREDITH",-37.879533,144.119174,3.0,2.0,3,$500_p.w.,September 2018,3333,2018,9,MEREDITH,500,203011035,House
1415,"6 PITTAWAY STREET, MERNDA",-37.589583,145.097101,4.0,3.0,2,$380,April 2018,3754,2018,4,MERNDA,380,209041531,House
1419,"6 SCOTCHMER CRESCENT, MERNDA",-37.5892795,145.103791,4.0,2.0,2,$380_Wk,October 2018,3754,2018,10,MERNDA,380,209041531,House
1420,"6 SCOTCHMER CRESCENT, MERNDA",-37.5892795,145.103791,4.0,2.0,2,$390,September 2018,3754,2018,9,MERNDA,390,209041531,House
1421,"18 LAWN WALK, MERNDA",-37.5997647,145.0965625,2.0,1.0,1,$310_per_week,July 2018,3754,2018,7,MERNDA,310,209041531,Apartment
1422,"40 RIORDAN CRESCENT, MERNDA",-37.597664,145.085671,3.0,2.0,2,$380_per_week,December 2018,3754,2018,12,MERNDA,380,209041531,House
1423,"26 HILLGROVE WAY, MERNDA",-37.5997647,145.0965625,3.0,2.0,2,$340_pw,September 2018,3754,2018,9,MERNDA,340,209041531,House
1424,"26 HILLGROVE WAY, MERNDA",-37.5997647,145.0965625,3.0,2.0,2,$340_pw,May 2018,3754,2018,5,MERNDA,340,209041531,House
1426,"4 FRIESIAN STREET, MERNDA",-37.5864792,145.081994,4.0,2.0,2,$380,March 2018,3754,2018,3,MERNDA,380,209041531,House
1445,"UNIT 2 DELATITE APARTMENTS, MERRIJIG",-37.1038962,146.2621236,1.0,1.0,0,$1194_-_$275_pw,March 2018,3723,2018,3,MERRIJIG,275,204011057,Apartment
1446,"4 MERRIJIG PLACE, MERRIJIG",-37.0313019,146.1365456,3.0,2.0,2,$550_per_week,February 2018,3723,2018,2,MERRIJIG,550,204011057,House
1457,"73 WHITELEAF DRIVE, MICKLEHAM",-37.5366678,144.9069367,4.0,2.0,1,$395_pw,June 2018,3064,2018,6,MICKLEHAM,395,210051445,House
1461,"1 WRIGHT STREET, MIDDLE PARK",-37.846157,144.961197,2.0,2.0,0,$725_pw,March 2018,3206,2018,3,PARK,725,206051128,House
1462,"5/28 PATTERSON STREET, MIDDLE PARK",-37.854557,144.964909,1.0,1.0,1,$350_per_week,May 2018,3206,2018,5,PARK,350,206051128,Apartment
1463,"6/49 PATTERSON STREET, MIDDLE PARK",-37.854716,144.966329,2.0,1.0,1,$475,May 2018,3206,2018,5,PARK,475,206051128,House
1467,"23 WRIGHT STREET, MIDDLE PARK",-37.84669,144.96075,3.0,3.0,1,$1300_per_week,July 2018,3206,2018,7,PARK,1300,206051128,House
1468,"147 NEVILLE STREET, MIDDLE PARK",-37.85161,144.964631,2.0,2.0,1,$620_per_week,May 2018,3206,2018,5,PARK,620,206051128,House
1469,"84 NEVILLE STREET, MIDDLE PARK",-37.84998,144.960921,2.0,1.0,0,$650_per_week,July 2018,3206,2018,7,PARK,650,206051128,Apartment
1470,"111 HAROLD STREET, MIDDLE PARK",-37.851572,144.959047,2.0,1.0,0,$650,September 2018,3206,2018,9,PARK,650,206051128,Apartment
1471,"111 HAROLD STREET, MIDDLE PARK",-37.851572,144.959047,2.0,1.0,0,$650,August 2018,3206,2018,8,PARK,650,206051128,Apartment
1472,"111 HAROLD STREET, MIDDLE PARK",-37.851572,144.959047,2.0,1.0,0,$575,May 2018,3206,2018,5,PARK,575,206051128,Apartment
1473,"5 WRIGHT STREET, MIDDLE PARK",-37.846219,144.961138,2.0,1.0,0,$750,January 2018,3206,2018,1,PARK,750,206051128,Apartment
1474,"130 NEVILLE STREET, MIDDLE PARK",-37.851652,144.964183,2.0,2.0,1,$860,April 2018,3206,2018,4,PARK,860,206051128,House
1476,"133 ASHWORTH STREET, MIDDLE PARK",-37.851168,144.957581,3.0,2.0,1,$850_per_week,February 2018,3206,2018,2,PARK,850,206051128,House
1477,"33 MCGREGOR STREET, MIDDLE PARK",-37.852476,144.965114,2.0,1.0,0,$520_per_week,June 2018,3206,2018,6,PARK,520,206051128,Apartment
1478,"3/61 CANTERBURY ROAD, MIDDLE PARK",-37.847465,144.962444,2.0,1.0,0,$440_per_week,April 2018,3206,2018,4,PARK,440,206051128,Apartment
1480,"48 ARMSTRONG STREET, MIDDLE PARK",-37.851001,144.963431,2.0,1.0,0,$675_per_week,March 2018,3206,2018,3,PARK,675,206051128,Apartment
1481,"9/82 PATTERSON STREET, MIDDLE PARK",-37.855634,144.966932,2.0,1.0,0,$445,August 2018,3206,2018,8,PARK,445,206051128,Apartment
1482,"6/109 CANTERBURY ROAD, MIDDLE PARK",-37.850255,144.965376,2.0,2.0,2,$600_per_week,August 2018,3206,2018,8,PARK,600,206051128,House
1483,"6/109 CANTERBURY ROAD, MIDDLE PARK",-37.850255,144.965376,2.0,2.0,2,$600,February 2018,3206,2018,2,PARK,600,206051128,House
1484,"2/301 BEACONSFIELD PARADE, MIDDLE PARK",-37.855803,144.965886,3.0,2.0,2,$1100_per_week,October 2018,3206,2018,10,PARK,1100,206051128,House
1485,"2/301 BEACONSFIELD PARADE, MIDDLE PARK",-37.855803,144.965886,3.0,2.0,2,$1100,July 2018,3206,2018,7,PARK,1100,206051128,House
1486,"2/301 BEACONSFIELD PARADE, MIDDLE PARK",-37.855803,144.965886,3.0,2.0,2,$1200_per_week,January 2018,3206,2018,1,PARK,1200,206051128,House
1487,"5/66 PATTERSON STREET, MIDDLE PARK",-37.855083,144.96615,2.0,1.0,1,$425_per_week,May 2018,3206,2018,5,PARK,425,206051128,House
1488,"17 PATTERSON STREET, MIDDLE PARK",-37.853719,144.964158,3.0,2.0,2,$1300_pw,June 2018,3206,2018,6,PARK,1300,206051128,House
1492,"45/225 BEACONSFIELD PARADE, MIDDLE PARK",-37.853032,144.9595977,2.0,2.0,1,$650_per_week,May 2018,3206,2018,5,PARK,650,206051128,House
1493,"12 ERSKINE STREET, MIDDLE PARK",-37.847212,144.958544,2.0,1.0,1,$850,March 2018,3206,2018,3,PARK,850,206051128,Apartment
1494,"11/28 PARK ROAD, MIDDLE PARK",-37.853567,144.965505,1.0,1.0,1,$350_per_week,December 2018,3206,2018,12,PARK,350,206051128,Apartment
1495,"78 PATTERSON STREET, MIDDLE PARK",-37.855644,144.966686,3.0,1.0,2,$795_per_week,December 2018,3206,2018,12,PARK,795,206051128,House
1497,"54 PARK ROAD, MIDDLE PARK",-37.854164,144.966517,2.0,1.0,0,$630_per_week,October 2018,3206,2018,10,PARK,630,206051128,Apartment
1498,"54 PARK ROAD, MIDDLE PARK",-37.854164,144.966517,2.0,1.0,0,$630_per_week,January 2018,3206,2018,1,PARK,630,206051128,Apartment
1499,"24/195 BEACONSFIELD PARADE, MIDDLE PARK",-37.851652,144.957152,1.0,1.0,1,$450_per_week,October 2018,3206,2018,10,PARK,450,206051128,Apartment
1500,"5/187 BEACONSFIELD PARADE, MIDDLE PARK",-37.851255,144.956318,1.0,1.0,1,$410_per_week,September 2018,3206,2018,9,PARK,410,206051128,Apartment
1501,"24/75 PARK ROAD, MIDDLE PARK",-37.854276,144.968038,1.0,1.0,1,$300_per_week,May 2018,3206,2018,5,PARK,300,206051128,Apartment
1502,"24/75 PARK ROAD, MIDDLE PARK",-37.854276,144.968038,1.0,1.0,1,$300,April 2018,3206,2018,4,PARK,300,206051128,Apartment
1504,"22/75 PARK ROAD, MIDDLE PARK",-37.854403,144.96796,1.0,1.0,1,$375_pw,December 2018,3206,2018,12,PARK,375,206051128,Apartment
1505,"22/75 PARK ROAD, MIDDLE PARK",-37.854403,144.96796,1.0,1.0,1,$375_pw,May 2018,3206,2018,5,PARK,375,206051128,Apartment
1507,"9/49 PATTERSON STREET, MIDDLE PARK",-37.85485,144.966231,2.0,1.0,1,$530_pw,May 2018,3206,2018,5,PARK,530,206051128,House
1511,"1/5-7 HAROLD STREET, MIDDLE PARK",-37.848481,144.961644,1.0,1.0,1,$360_per_week,December 2018,3206,2018,12,PARK,360,206051128,Apartment
1512,"1/5-7 HAROLD STREET, MIDDLE PARK",-37.848481,144.961644,1.0,1.0,1,$350_per_week,November 2018,3206,2018,11,PARK,350,206051128,Apartment
1513,"1/5-7 HAROLD STREET, MIDDLE PARK",-37.848481,144.961644,1.0,1.0,1,$370_per_week,September 2018,3206,2018,9,PARK,370,206051128,Apartment
1515,"1/241 BEACONSFIELD PARADE, MIDDLE PARK",-37.853007,144.960268,2.0,1.0,0,$650_per_week,December 2018,3206,2018,12,PARK,650,206051128,Apartment
1522,"2/267 CURETON AVENUE, MILDURA",-34.190374,142.175637,2.0,1.0,1,$380_pw,August 2018,3500,2018,8,MILDURA,380,215021469,Apartment
1523,"1/238 DEAKIN AVENUE, MILDURA",-34.194226,142.15218,2.0,1.0,1,$230_per_week,July 2018,3500,2018,7,MILDURA,230,215021469,House
1528,"3/124 THIRTEENTH STREET, MILDURA",-34.192858,142.154618,2.0,1.0,1,$180,December 2018,3500,2018,12,MILDURA,180,215021469,Apartment
1529,"3/124 THIRTEENTH STREET, MILDURA",-34.192858,142.154618,2.0,1.0,1,$180,August 2018,3500,2018,8,MILDURA,180,215021469,House
1530,"3/124 THIRTEENTH STREET, MILDURA",-34.192858,142.154618,2.0,1.0,1,$180,July 2018,3500,2018,7,MILDURA,180,215021469,House
1535,"104A EIGHTH STREET, MILDURA",-34.187169,142.165503,2.0,1.0,1,$300_per_week,July 2018,3500,2018,7,MILDURA,300,215021469,House
1546,"176 WALNUT AVENUE, MILDURA",-34.186143,142.151655,3.0,2.0,1,$350_per_week,July 2018,3500,2018,7,MILDURA,350,215021469,House
1547,"4/124 THIRTEENTH STREET, MILDURA",-34.192858,142.154618,2.0,1.0,2,$230_per_week,March 2018,3500,2018,3,MILDURA,230,215021469,House
1548,"4/124 THIRTEENTH STREET, MILDURA",-34.192858,142.154618,2.0,1.0,2,$230,February 2018,3500,2018,2,MILDURA,230,215021469,House
1549,"165A THIRTEENTH STREET, MILDURA",-34.189304,142.149661,3.0,1.0,1,$290_per_week,July 2018,3500,2018,7,MILDURA,290,215021469,House
1550,"165A THIRTEENTH STREET, MILDURA",-34.189304,142.149661,3.0,1.0,1,$290_per_week,June 2018,3500,2018,6,MILDURA,290,215021469,House
1551,"165A THIRTEENTH STREET, MILDURA",-34.189304,142.149661,3.0,1.0,1,$290,May 2018,3500,2018,5,MILDURA,290,215021469,House
1556,"4 PLANT COURT, MILDURA",-34.204522,142.137103,3.0,2.0,2,$340_pw,April 2018,3500,2018,4,MILDURA,340,215021470,House
1557,"12/280 TENTH STREET, MILDURA",-34.17703,142.146402,2.0,1.0,1,$220_per_week,July 2018,3500,2018,7,MILDURA,220,215021469,House
1558,"12/280 TENTH STREET, MILDURA",-34.17703,142.146402,2.0,1.0,1,$220,June 2018,3500,2018,6,MILDURA,220,215021469,House
1559,"12/280 TENTH STREET, MILDURA",-34.17703,142.146402,2.0,1.0,1,$220,May 2018,3500,2018,5,MILDURA,220,215021469,House
1561,"1A MITCHELL COURT, MILDURA",-34.214308,142.133227,2.0,1.0,2,$270_pw,September 2018,3500,2018,9,MILDURA,270,215021470,Apartment
1562,"7 EYRE COURT, MILDURA",-34.218433,142.130686,3.0,1.0,1,$300_per_week,August 2018,3500,2018,8,MILDURA,300,215021470,House
1567,"4 DAVLIN DRIVE, MILDURA",-34.2020583,142.1138433,4.0,2.0,2,$450_per_week,December 2018,3500,2018,12,MILDURA,450,215021470,House
1568,"4 DAVLIN DRIVE, MILDURA",-34.2020583,142.1138433,4.0,2.0,2,$450,November 2018,3500,2018,11,MILDURA,450,215021470,House
1569,"4 DAVLIN DRIVE, MILDURA",-34.2020583,142.1138433,4.0,2.0,2,$450_per_week,February 2018,3500,2018,2,MILDURA,450,215021470,House
1570,"4 DAVLIN DRIVE, MILDURA",-34.2020583,142.1138433,4.0,2.0,2,$450_per_week,January 2018,3500,2018,1,MILDURA,450,215021470,House
1571,"537 WALNUT AVENUE, MILDURA",-34.20245,142.13154,3.0,2.0,2,$340_pw,March 2018,3500,2018,3,MILDURA,340,215021470,House
1621,"44 MCKENDRICK AVENUE, MILDURA",-34.194646,142.1443891,3.0,1.0,1,$275_pw,September 2018,3500,2018,9,MILDURA,275,215021469,House
1622,"44 MCKENDRICK AVENUE, MILDURA",-34.194646,142.1443891,3.0,1.0,1,$275,August 2018,3500,2018,8,MILDURA,275,215021469,House
1628,"1 HOMEBUSH COURT, MILDURA",-34.193428,142.135766,2.0,1.0,1,$255,June 2018,3500,2018,6,MILDURA,255,215021470,Apartment
1629,"1 HOMEBUSH COURT, MILDURA",-34.193428,142.135766,2.0,1.0,1,$250_pw,March 2018,3500,2018,3,MILDURA,250,215021470,Apartment
1630,"1 HOMEBUSH COURT, MILDURA",-34.193428,142.135766,2.0,1.0,1,$250_per_week,February 2018,3500,2018,2,MILDURA,250,215021470,Apartment
1631,"7 RENSHINKAN COURT, MILDURA",-34.2063006,142.1358321,3.0,2.0,2,$370_per_week,July 2018,3500,2018,7,MILDURA,370,215021470,House
1632,"7 RENSHINKAN COURT, MILDURA",-34.2063006,142.1358321,3.0,2.0,2,$370_per_week,June 2018,3500,2018,6,MILDURA,370,215021470,House
1633,"7 RENSHINKAN COURT, MILDURA",-34.2063006,142.1358321,3.0,2.0,2,$370,May 2018,3500,2018,5,MILDURA,370,215021470,House
1636,"2/482 WALNUT AVENUE, MILDURA",-34.205697,142.128552,2.0,1.0,2,$240_per_week,March 2018,3500,2018,3,MILDURA,240,215021470,House
1637,"2/482 WALNUT AVENUE, MILDURA",-34.205697,142.128552,2.0,1.0,2,$240_per_week,January 2018,3500,2018,1,MILDURA,240,215021470,House
1639,"176 EIGHTH STREET, MILDURA",-34.181069,142.158219,2.0,1.0,1,$250_per_week,August 2018,3500,2018,8,MILDURA,250,215021469,House
1641,"12 DIAMOND COURT, MILDURA",-34.202193,142.134271,3.0,1.0,2,$270_per_week,March 2018,3500,2018,3,MILDURA,270,215021470,House
1642,"2/17 STEVEN STREET, MILDURA",-34.17519,142.151747,2.0,1.0,1,$190_per_week,April 2018,3500,2018,4,MILDURA,190,215021469,House
1644,"3 BRAMPTON WAY, MILDURA",-34.196125,142.12298,3.0,2.0,2,$400_per_week,March 2018,3500,2018,3,MILDURA,400,215021470,House
1645,"3 BRAMPTON WAY, MILDURA",-34.196125,142.12298,3.0,2.0,2,$400_per_week,February 2018,3500,2018,2,MILDURA,400,215021470,House
1646,"13 ASHWOOD COURT, MILDURA",-34.194723,142.137148,2.0,1.0,2,$240_pw,February 2018,3500,2018,2,MILDURA,240,215021470,Apartment
1649,"51 PRINCE OF WALES AVENUE, MILL PARK",-37.658075,145.045058,3.0,1.0,2,$360_Weekly,July 2018,3082,2018,7,PARK,360,209041220,House
1651,"12 HIGGS AVENUE, MILL PARK",-37.673274,145.064902,4.0,2.0,2,$460_per_week,February 2018,3082,2018,2,PARK,460,209041221,House
1659,"52 BUCKMASTER DRIVE, MILL PARK",-37.668874,145.068685,3.0,2.0,2,$340,March 2018,3082,2018,3,PARK,340,209041220,House
1693,"10 SEDGMAN COURT, MILL PARK",-37.658074,145.061325,4.0,2.0,1,$420_p.w.,February 2018,3082,2018,2,PARK,420,209041220,House
1694,"10 SEDGMAN COURT, MILL PARK",-37.658074,145.061325,4.0,2.0,1,$400_p.w.,January 2018,3082,2018,1,PARK,400,209041220,House
1700,"28 MARSDEN COURT, MILL PARK",-37.651702,145.053114,2.0,1.0,1,$350,January 2018,3082,2018,1,PARK,350,209041220,Apartment
1713,"50 BUCKMASTER DRIVE, MILL PARK",-37.669036,145.068628,3.0,2.0,2,$355_per_week,June 2018,3082,2018,6,PARK,355,209041220,House
1714,"119 CENTENARY DRIVE, MILL PARK",-37.658066,145.071461,3.0,2.0,1,$330_per_week,February 2018,3082,2018,2,PARK,330,209041220,House
1715,"119 CENTENARY DRIVE, MILL PARK",-37.658066,145.071461,3.0,2.0,1,$330,January 2018,3082,2018,1,PARK,330,209041220,House
1753,"27 STANFIELD DRIVE, WANDANA HEIGHTS",-38.180003,144.301682,4.0,2.0,3,$540_per_week,June 2018,3216,2018,6,HEIGHTS,540,203021042,House
1754,"5 KATES COURT, WANDANA HEIGHTS",-38.177965,144.303455,4.0,2.0,2,$595_per_week,April 2018,3216,2018,4,HEIGHTS,595,203021042,House
1755,"13-15 MADELINE DRIVE, WANDANA HEIGHTS",-38.1778555,144.3042848,4.0,2.0,4,$585_per_week,February 2018,3216,2018,2,HEIGHTS,585,203021042,House
1762,"22 GROSVENOR DRIVE, WANDANA HEIGHTS",-38.169805,144.306652,4.0,3.0,2,$560,August 2018,3216,2018,8,HEIGHTS,560,203021042,House
1764,"1/1 WANDANA DRIVE, WANDANA HEIGHTS",-38.17172649,144.30894358,1.0,1.0,1,$250,May 2018,3216,2018,5,HEIGHTS,250,203021042,Apartment
1777,"31 MCDONALD DRIVE, WANDONG",-37.3646113,145.0343854,4.0,2.0,2,$470_Leased,October 2018,3758,2018,10,WANDONG,470,209041224,House
1778,"50 WANDONG AVENUE, WANDONG",-37.360499,145.03008,3.0,1.0,1,$280,May 2018,3758,2018,5,WANDONG,280,209041224,House
1783,"306B DETOUR ROAD, WANGARATTA SOUTH",-36.3500406,146.3670792,2.0,1.0,1,$205_per_week,September 2018,3678,2018,9,SOUTH,205,204021067,Apartment
1785,"4/45 EVANS STREET, WANGARATTA WEST",-36.3474774,146.3120123,2.0,1.0,1,$190,April 2018,3677,2018,4,WEST,190,204021066,Apartment
1810,"1 / 19 LANGTREE AVENUE, WANGARATTA",-36.352885,146.301282,2.0,1.0,1,$185_per_week,May 2018,3677,2018,5,WANGARATTA,185,204021066,House
1811,"2/26 CLARK STREET, WANGARATTA",-36.348836,146.313734,2.0,1.0,1,$220,November 2018,3677,2018,11,WANGARATTA,220,204021066,Apartment
1812,"2/26 CLARK STREET, WANGARATTA",-36.348836,146.313734,2.0,1.0,1,$220_pw,October 2018,3677,2018,10,WANGARATTA,220,204021066,Apartment
1813,"3/81 MURDOCH ROAD, WANGARATTA",-36.369955,146.323462,2.0,1.0,1,$210,September 2018,3677,2018,9,WANGARATTA,210,204021066,Apartment
1814,"3/81 MURDOCH ROAD, WANGARATTA",-36.369955,146.323462,2.0,1.0,1,$210_pw,May 2018,3677,2018,5,WANGARATTA,210,204021066,House
1829,"50 NORTON STREET, WANGARATTA",-36.355378,146.317818,3.0,2.0,3,$310,March 2018,3677,2018,3,WANGARATTA,310,204021066,House
1830,"41/10 HARRISON STREET, WANGARATTA",-36.3690112,146.3202192,1.0,1.0,1,$155,September 2018,3677,2018,9,WANGARATTA,155,204021066,Apartment
1834,"9 PHILLIPSON STREET, WANGARATTA",-36.358331,146.303819,2.0,1.0,1,$320_pw,July 2018,3677,2018,7,WANGARATTA,320,204021066,Apartment
1835,"9 PHILLIPSON STREET, WANGARATTA",-36.358331,146.303819,2.0,1.0,1,$320_pw,May 2018,3677,2018,5,WANGARATTA,320,204021066,House
1836,"1/20 CRIBBES ROAD, WANGARATTA",-36.378328,146.314239,2.0,1.0,1,$150_per_week,May 2018,3677,2018,5,WANGARATTA,150,204021066,House
1837,"1/1 MOORE STREET, WANGARATTA",-36.3615192,146.3193887,2.0,1.0,1,$250_per_week,November 2018,3677,2018,11,WANGARATTA,250,204021066,Apartment
1838,"1/1 MOORE STREET, WANGARATTA",-36.3615192,146.3193887,2.0,1.0,1,$250_per_week,June 2018,3677,2018,6,WANGARATTA,250,204021066,Apartment
1839,"14 HILANDRA AVENUE, WANGARATTA",-36.34853263,146.29405294,3.0,1.0,3,$330,August 2018,3677,2018,8,WANGARATTA,330,204021066,House
1840,"14 HILANDRA AVENUE, WANGARATTA",-36.34853263,146.29405294,3.0,1.0,3,$330,July 2018,3677,2018,7,WANGARATTA,330,204021066,House
1841,"5 / 20 TEMPLETON STREET, WANGARATTA",-36.351692,146.325071,1.0,1.0,1,$200_per_week,May 2018,3677,2018,5,WANGARATTA,200,204021066,Apartment
1843,"3 TODD STREET, WANGARATTA",-36.38141,146.323048,3.0,2.0,2,$375,December 2018,3677,2018,12,WANGARATTA,375,204021066,House
1844,"61 DOCKER STREET, WANGARATTA",-36.35311089,146.31241445,3.0,2.0,1,$370,May 2018,3677,2018,5,WANGARATTA,370,204021066,House
1845,"9 SHIEL STREET, WANGARATTA",-36.35173389,146.30247596,3.0,1.0,1,$300,December 2018,3677,2018,12,WANGARATTA,300,204021066,House
1848,"5 / 115 SWAN STREET, WANGARATTA",-36.359832,146.30837,2.0,1.0,1,$230_per_week,June 2018,3677,2018,6,WANGARATTA,230,204021066,Apartment
1849,"5 / 115 SWAN STREET, WANGARATTA",-36.359832,146.30837,2.0,1.0,1,$230,May 2018,3677,2018,5,WANGARATTA,230,204021066,House
1852,"75 DOCKER STREET, WANGARATTA",-36.352814,146.310963,3.0,1.0,1,$230_per_week,October 2018,3677,2018,10,WANGARATTA,230,204021066,House
1853,"75 DOCKER STREET, WANGARATTA",-36.352814,146.310963,3.0,1.0,1,$230,September 2018,3677,2018,9,WANGARATTA,230,204021066,House
1854,"16 HIGGINS STREET, WANGARATTA",-36.372329,146.312465,3.0,1.0,1,$270_per_week,May 2018,3677,2018,5,WANGARATTA,270,204021066,House
1855,"72 WILLOW DRIVE, WANGARATTA",-36.350475,146.2920354,4.0,2.0,2,$350_per_week,June 2018,3677,2018,6,WANGARATTA,350,204021066,House
1856,"1 / 136 APPIN STREET, WANGARATTA",-36.343393,146.301065,2.0,1.0,1,$225_per_week,September 2018,3677,2018,9,WANGARATTA,225,204021066,Apartment
1857,"1 / 136 APPIN STREET, WANGARATTA",-36.343393,146.301065,2.0,1.0,1,$225_per_week,August 2018,3677,2018,8,WANGARATTA,225,204021066,Apartment
1858,"6/32 OVENS STREET, WANGARATTA",-36.356898,146.321031,1.0,1.0,1,$185_per_week,July 2018,3677,2018,7,WANGARATTA,185,204021066,Apartment
1859,"6/32 OVENS STREET, WANGARATTA",-36.356898,146.321031,1.0,1.0,1,$185_per_week,June 2018,3677,2018,6,WANGARATTA,185,204021066,Apartment
1860,"23 CUSACK STREET, WANGARATTA",-36.3563231,146.3175894,3.0,1.0,1,$380_per_week,April 2018,3677,2018,4,WANGARATTA,380,204021066,House
1861,"36 WORLAND ROAD, WANGARATTA",-36.3484022,146.2883092,3.0,1.0,4,$380_per_week,May 2018,3677,2018,5,WANGARATTA,380,204021066,House
1863,"3/21 THOMSON STREET, WANGARATTA",-36.3700757,146.3187524,2.0,1.0,1,$280,September 2018,3677,2018,9,WANGARATTA,280,204021066,Apartment
1865,"4/39 VICTORY PARADE, WANGARATTA",-36.349174,146.297799,2.0,1.0,1,$200,April 2018,3677,2018,4,WANGARATTA,200,204021066,Apartment
1872,"24 MOONAH ROAD, WANTIRNA SOUTH",-37.858384,145.244182,3.0,1.0,1,$400,January 2018,3152,2018,1,SOUTH,400,211011260,House
1894,"27 FONTEYN DRIVE, WANTIRNA SOUTH",-37.8798904,145.2209795,3.0,1.0,1,$395_per_week,November 2018,3152,2018,11,SOUTH,395,211011260,House
1895,"27 FONTEYN DRIVE, WANTIRNA SOUTH",-37.8798904,145.2209795,3.0,1.0,1,$405_per_week,October 2018,3152,2018,10,SOUTH,405,211011260,House
1896,"27 FONTEYN DRIVE, WANTIRNA SOUTH",-37.8798904,145.2209795,3.0,1.0,1,$420_per_week,October 2018,3152,2018,10,SOUTH,420,211011260,House
1904,"8 MAURICE COURT, WANTIRNA SOUTH",-37.871916,145.238836,3.0,1.0,1,$380,August 2018,3152,2018,8,SOUTH,380,211011260,House
1907,"14/745 BORONIA ROAD, WANTIRNA",-37.8465843,145.2226802,3.0,2.0,1,$420_pw,November 2018,3152,2018,11,WANTIRNA,420,211011259,House
1933,"106 MILPERA CRESCENT, WANTIRNA",-37.858361,145.218404,4.0,2.0,2,$490_pw,March 2018,3152,2018,3,WANTIRNA,490,211011259,House
1938,"2/265 WANTIRNA ROAD, WANTIRNA",-37.8405456,145.227586,2.0,1.0,1,$340,March 2018,3152,2018,3,WANTIRNA,340,211011259,Apartment
1942,"43 HIGHFIELD ROAD, WARBURTON",-37.75381,145.695158,3.0,2.0,2,$330,June 2018,3799,2018,6,WARBURTON,330,211051286,House
1946,"47 BALAKA STREET, WARNEET",-38.224869,145.312116,4.0,2.0,4,$350_per_week,October 2018,3980,2018,10,WARNEET,350,212031308,House
1947,"47 BALAKA STREET, WARNEET",-38.224869,145.312116,4.0,2.0,4,$350_per_week,August 2018,3980,2018,8,WARNEET,350,212031308,House
1955,"82 SCOTT STREET, WARRACKNABEAL",-36.24989,142.39465,1.0,1.0,0,$120_pw,November 2018,3393,2018,11,WARRACKNABEAL,120,215011394,Apartment
1956,"82 SCOTT STREET, WARRACKNABEAL",-36.24989,142.39465,1.0,1.0,0,$160_pw,October 2018,3393,2018,10,WARRACKNABEAL,160,215011394,Apartment
1957,"82 SCOTT STREET, WARRACKNABEAL",-36.24989,142.39465,1.0,1.0,0,$120_pw,October 2018,3393,2018,10,WARRACKNABEAL,120,215011394,Apartment
1958,"82 SCOTT STREET, WARRACKNABEAL",-36.24989,142.39465,1.0,1.0,0,$160_pw,March 2018,3393,2018,3,WARRACKNABEAL,160,215011394,Apartment
1959,"82 SCOTT STREET, WARRACKNABEAL",-36.24989,142.39465,1.0,1.0,0,$160_pw,January 2018,3393,2018,1,WARRACKNABEAL,160,215011394,Apartment
1960,"72 SCOTT STREET, WARRACKNABEAL",-36.249723,142.394583,1.0,1.0,0,$160_pw,November 2018,3393,2018,11,WARRACKNABEAL,160,215011394,Apartment
1961,"72 SCOTT STREET, WARRACKNABEAL",-36.249723,142.394583,1.0,1.0,0,$160_pw,October 2018,3393,2018,10,WARRACKNABEAL,160,215011394,Apartment
1962,"72 SCOTT STREET, WARRACKNABEAL",-36.249723,142.394583,1.0,1.0,0,$160_pw,March 2018,3393,2018,3,WARRACKNABEAL,160,215011394,Apartment
1963,"72 SCOTT STREET, WARRACKNABEAL",-36.249723,142.394583,1.0,1.0,0,$160_pw,January 2018,3393,2018,1,WARRACKNABEAL,160,215011394,Apartment
1972,"430 BONA VISTA ROAD, WARRAGUL SOUTH",-38.2067269,145.9503542,3.0,1.0,1,$350_p.w.,October 2018,3821,2018,10,SOUTH,350,205011079,House
1975,"4/4 DAVINE STREET, WARRAGUL",-38.1551673,145.9465936,3.0,1.0,2,$310_p.w.,May 2018,3820,2018,5,WARRAGUL,310,205011079,House
1976,"4/4 DAVINE STREET, WARRAGUL",-38.1551673,145.9465936,3.0,1.0,2,$310_p.w.,April 2018,3820,2018,4,WARRAGUL,310,205011079,House
1995,"1/15 NORMANBY STREET, WARRAGUL",-38.1639526,145.9388216,2.0,1.0,2,$1386_-_$320_pw,May 2018,3820,2018,5,WARRAGUL,320,205011079,House
1996,"1/15 NORMANBY STREET, WARRAGUL",-38.1639526,145.9388216,2.0,1.0,2,$1386_-_$320_pw,March 2018,3820,2018,3,WARRAGUL,320,205011079,House
2019,"155 SUTTON STREET, WARRAGUL",-38.152692,145.938038,3.0,2.0,2,$330_per_week,January 2018,3820,2018,1,WARRAGUL,330,205011079,House
2025,"51 TILLS DRIVE, WARRANDYTE",-37.7354265,145.2312733,3.0,2.0,2,$550,June 2018,3113,2018,6,WARRANDYTE,550,211021262,House
2031,"6 PENSHURST PLACE, WARRANWOOD",-37.770081,145.25229,3.0,2.0,1,$450_per_week,October 2018,3134,2018,10,WARRANWOOD,450,211031265,House
2034,"1 CARAMUT COURT, WARRANWOOD",-37.775769,145.240291,3.0,2.0,2,$490_per_week,May 2018,3134,2018,5,WARRANWOOD,490,211031265,House
2035,"1 CARAMUT COURT, WARRANWOOD",-37.775769,145.240291,3.0,2.0,2,$490_per_week,April 2018,3134,2018,4,WARRANWOOD,490,211031265,House
2040,"14/1 MAHERS ROAD, WARRENHEIP",-37.5660344,143.9347302,3.0,2.0,1,$246,September 2018,3352,2018,9,WARRENHEIP,246,201011481,House
2041,"12/1 MAHERS ROAD, WARRENHEIP",-37.5660344,143.9347302,2.0,2.0,0,$221,October 2018,3352,2018,10,WARRENHEIP,221,201011481,House
2044,"175 MELROSE ROAD, WARRION",-38.211749,143.545846,3.0,1.0,1,$280_per_week,March 2018,3249,2018,3,WARRION,280,217031473,House
2046,"6 / 49 CRAMER STREET, WARRNAMBOOL",-38.376419,142.495224,1.0,1.0,1,$180_pw,December 2018,3280,2018,12,WARRNAMBOOL,180,217041479,Apartment
2051,"18 CAROLYN CRESCENT, WARRNAMBOOL",-38.3594785,142.4681592,3.0,1.0,2,$360,April 2018,3280,2018,4,WARRNAMBOOL,360,217041479,House
2055,"900 RAGLAN PARADE, WARRNAMBOOL",-38.370434,142.471503,3.0,1.0,1,$320,April 2018,3280,2018,4,WARRNAMBOOL,320,217041479,House
2056,"11 RONGOA DRIVE, WARRNAMBOOL",-38.361178,142.456885,2.0,1.0,1,$280,May 2018,3280,2018,5,WARRNAMBOOL,280,217041479,House
2103,"1 WANSTEAD STREET, WARRNAMBOOL",-38.3834264,142.5086467,3.0,1.0,1,$280,June 2018,3280,2018,6,WARRNAMBOOL,280,217041479,House
2104,"1 WANSTEAD STREET, WARRNAMBOOL",-38.3834264,142.5086467,3.0,1.0,1,$280,May 2018,3280,2018,5,WARRNAMBOOL,280,217041479,House
2105,"52 LAVA STREET, WARRNAMBOOL",-38.383315,142.489228,2.0,1.0,1,$280_pw,March 2018,3280,2018,3,WARRNAMBOOL,280,217041480,Apartment
2106,"52 LAVA STREET, WARRNAMBOOL",-38.383315,142.489228,2.0,1.0,1,$280,February 2018,3280,2018,2,WARRNAMBOOL,280,217041480,Apartment
2111,"4 DAVEY COURT, WARRNAMBOOL",-38.389433,142.496997,3.0,1.0,1,$300,December 2018,3280,2018,12,WARRNAMBOOL,300,217041480,House
2112,"12 DUIRS STREET, WARRNAMBOOL",-38.382948,142.46442,3.0,1.0,1,$350_Weekly,December 2018,3280,2018,12,WARRNAMBOOL,350,217041480,House
2115,"30 WILSON STREET, WARRNAMBOOL",-38.3771834,142.4522201,3.0,1.0,2,$360,August 2018,3280,2018,8,WARRNAMBOOL,360,217041480,House
2128,"27 DRESDEN DR, WATERWAYS",-38.0131653,145.1392608,4.0,2.0,2,$590_Weekly,September 2018,3195,2018,9,WATERWAYS,590,208031183,House
2135,"74 SELLARS STREET, WATSONIA NORTH",-37.697276,145.090541,4.0,2.0,2,$430,May 2018,3087,2018,5,NORTH,430,209011204,House
2137,"1/288 GRIMSHAW STREET, WATSONIA NORTH",-37.702285,145.085138,2.0,1.0,2,$365_pw,November 2018,3087,2018,11,NORTH,365,209011204,Apartment
2142,"115 PRICES ROAD, GHERANG",-38.3182695,144.07253955,4.0,2.0,6,$600_per_week,September 2018,3240,2018,9,GHERANG,600,203011036,House
2143,"115 PRICES ROAD, GHERANG",-38.3182695,144.07253955,4.0,2.0,6,$600_per_week,October 2018,3240,2018,10,GHERANG,600,203011036,House
2144,"115 PRICES ROAD, GHERANG",-38.3182695,144.07253955,4.0,2.0,6,$800_per_week,September 2018,3240,2018,9,GHERANG,800,203011036,House
2155,"83 MCGEORGE ROAD, GISBORNE SOUTH",-37.531682,144.60304,3.0,1.0,2,$540_per_week,April 2018,3437,2018,4,SOUTH,540,210021232,House
2172,"44 JACKSONS CREEK WAY, GISBORNE",-37.48595041,144.60387273,4.0,2.0,2,$580_per_week,September 2018,3437,2018,9,GISBORNE,580,210021232,House
2178,"1/14 GABRIELLE CRESCENT, GLADSTONE PARK",-37.697205,144.896851,3.0,1.0,1,$340_Weekly,August 2018,3043,2018,8,PARK,340,210051245,House
2179,"1/14 GABRIELLE CRESCENT, GLADSTONE PARK",-37.697205,144.896851,3.0,1.0,1,$360,August 2018,3043,2018,8,PARK,360,210051245,House
2180,"41 PAYNE STREET, GLADSTONE PARK",-37.685554,144.883856,4.0,1.0,1,$420,July 2018,3043,2018,7,PARK,420,210051245,House
2182,"7 DUDLEY COURT, GLADSTONE PARK",-37.688995,144.882737,3.0,2.0,4,$450,February 2018,3043,2018,2,PARK,450,210051245,House
2187,"1127 GLEN-ALVIE ROAD, GLEN ALVIE",-38.4761195,145.6377708,3.0,1.0,4,$350,February 2018,3979,2018,2,ALVIE,350,205031093,House
2188,"154/115 NEERIM ROAD, GLEN HUNTLY",-37.8869388,145.0421254,2.0,1.0,1,$450,April 2018,3163,2018,4,HUNTLY,450,208021182,Apartment
2189,"7 / 21 ROYAL AVENUE, GLEN HUNTLY",-37.892399,145.04199,2.0,1.0,1,$400_pw,May 2018,3163,2018,5,HUNTLY,400,208021182,Apartment
2191,"2/8 ROSEDALE AVENUE, GLEN HUNTLY",-37.891087,145.043896,1.0,1.0,1,$395_per_week,April 2018,3163,2018,4,HUNTLY,395,208021182,Apartment
2192,"8/5 BEVERLEY STREET, GLEN HUNTLY",-37.892141,145.038928,2.0,1.0,1,$379,April 2018,3163,2018,4,HUNTLY,379,208021182,Apartment
2193,"6/8 WARATAH AVENUE, GLEN HUNTLY",-37.892039,145.043672,2.0,1.0,1,$380,December 2018,3163,2018,12,HUNTLY,380,208021182,Apartment
2194,"108/16 ETNA STREET, GLEN HUNTLY",-37.890098,145.041312,3.0,2.0,2,$625,August 2018,3163,2018,8,HUNTLY,625,208021182,House
2195,"2/6 MAROONA ROAD, GLEN HUNTLY",-37.888511,145.047604,2.0,1.0,1,$395_per_week,November 2018,3163,2018,11,HUNTLY,395,208021176,Apartment
2197,"1 / 17 MAROONA ROAD, GLEN HUNTLY",-37.889495,145.047844,2.0,1.0,0,$370_pw,July 2018,3163,2018,7,HUNTLY,370,208021176,Apartment
2198,"6/10 ROSEBERRY GROVE, GLEN HUNTLY",-37.888284,145.039976,1.0,1.0,1,$345_per_week,July 2018,3163,2018,7,HUNTLY,345,208021182,Apartment
2199,"6/10 ROSEBERRY GROVE, GLEN HUNTLY",-37.888284,145.039976,1.0,1.0,1,$345_per_week,March 2018,3163,2018,3,HUNTLY,345,208021182,Apartment
2200,"2/11 ROTHSCHILD STREET, GLEN HUNTLY",-37.890577,145.03815,2.0,1.0,1,$380_pw,May 2018,3163,2018,5,HUNTLY,380,208021182,Apartment
2201,"8/15 WARATAH AVENUE, GLEN HUNTLY",-37.891661,145.042483,1.0,1.0,1,$280,August 2018,3163,2018,8,HUNTLY,280,208021182,Apartment
2202,"167/115 NEERIM ROAD, GLEN HUNTLY",-37.886764,145.042038,2.0,1.0,1,$430_per_week,October 2018,3163,2018,10,HUNTLY,430,208021182,Apartment
2203,"167/115 NEERIM ROAD, GLEN HUNTLY",-37.886764,145.042038,2.0,1.0,1,$430_per_week,September 2018,3163,2018,9,HUNTLY,430,208021182,Apartment
2207,"3/28 ROYAL AVENUE, GLEN HUNTLY",-37.893857,145.042092,2.0,2.0,1,$450_per_week,August 2018,3163,2018,8,HUNTLY,450,208021182,House
2208,"3/15 MACKAY AVENUE, GLEN HUNTLY",-37.897025,145.044063,2.0,1.0,1,$360_per_week,January 2018,3163,2018,1,HUNTLY,360,208021182,Apartment
2209,"103/15-17 MANCHESTER GROVE, GLEN HUNTLY",-37.887862,145.040701,2.0,2.0,1,$480_per_week,October 2018,3163,2018,10,HUNTLY,480,208021182,House
2210,"7/1080 GLENHUNTLY ROAD, GLEN HUNTLY",-37.889151,145.038517,1.0,1.0,0,$340_per_week,July 2018,3163,2018,7,HUNTLY,340,208021182,Apartment
2214,"6/187 GRANGE ROAD, GLEN HUNTLY",-37.8948751,145.0456244,2.0,1.0,1,$385_per_week,August 2018,3163,2018,8,HUNTLY,385,208021182,Apartment
2215,"6/187 GRANGE ROAD, GLEN HUNTLY",-37.8948751,145.0456244,2.0,1.0,1,$385_per_week,July 2018,3163,2018,7,HUNTLY,385,208021182,Apartment
2216,"6/187 GRANGE ROAD, GLEN HUNTLY",-37.8948751,145.0456244,2.0,1.0,1,$385,February 2018,3163,2018,2,HUNTLY,385,208021182,Apartment
2217,"13/13 ROSEDALE AVENUE, GLEN HUNTLY",-37.8907599,145.0439342,1.0,1.0,1,$310_pw,February 2018,3163,2018,2,HUNTLY,310,208021182,Apartment
2218,"3/16 ROYAL AVENUE, GLEN HUNTLY",-37.891358,145.04228,2.0,1.0,1,$382,March 2018,3163,2018,3,HUNTLY,382,208021182,Apartment
2220,"16/1083-1089 GLEN HUNTLY ROAD, GLEN HUNTLY",-37.888579,145.039075,1.0,1.0,1,$325_per_week,May 2018,3163,2018,5,HUNTLY,325,208021182,Apartment
2221,"204/103 GRANGE ROAD, GLEN HUNTLY",-37.8887822,145.0449879,1.0,1.0,1,$450_pw,September 2018,3163,2018,9,HUNTLY,450,208021182,Apartment
2222,"1/20 HAWSON AVENUE, GLEN HUNTLY",-37.892769,145.038797,1.0,1.0,1,$300_pw,July 2018,3163,2018,7,HUNTLY,300,208021182,Apartment
2223,"9/15 ROYAL AVENUE, GLEN HUNTLY",-37.890338,145.042594,2.0,1.0,1,$380_per_week,July 2018,3163,2018,7,HUNTLY,380,208021182,Apartment
2225,"210/1615 MALVERN ROAD, GLEN IRIS",-37.8544248,145.0517888,2.0,1.0,1,$510_per_week,December 2018,3146,2018,12,IRIS,510,208041194,Apartment
2226,"210/1615 MALVERN ROAD, GLEN IRIS",-37.8544248,145.0517888,2.0,1.0,1,$530_per_week,February 2018,3146,2018,2,IRIS,530,208041194,Apartment
2227,"204/10-12 HIGH STREET, GLEN IRIS",-37.862025,145.064818,2.0,1.0,1,$450,November 2018,3146,2018,11,IRIS,450,207011150,Apartment
2228,"1765 MALVERN ROAD, GLEN IRIS",-37.86134103,145.05821384,2.0,1.0,1,$395,December 2018,3146,2018,12,IRIS,395,208041194,Apartment
2230,"5/13 MYRNIONG STREET, GLEN IRIS",-37.852363,145.094077,2.0,1.0,1,$350_per_week,November 2018,3146,2018,11,IRIS,350,207011150,Apartment
2231,"3/1494 HIGH STREET, GLEN IRIS",-37.858933,145.045227,3.0,3.0,1,$660_per_week,December 2018,3146,2018,12,IRIS,660,208041194,House
2232,"3/1494 HIGH STREET, GLEN IRIS",-37.858933,145.045227,3.0,3.0,1,$660,October 2018,3146,2018,10,IRIS,660,208041194,House
2233,"5/1583 MALVERN ROAD, GLEN IRIS",-37.854028,145.050258,2.0,1.0,1,$390,April 2018,3146,2018,4,IRIS,390,208041194,Apartment
2234,"5/1583 MALVERN ROAD, GLEN IRIS",-37.854028,145.050258,2.0,1.0,1,$400,February 2018,3146,2018,2,IRIS,400,208041194,Apartment
2235,"604/770D TOORAK ROAD, GLEN IRIS",-37.8456392,145.0459343,2.0,1.0,1,$520,November 2018,3146,2018,11,IRIS,520,207011150,Apartment
2236,"604/770D TOORAK ROAD, GLEN IRIS",-37.8456392,145.0459343,2.0,1.0,1,$530,October 2018,3146,2018,10,IRIS,530,207011150,Apartment
2237,"604/770D TOORAK ROAD, GLEN IRIS",-37.8456392,145.0459343,2.0,1.0,1,$510,January 2018,3146,2018,1,IRIS,510,207011150,Apartment
2242,"3/23 GARDINER PARADE, GLEN IRIS",-37.853793,145.063743,2.0,1.0,1,$410_per_week,May 2018,3146,2018,5,IRIS,410,207011150,Apartment
2243,"3/23 GARDINER PARADE, GLEN IRIS",-37.853793,145.063743,2.0,1.0,1,$400_per_week,May 2018,3146,2018,5,IRIS,400,207011150,House
2244,"3/23 GARDINER PARADE, GLEN IRIS",-37.853793,145.063743,2.0,1.0,1,$410_per_week,February 2018,3146,2018,2,IRIS,410,207011150,Apartment
