address,latitude_ori,longitude_ori,year,month,nbed,nbath,ncar,postcode,SA2_CODE,residence_type,dist_to_cbd_KM,min_distance_to_park,min_distance_to_prim,min_distance_to_second,min_distance_to_train,min_distance_to_hosp,min_distance_to_poli,min_distance_to_shop,weekly_rent
"- KILLARNEY LANE, MERRIJIG",-37.1264454,146.220257,2019,3,2.0,2.0,1,3723,204011057,House,223.87275,10.39895,9.195530000000002,17.33702,31.46938,17.25138,17.94772,,350.0
". MCNAUGHTONS ROAD, LONGFORD",-38.1729788,147.2310302,2019,4,4.0,2.0,6,3851,205051100,House,228.61723,14.50316,15.07818,,,,,,450.0
". SHERBROOK LODGE ROAD, PORT CAMPBELL",-38.6176729,142.9985769,2019,4,3.0,1.0,0,3269,217031475,House,229.0437,0.31185,32.24172,38.4537,17.06491,17.4788,0.0499099999999999,,550.0
".275 SOLDIERS SETTLERS ROAD, TALLANGATTA VALLEY",-36.2142709,147.3184912,2019,12,3.0,1.0,2,3701,204031072,House,367.34544,12.32206,5.23339,15.68916,5.419,14.93634,14.76891,,280.0
"003/903 DANDENONG ROAD, MALVERN EAST",-37.876178,145.046128,2019,5,1.0,1.0,0,3145,208041195,Apartment,13.86135,0.9325,0.9188,2.494,2.208,,,3.96501,290.0
"010/903 DANDENONG ROAD, MALVERN EAST",-37.876178,145.046128,2019,10,1.0,1.0,0,3145,208041195,Apartment,13.86135,0.9325,0.9188,2.494,2.208,,,3.96501,315.0
"02/1 O'CONNELL STREET, NORTH MELBOURNE",-37.82041001,145.01137001,2019,12,1.0,1.0,0,3051,206071517,Apartment,5.34485,1.20604,2.07995,0.63771,1.82003,,,,350.0
"02/1023 DANDENONG ROAD, MALVERN EAST",-37.8820953,145.0513214,2019,7,1.0,1.0,0,3145,208041195,Apartment,14.7613,0.4448,1.15644,1.66879,2.2699000000000003,,,3.1398,290.0
"02/1023 DANDENONG ROAD, MALVERN EAST",-37.8820953,145.0513214,2019,10,1.0,1.0,0,3145,208041195,Apartment,14.7613,0.4448,1.15644,1.66879,2.2699000000000003,,,3.1398,305.0
"02/1023 DANDENONG ROAD, MALVERN EAST",-37.8820953,145.0513214,2019,11,1.0,1.0,0,3145,208041195,Apartment,14.7613,0.4448,1.15644,1.66879,2.2699000000000003,,,3.1398,305.0
"02/949 DANDENONG ROAD, MALVERN EAST",-37.878553,145.048352,2019,8,1.0,1.0,0,3145,208041195,Apartment,14.4741,0.8499800000000001,1.38586,2.14696,2.85652,,,3.61797,305.0
"03 IMAGE WALK, COBURG NORTH",-37.726,144.96,2019,11,2.0,2.0,1,3058,210031236,House,11.97424,0.15333,,1.11175,0.78725,,,,450.0
"09 CORLETT STREET, FRANKSTON EAST",-38.1316849002,145.1324926002,2019,7,3.0,2.0,1,3199,214011371,House,51.8997,2.00964,0.56401,1.57074,1.61758,2.5084,1.81854,1.75945,435.0
"1 / 1 JACKMAN COURT, GOLDEN SQUARE",-36.773563,144.23630301,2019,5,3.0,1.0,2,3555,202011022,House,149.68534,2.61897,2.19543,3.08223,3.64324,,,,330.0
"1 / 14 RAE STREET, BENDIGO",-36.752319,144.26092,2019,9,2.0,1.0,1,3550,202011018,House,152.12877,0.7787999999999999,1.0723900000000002,1.5342,3.72803,2.84185,2.22053,2.83048,250.0
"1 / 142 MCKINNON ROAD, MCKINNON",-37.9110175,145.0371915,2019,1,2.0,1.0,1,3204,208021174,Apartment,16.96515,,1.75131,2.09064,0.08474,,0.7953,,420.0
"1 / 17 MAROONA ROAD, GLEN HUNTLY",-37.889495,145.047844,2019,11,2.0,1.0,0,3163,208021176,Apartment,15.43713,1.33313,0.37475,,1.55645,,,,380.0
"1 / 17 MYOORA ROAD, TOORAK",-37.843763,145.020493,2019,5,2.0,1.0,1,3142,206061138,House,8.603909999999999,1.58958,1.46044,1.53998,1.34381,,,,490.0
"1 / 19 SUNRAY AVENUE, CHELTENHAM",-37.962894,145.062987,2019,12,3.0,2.0,1,3192,208031188,House,27.40512,1.39747,0.63771,2.55643,1.84667,,0.90008,1.22761,520.0
"1 / 2 FRANCIS STREET, POREPUNKAH",-36.696613,146.910343,2019,12,1.0,1.0,1,3740,204031069,Apartment,308.75525,0.23383,0.40292,37.30663,0.50172,37.63518,7.23774,,220.0
"1 / 2 SALMON STREET, MENTONE",-37.978751,145.062228,2019,9,1.0,1.0,1,3194,208031190,Apartment,25.26515,1.07943,1.14798,0.95999,0.93241,,0.87672,1.81526,300.0
"1 / 22A FERNHILL ROAD NORTH, SANDRINGHAM",-37.951567,145.007408,2019,3,2.0,1.0,1,3191,208011173,Apartment,18.12344,1.49939,0.14402,1.27399,0.67059,1.6105,0.76485,,410.0
"1 / 23 LIVERPOOL ROAD, KILSYTH",-37.804746,145.315361,2019,11,2.0,1.0,1,3137,211051277,Apartment,35.55154,0.19473,0.43751,1.31452,,,,0.68063,360.0
"1 / 24 PRAHRAN GROVE, ELSTERNWICK",-37.87985001,145.00944001,2019,10,2.0,1.0,2,3185,208021179,Apartment,10.95998,,0.67655,1.36573,1.3615,,1.47743,,499.0
"1 / 253 NORTH ROAD, CAULFIELD SOUTH",-37.90089001,145.01847001,2019,8,4.0,2.0,2,3162,208021178,House,14.49126,1.11931,1.82645,1.64874,,2.48243,2.32284,,850.0
"1 / 26 NOBLE STREET, NEWTOWN",-38.1542099,144.3492559,2019,7,3.0,1.0,1,3220,203021046,House,79.29373,0.44504,0.44544,0.92155,,,,,620.0
"1 / 26 NOBLE STREET, NEWTOWN",-38.1542099,144.3492559,2019,8,3.0,1.0,1,3220,203021046,House,79.29373,0.44504,0.44544,0.92155,,,,,620.0
"1 / 26 NOBLE STREET, NEWTOWN",-38.1542099,144.3492559,2019,9,3.0,1.0,1,3220,203021046,House,79.29373,0.44504,0.44544,0.92155,,,,,620.0
"1 / 28 THE AVENUE, BALACLAVA",-37.871422,144.994549,2019,4,2.0,1.0,1,3183,206051134,Apartment,9.0018,2.01471,2.16322,0.95837,0.64118,,0.9156,,360.0
"1 / 35 LINACRE ROAD, HAMPTON",-37.942114,145.005694,2019,9,2.0,1.0,1,3188,208011172,Apartment,16.98922,0.6789,1.36302,1.76997,0.97182,1.45254,,,495.0
"1 / 35 LINACRE ROAD, HAMPTON",-37.942114,145.005694,2019,10,2.0,1.0,1,3188,208011172,Apartment,16.98922,0.6789,1.36302,1.76997,0.97182,1.45254,,,495.0
"1 / 38 BARRAGOWA DRIVE, CAPEL SOUND",-38.37138001,144.88125001,2019,11,3.0,2.0,1,3940,214021384,House,93.39008,1.07395,0.39953,0.97141,,1.66503,1.10165,,395.0
"1 / 39 GRANDVIEW CRESCENT, KINGLAKE CENTRAL",-37.52794001,145.32589001,2019,12,1.0,1.0,0,3757,209031211,House,58.87998,17.56428,2.90745,,,,,,280.0
"1 / 41 BEGONIA ROAD, GARDENVALE",-37.897309,145.007584,2019,3,2.0,1.0,1,3185,208021179,Apartment,14.08373,,2.07618,0.59681,1.87471,,2.12093,,580.0
"1 / 45 OAKLEIGH ROAD, CARNEGIE",-37.898623,145.04998,2019,3,1.0,1.0,1,3163,208021176,Apartment,16.733580000000003,1.21381,0.92719,,2.11659,,,,260.0
"1 / 47 ULUPNA ROAD, ORMOND",-37.89988,145.043146,2019,4,1.0,1.0,1,3204,208021182,Apartment,16.10109,1.14697,1.85288,,0.7017,,1.45499,,260.0
"1 / 48 MAYFAIR DRIVE, WEST WODONGA",-36.121109002,146.8633896002,2019,11,3.0,1.0,2,3690,204031073,House,310.31053,0.58497,2.72255,1.59376,,,,,310.0
"1 / 48 WANDANA DRIVE, WANDANA HEIGHTS",-38.175506,144.305161,2019,1,4.0,2.0,3,3216,203021042,House,83.17163000000001,0.3918899999999999,1.30339,2.58963,,,,,430.0
"1 / 49 WILSON STREET, CHELTENHAM",-37.961111,145.059196,2019,7,2.0,1.0,1,3192,208031188,Apartment,26.99314,1.4691500000000002,0.70385,2.14445,1.5766300000000002,,1.00424,0.95757,475.0
"1 / 49 WILSON STREET, CHELTENHAM",-37.961111,145.059196,2019,8,2.0,1.0,1,3192,208031188,Apartment,26.99314,1.4691500000000002,0.70385,2.14445,1.5766300000000002,,1.00424,0.95757,480.0
"1 / 5-7 POET ROAD, BENTLEIGH EAST",-37.91033789,145.07352256,2019,1,2.0,1.0,2,3165,208021426,Apartment,20.62073,2.37172,1.25578,1.479,,2.58571,,,465.0
"1 / 5-7 POET ROAD, BENTLEIGH EAST",-37.91033789,145.07352256,2019,6,2.0,1.0,2,3165,208021426,House,20.62073,2.37172,1.25578,1.479,,2.58571,,,480.0
"1 / 52 TRUGANINI ROAD, CARNEGIE",-37.890082,145.05392,2019,12,3.0,2.0,2,3163,208021176,House,15.94161,0.8250599999999999,0.17121,,1.00394,,,,575.0
"1 / 530 TOORAK ROAD, TOORAK",-37.842784,145.018443,2019,8,2.0,1.0,1,3142,206061138,Apartment,8.247069999999999,1.23274,1.1036,1.18314,1.12668,,,,440.0
"1 / 54 EDWARD STREET, SANDRINGHAM",-37.961557,145.015884,2019,7,2.0,1.0,1,3191,208011173,Apartment,19.54738,0.6339199999999999,1.04868,0.8637100000000001,2.18456,0.8975,1.20716,,550.0
"1 / 59 HOBART ROAD, MURRUMBEENA",-37.889344,145.069521,2019,8,1.0,1.0,1,3163,208021181,Apartment,15.78438,1.83678,0.3605899999999999,2.20742,0.32649,,0.53687,,270.0
"1 / 87 BRANDY CREEK ROAD, WARRAGUL",-38.145106,145.937604,2019,7,2.0,1.0,1,3820,205011079,House,105.30555,1.30981,0.59424,3.66452,2.68445,3.77017,2.30024,,220.0
"1 / 9 FROGMORE ROAD, CARNEGIE",-37.894461,145.064759,2019,5,1.0,1.0,1,3163,208021176,Apartment,16.20925,1.23439,1.27735,,1.88334,,,,340.0
"1 / 9 LEWIS GROVE, MOUNT WAVERLEY",-37.8910999,145.1115921,2019,11,3.0,1.0,2,3149,212051324,Apartment,19.52426,1.14045,0.2333,6.80319,,6.32937,3.3876500000000003,7.73327,420.0
"1 / 9 WORDSWORTH STREET, ST KILDA",-37.87303,144.97793,2019,9,2.0,1.0,1,3182,206051514,Apartment,8.27901,0.43575,2.09673,2.39184,1.48117,,,,450.0
"1 / 99 ROSE STREET, COBURG",-37.7408079,144.9473533,2019,4,2.0,1.0,1,3058,206011109,House,9.88485,0.9936,1.63257,0.55388,,,1.16407,,530.0
"1 /2 TONGE STREET, ANGLESEA",-38.412709,144.187396,2019,9,2.0,2.0,1,3230,203031049,House,113.89029,0.33601,2.16181,,,29.02184,1.51877,,400.0
"1 ALBENCA STREET, MENTONE",-37.981739,145.073558,2019,10,4.0,2.0,3,3194,208031190,House,26.2883,0.67306,0.66888,1.46846,1.00636,,1.35675,0.4614499999999999,600.0
"1 ALBENCA STREET, MENTONE",-37.981739,145.073558,2019,11,4.0,2.0,3,3194,208031190,House,26.2883,0.67306,0.66888,1.46846,1.00636,,1.35675,0.4614499999999999,600.0
"1 ALEXIA DRIVE, BERWICK",-38.069264,145.348842,2019,11,4.0,2.0,2,3806,212021553,House,50.01454,3.51168,0.3635199999999999,1.49505,,,,,430.0
"1 ALMA STREET, NYAH WEST",-35.186278,143.353001,2019,4,2.0,1.0,1,3595,215031405,House,369.87819,18.448400000000003,1.02063,,1.1841700000000002,56.16805,1.03871,,155.0
"1 ANDERSON PARADE, BUNDOORA",-37.698487,145.079134,2019,5,3.0,1.0,2,3083,209011196,House,18.90293,0.4335799999999999,1.27829,2.56392,,,,1.05275,470.0
"1 ANDERSON PARADE, BUNDOORA",-37.698487,145.079134,2019,6,3.0,1.0,2,3083,209011196,House,18.90293,0.4335799999999999,1.27829,2.56392,,,,1.05275,460.0
"1 ANGUS STREET, SKIPTON",-37.68740509,143.35794235,2019,3,3.0,1.0,1,3361,217031474,House,167.50186,0.63954,1.23549,39.55338,1.31161,1.1734,0.62751,,300.0
"1 ANGUS STREET, SKIPTON",-37.68740509,143.35794235,2019,4,3.0,1.0,1,3361,217031474,House,167.50186,0.63954,1.23549,39.55338,1.31161,1.1734,0.62751,,300.0
"1 APORUM AVENUE, WYNDHAM VALE",-37.86895001,144.61314001,2019,8,3.0,2.0,2,3024,213051589,House,37.97083,3.49042,,,,,,,350.0
"1 ARALUEN COURT, PAYNESVILLE",-37.9162665,147.7054089,2019,10,3.0,3.0,2,3880,205021086,House,293.13122,1.48622,1.79821,,,,,,360.0
"1 ASHFORD COURT, INVERMAY PARK",-37.52490483,143.85712618,2019,3,4.0,2.0,2,3350,201011482,House,120.52947,1.09941,2.31519,4.68986,4.535,,,,450.0
"1 AVON COURT, BUNDOORA",-37.70581,145.055805,2019,7,3.0,1.0,1,3083,209011196,House,16.2791,0.99519,0.93857,0.88303,,,,1.88991,360.0
"1 AVON COURT, BUNDOORA",-37.70581,145.055805,2019,11,3.0,1.0,1,3083,209011196,House,16.2791,0.99519,0.93857,0.88303,,,,1.88991,350.0
"1 AVON COURT, BUNDOORA",-37.70581,145.055805,2019,12,3.0,1.0,1,3083,209011196,House,16.2791,0.99519,0.93857,0.88303,,,,1.88991,350.0
"1 BAIKAL CRESCENT, MANOR LAKES",-37.8733986,144.5820828,2019,3,4.0,2.0,2,3024,213051579,House,41.26749,,3.53416,,,,,,400.0
"1 BANOOL COURT, FRANKSTON SOUTH",-38.162686,145.132275,2019,9,3.0,1.0,2,3199,214011373,House,55.74444,1.15015,1.72347,0.44511,,,,,475.0
"1 BARINGA AVENUE, KALLISTA",-37.884698,145.372603,2019,8,3.0,2.0,1,3791,211051282,House,49.28845,1.60761,0.35289,,,,4.911779999999999,,500.0
"1 BARRINGUN CRESCENT, CLAYTON SOUTH",-37.941694,145.113761,2019,8,3.0,1.0,6,3169,212041310,House,26.41749,2.1963000000000004,0.6766,2.67229,3.77917,,,,465.0
"1 BARRINGUN CRESCENT, CLAYTON SOUTH",-37.941694,145.113761,2019,9,3.0,1.0,6,3169,212041310,House,26.41749,2.1963000000000004,0.6766,2.67229,3.77917,,,,450.0
"1 BARRINGUN CRESCENT, CLAYTON SOUTH",-37.941694,145.113761,2019,10,3.0,1.0,6,3169,212041310,House,26.41749,2.1963000000000004,0.6766,2.67229,3.77917,,,,450.0
"1 BARRINGUN CRESCENT, CLAYTON SOUTH",-37.941694,145.113761,2019,11,3.0,1.0,6,3169,212041310,House,26.41749,2.1963000000000004,0.6766,2.67229,3.77917,,,,450.0
"1 BASS HORIZON PROMENADE, CORONET BAY",-38.4384754,145.4448245,2019,12,3.0,1.0,1,3984,205031093,House,112.16307,1.30856,3.81189,28.53967,11.35547,30.71116,8.27369,,290.0
"1 BATMAN AVENUE, SUNBURY",-37.57918,144.713965,2019,9,3.0,2.0,1,3429,210041540,House,40.13833,0.98761,0.96826,,1.73544,,,,390.0
"1 BATMAN AVENUE, SUNBURY",-37.57918,144.713965,2019,10,3.0,2.0,1,3429,210041540,House,40.13833,0.98761,0.96826,,1.73544,,,,380.0
"1 BAYVIEW STREET, PRAHRAN",-37.8518,145.003124,2019,8,2.0,2.0,1,3181,206061136,House,7.85692,,1.02027,1.13384,1.49375,,0.75473,,800.0
"1 BECKER STREET, BEAUFORT",-37.431078,143.380108,2019,12,3.0,1.0,6,3373,201031014,House,161.21652,1.17787,1.38822,1.41543,0.99588,0.13632,0.11615,,300.0
"1 BELLFIELD DR, LYSTERFIELD",-37.91558001,145.27552001,2019,11,3.0,1.0,2,3156,211011255,House,39.27019,0.82336,0.6319600000000001,,,,,,395.0
"1 BELLFIELD DRIVE, LYSTERFIELD",-37.915596,145.275431,2019,11,3.0,1.0,2,3156,211011255,House,39.22657,0.77974,0.6755800000000001,,,,,,395.0
"1 BEMM COURT, CROYDON HILLS",-37.776896,145.272904,2019,4,4.0,2.0,2,3136,211031265,House,33.90935,0.82997,0.05422,0.97386,,,,,510.0
"1 BENBURY CLOSE, ST ALBANS",-37.7341195002,144.7898326002,2019,8,3.0,1.0,2,3021,213011334,House,25.17811,0.7139,0.99132,0.84722,1.26219,,2.13585,,370.0
"1 BENBURY CLOSE, ST ALBANS",-37.7341195002,144.7898326002,2019,10,3.0,1.0,2,3021,213011334,House,25.17811,0.7139,0.99132,0.84722,1.26219,,2.13585,,370.0
"1 BENBURY CLOSE, ST ALBANS",-37.7341195002,144.7898326002,2019,12,3.0,1.0,2,3021,213011334,House,25.17811,0.7139,0.99132,0.84722,1.26219,,2.13585,,370.0
"1 BERG PL, COBURG",-37.7544987002,144.9785938002,2019,8,3.0,2.0,1,3058,206011497,House,6.78002,0.01878,1.14702,1.28752,,,,,600.0
"1 BERG PLACE, COBURG",-37.754386,144.978864,2019,8,3.0,2.0,1,3058,206011497,House,6.917470000000001,0.63749,1.15781,1.09798,,,,,600.0
"1 BERMUDA BEND, CORONET BAY",-38.43682331,145.44479536,2019,4,4.0,1.0,2,3984,205031093,House,111.92471,1.58137,3.57352,28.81249,11.11711,30.983970000000003,8.54651,,380.0
"1 BITTERN STREET, MELTON",-37.678804,144.57509,2019,6,3.0,1.0,2,3337,213041577,House,46.79107,0.93712,1.31872,,,,0.97426,,300.0
"1 BITTERN STREET, MELTON",-37.678804,144.57509,2019,7,3.0,1.0,2,3337,213041577,House,46.79107,0.93712,1.31872,,,,0.97426,,290.0
"1 BITTERN STREET, MELTON",-37.678804,144.57509,2019,12,3.0,1.0,2,3337,213041577,House,46.79107,0.93712,1.31872,,,,0.97426,,290.0
"1 BORRIE STREET, RESERVOIR",-37.70866001,145.0196001,2019,6,3.0,1.0,2,3073,209021523,House,14.05843,0.92464,0.41814,,1.11858,,,,470.0
"1 BORRIE STREET, RESERVOIR",-37.70866001,145.0196001,2019,7,3.0,1.0,2,3073,209021523,House,14.05843,0.92464,0.41814,,1.11858,,,,400.0
"1 BORRIE STREET, RESERVOIR",-37.70866001,145.0196001,2019,8,3.0,1.0,2,3073,209021523,House,14.05843,0.92464,0.41814,,1.11858,,,,430.0
"1 BOURKE STREET, BRUNSWICK",-37.767177,144.966876,2019,7,3.0,1.0,0,3056,206011495,House,5.519489999999999,0.6450199999999999,1.97431,,1.26942,,0.95479,,470.0
"1 BRAEMAR CLOSE, GLADSTONE PARK",-37.684531,144.887128,2019,10,3.0,2.0,2,3043,210051245,House,19.21522,1.5753499999999998,0.36366,1.08349,,,1.8181,0.84082,420.0
"1 BUNGADOOL STREET, WARNEET",-38.224102,145.312457,2019,8,3.0,2.0,5,3980,212031308,House,73.47627,0.85877,8.858709999999999,,17.97187,,,,380.0
"1 CANTALA DRIVE, DONCASTER",-37.775855,145.127204,2019,3,4.0,2.0,2,3108,207021157,House,19.32405,2.39421,0.84324,2.18968,,,,1.52743,680.0
"1 CAVILL COURT, VERMONT SOUTH",-37.856728,145.178865,2019,1,4.0,2.0,2,3133,211041273,House,35.22376,2.02514,0.90286,1.83844,0.68331,,,1.46309,540.0
"1 CAYMAN COURT, LYNDHURST",-38.0577860451654,145.246936078646,2019,6,3.0,2.0,2,3975,212031306,House,43.767050000000005,2.97263,2.84709,,5.35813,,,,400.0
"1 CENTAURUS AVENUE, CLIFTON SPRINGS",-38.1492755,144.57108414,2019,9,3.0,2.0,1,3222,203031048,House,101.99034,1.06534,2.41196,3.62164,4.38223,,3.20547,,460.0
"1 CHARLES DRIVE, PEARCEDALE",-38.206711,145.235638,2019,9,3.0,1.0,2,3912,212031308,House,63.45152,1.3683800000000002,0.94744,,19.53329,,,,420.0
"1 CHATSWORTH QUADRANT, TEMPLESTOWE LOWER",-37.763359,145.103782,2019,5,3.0,1.0,1,3107,207021160,House,15.5783,0.7767000000000001,0.78626,1.50996,,,,,391.0
"1 CHICK CLOSE, WANGARATTA",-36.34212535,146.29659908,2019,4,3.0,2.0,2,3677,204021066,House,241.89377,3.19197,1.30547,1.65938,4.367319999999999,2.71867,3.67582,,340.0
"1 CHICK CLOSE, WANGARATTA",-36.34212535,146.29659908,2019,7,3.0,2.0,2,3677,204021066,House,241.89377,3.19197,1.30547,1.65938,4.367319999999999,2.71867,3.67582,,340.0
"1 CHICK CLOSE, WANGARATTA",-36.34212535,146.29659908,2019,8,3.0,2.0,2,3677,204021066,House,241.89377,3.19197,1.30547,1.65938,4.367319999999999,2.71867,3.67582,,340.0
"1 CHIFLEY CIRCUIT, BURNSIDE HEIGHTS",-37.726732,144.761692,2019,5,4.0,3.0,2,3023,213041462,House,33.59978,,1.69242,,,,,,430.0
"1 CHRISTINE COURT, SEAFORD",-38.104224,145.15274,2019,11,3.0,1.0,1,3198,214011375,House,51.18184,1.27911,1.08016,7.03945,3.90657,,6.38678,,360.0
"1 CLUB AVENUE, KINGSBURY",-37.715834,145.033348,2019,6,3.0,2.0,1,3083,209021205,House,14.67144,1.27549,0.36857,0.84726,2.30292,2.11572,,3.42774,450.0
"1 CLUB AVENUE, KINGSBURY",-37.715834,145.033348,2019,7,3.0,2.0,1,3083,209021205,House,14.67144,1.27549,0.36857,0.84726,2.30292,2.11572,,3.42774,450.0
"1 CLYDEN COURT, BURWOOD EAST",-37.85263,145.147255,2019,7,4.0,2.0,1,3151,207031166,House,19.20312,1.36223,1.0933499999999998,3.0009200000000003,1.29367,,,,510.0
"1 CLYDEN COURT, BURWOOD EAST",-37.85263,145.147255,2019,9,4.0,2.0,1,3151,207031166,House,19.20312,1.36223,1.0933499999999998,3.0009200000000003,1.29367,,,,510.0
"1 COLONIAL CLOSE, WHEELERS HILL",-37.904559,145.190823,2019,6,3.0,2.0,2,3150,212051327,House,26.61916,1.10157,0.34642,2.23622,,,,3.22754,470.0
"1 CORVI COURT, LARA",-38.019955,144.409668,2019,11,4.0,2.0,2,3212,203021043,House,60.06243,0.4482799999999999,1.40279,0.47134,1.3224200000000002,,1.73552,,370.0
"1 DALLWITZ COURT, WANGARATTA",-36.35019001,146.29418001,2019,8,3.0,2.0,1,3677,204021066,House,241.03131,2.55173,1.47616,1.83007,3.5048600000000003,2.40204,2.81335,,380.0
"1 DALLWITZ COURT, WANGARATTA",-36.35019001,146.29418001,2019,10,3.0,2.0,1,3677,204021066,House,241.03131,2.55173,1.47616,1.83007,3.5048600000000003,2.40204,2.81335,,380.0
"1 DALPURA CIRCUIT, FRANKSTON",-38.138349,145.162755,2019,11,3.0,2.0,2,3199,214011372,House,53.96774,0.73411,0.61282,1.39149,,,,2.49128,385.0
"1 DAYLESFORD CRESCENT, KIALLA",-36.4336792,145.3963732,2019,5,4.0,2.0,2,3631,216031593,House,175.42078,0.42036,4.43593,,,,,,500.0
"1 DELEPAN DRIVE, TYABB",-38.257096,145.189026,2019,10,3.0,1.0,2,3913,214021385,House,67.82771000000001,0.2620699999999999,0.92525,2.4657,1.05948,,,,365.0
"1 DENTON STREET, BRIGHTON EAST",-37.929992,145.026658,2019,10,4.0,2.0,2,3187,208011170,House,18.00028,1.26958,1.99368,1.6993900000000002,,,,,700.0
"1 DEVONPORT COURT, TAYLORS HILL",-37.7121001,144.75466001,2019,8,4.0,2.0,2,3037,213041360,House,28.02788,,1.02431,2.24534,,,,,450.0
"1 DIABLO PLACE, CRAIGIEBURN",-37.6064503,144.9150499,2019,10,4.0,2.0,2,3064,210051443,House,26.92667,3.26937,2.17228,2.90942,5.59378,,,,420.0
"1 DICKENS STREET, RICHMOND",-37.820135,145.008702,2019,7,2.0,1.0,1,3121,206071517,House,4.97429,0.83548,1.56224,0.87041,1.30232,,,,650.0
"1 DONALD ROAD, WHEELERS HILL",-37.901256,145.189692,2019,1,4.0,2.0,2,3150,212051327,House,26.49844,1.64074,0.28188,2.1155,,,,3.10683,620.0
"1 DONALD ROAD, WHEELERS HILL",-37.901256,145.189692,2019,6,4.0,2.0,2,3150,212051327,House,26.49844,1.64074,0.28188,2.1155,,,,3.10683,580.0
"1 DOVE STREET, WEST FOOTSCRAY",-37.7967416,144.8809972,2019,7,3.0,1.0,2,3012,213031351,House,8.94416,0.33391,0.95206,,2.31965,,3.7021,,520.0
"1 DOVE STREET, WEST FOOTSCRAY",-37.7967416,144.8809972,2019,11,3.0,1.0,2,3012,213031351,House,8.94416,0.33391,0.95206,,2.31965,,3.7021,,520.0
"1 DUNCAN STREET, BIRCHIP",-35.984418,142.914231,2019,8,3.0,1.0,1,3483,215031400,House,309.74828,1.09316,0.91574,35.44773,0.92663,35.41739,0.81608,,180.0
"1 DUNDAS STREET, EDENHOPE",-37.0352228,141.3010894,2019,4,3.0,1.0,2,3318,215011393,House,392.00444,5.84648,0.31031,0.2166699999999999,38.829,1.1165,0.8987999999999999,,250.0
"1 EAGLE PARADE, NORLANE",-38.090281,144.348185,2019,8,3.0,1.0,2,3214,203021488,House,68.28791,0.75536,0.5757000000000001,1.53961,3.12817,,2.33014,,300.0
"1 EBB ST, ASPENDALE",-38.017125,145.097133,2019,1,3.0,1.0,1,3195,208031189,House,30.78337,1.20025,0.41845,0.8507,1.30683,,,,420.0
"1 ELSWORTH DRIVE, STRATHFIELDSAYE",-36.8121368,144.3520909,2019,4,4.0,2.0,2,3551,202011024,House,154.29297,2.37636,1.30933,7.20785,,,,,330.0
"1 ENDEAVOUR DRIVE, CRANBOURNE NORTH",-38.079887,145.274296,2019,10,3.0,1.0,2,3977,212031560,House,48.77492,0.60303,0.97511,0.89876,,,,,320.0
"1 FAGAN COURT, CRANBOURNE",-38.100601,145.26813,2019,1,2.0,1.0,1,3977,212031300,House,53.02888,2.5366,0.41864,2.2814,1.7635,,2.8215,2.33741,340.0
"1 FAIRHAZEL COURT, BEACONSFIELD UPPER",-38.004267,145.425694,2019,7,4.0,2.0,0,3808,212011289,House,55.00463,1.5141300000000002,3.09994,16.799619999999997,14.22357,,15.19232,,590.0
"1 FAKENHAM ROAD, ASHBURTON",-37.861666,145.082153,2019,1,3.0,2.0,2,3147,207011146,House,14.39816,0.6577200000000001,0.13613,,0.08183,,0.45807,,660.0
"1 FEDERAL STREET, FOOTSCRAY",-37.79563001,144.89719001,2019,9,3.0,1.0,2,3011,213031348,House,7.717899999999999,0.41918,0.7478400000000001,0.35436,0.99106,1.47992,1.54588,,480.0
"1 FEDERAL STREET, FOOTSCRAY",-37.79563001,144.89719001,2019,11,3.0,1.0,2,3011,213031348,House,7.717899999999999,0.41918,0.7478400000000001,0.35436,0.99106,1.47992,1.54588,,440.0
"1 FERNWOOD ROAD, NARRE WARREN",-38.014887,145.30045,2019,5,4.0,1.0,2,3805,212021456,House,42.14383,0.43357,1.04099,1.54879,2.41194,,,2.72218,350.0
"1 FERNWOOD ROAD, NARRE WARREN",-38.014887,145.30045,2019,6,4.0,1.0,2,3805,212021456,House,42.14383,0.43357,1.04099,1.54879,2.41194,,,2.72218,350.0
"1 FISHER STREET, WENDOUREE",-37.539457,143.839549,2019,1,3.0,2.0,2,3355,201011008,House,120.77516,1.07353,1.69146,2.84728,,,,2.4556,350.0
"1 FLETCHER LANE, CARLTON NORTH",-37.78517,144.972009,2019,2,2.0,1.0,1,3054,206071140,Apartment,3.54799,2.73797,0.90842,0.8438300000000001,,,,,580.0
"1 FLODDEN WAY, BRIAR HILL",-37.70438,145.118709,2019,6,5.0,2.0,2,3088,209011202,House,23.66491,0.45913,1.39166,2.1592800000000003,2.33231,,,,620.0
"1 GARETH AVENUE, BEAUMARIS",-37.985274,145.031747,2019,8,4.0,2.0,3,3193,208011168,House,23.10396,1.29266,0.79708,0.97819,,,0.33118,0.39177,1300.0
"1 GARETH AVENUE, BEAUMARIS",-37.985274,145.031747,2019,9,4.0,2.0,3,3193,208011168,House,23.10396,1.29266,0.79708,0.97819,,,0.33118,0.39177,1300.0
"1 GARETH AVENUE, BEAUMARIS",-37.985274,145.031747,2019,11,4.0,2.0,3,3193,208011168,House,23.10396,1.29266,0.79708,0.97819,,,0.33118,0.39177,1300.0
"1 GAYLE COURT, CLAYTON SOUTH",-37.957438,145.133572,2019,6,3.0,1.0,2,3169,212041310,House,28.87644,2.1666,2.5543400000000003,2.70697,3.12853,,,,350.0
"1 GAYLE COURT, CLAYTON SOUTH",-37.957438,145.133572,2019,7,3.0,1.0,2,3169,212041310,House,28.87644,2.1666,2.5543400000000003,2.70697,3.12853,,,,350.0
"1 GAYLE COURT, CLAYTON SOUTH",-37.957438,145.133572,2019,8,3.0,1.0,2,3169,212041310,House,28.87644,2.1666,2.5543400000000003,2.70697,3.12853,,,,350.0
"1 GILES COURT, WERRIBEE",-37.886405,144.672862,2019,8,3.0,2.0,2,3030,213051467,House,31.67049,1.66781,0.5382,1.61326,,,,,350.0
"1 GLADMAN COURT, KOROIT",-38.2895897,142.3664208,2019,4,3.0,1.0,2,3282,217041478,House,273.80253000000005,0.99163,0.62161,26.61841,7.82757,1.20263,0.5531200000000001,,360.0
"1 GLADMAN COURT, KOROIT",-38.2895897,142.3664208,2019,12,3.0,1.0,2,3282,217041478,House,273.80253000000005,0.99163,0.62161,26.61841,7.82757,1.20263,0.5531200000000001,,360.0
"1 GLENCAPLE COURT, ENDEAVOUR HILLS",-37.95955,145.26503,2019,8,4.0,1.0,2,3802,212021453,House,37.20388,0.73845,1.06147,3.02061,,,,,360.0
"1 GLENDA STREET, WENDOUREE",-37.5251787002,143.8341472002,2019,12,3.0,1.0,4,3355,201011008,House,120.96546,1.8521,0.27649,0.59585,,,,2.01812,340.0
"1 GLENEAGLES COURT, ROWVILLE",-37.91881705,145.22503679,2019,1,2.0,2.0,1,3178,211011256,House,34.81825,0.45359,1.42425,1.42733,,,,,370.0
"1 GLENEAGLES COURT, ROWVILLE",-37.91881705,145.22503679,2019,7,2.0,2.0,1,3178,211011256,House,34.81825,0.45359,1.42425,1.42733,,,,,370.0
"1 GLENEAGLES COURT, ROWVILLE",-37.91881705,145.22503679,2019,10,2.0,2.0,1,3178,211011256,House,34.81825,0.45359,1.42425,1.42733,,,,,370.0
"1 GOLDEN SPRINGS AVENUE, HEPBURN SPRINGS",-37.30699278,144.13984825,2019,3,2.0,1.0,1,3461,201021011,House,116.80947,1.65432,1.09393,5.64676,5.09114,3.79139,4.119689999999999,,325.0
"1 GOOSEBERRY MEWS, BERWICK",-38.030918,145.346115,2019,1,4.0,2.0,2,3806,212021293,House,45.67247,0.7808999999999999,0.82357,1.64478,1.61983,,0.82641,0.56488,400.0
"1 GOOSEBERRY MEWS, BERWICK",-38.030918,145.346115,2019,7,4.0,2.0,2,3806,212021293,House,45.67247,0.7808999999999999,0.82357,1.64478,1.61983,,0.82641,0.56488,410.0
"1 GOOSEBERRY MEWS, BERWICK",-38.030918,145.346115,2019,11,4.0,2.0,2,3806,212021293,House,45.67247,0.7808999999999999,0.82357,1.64478,1.61983,,0.82641,0.56488,400.0
"1 GOTTARD COURT, KEILOR DOWNS",-37.719462,144.805837,2019,2,3.0,2.0,2,3038,213011332,House,23.39874,1.15413,0.42943,0.84051,,,,,470.0
"1 GOTTARD COURT, KEILOR DOWNS",-37.719462,144.805837,2019,3,3.0,2.0,2,3038,213011332,House,23.39874,1.15413,0.42943,0.84051,,,,,470.0
"1 GOTTARD CT, KEILOR DOWNS",-37.719462,144.805837,2019,2,3.0,2.0,2,3038,213011332,House,23.39874,1.15413,0.42943,0.84051,,,,,470.0
"1 GOULBURN, SEYMOUR",-36.9870095002,145.1429518002,2019,11,2.0,1.0,1,3660,204011059,House,105.41491,4.97833,,4.78069,5.95449,4.50587,4.67923,,350.0
"1 GREENEY STREET, ALTONA",-37.857506,144.820605,2019,9,3.0,3.0,3,3018,213021341,House,21.26162,0.48148,0.60299,0.6415,1.46527,2.31455,,,500.0
"1 HAMMENCE STREET, GLEN WAVERLEY",-37.871997,145.169335,2019,1,2.0,1.0,1,3150,212051321,House,26.04323,2.19621,0.5142,2.44047,,,3.08995,,420.0
"1 HAMMOND COURT, ALTONA MEADOWS",-37.874014,144.768459,2019,6,3.0,1.0,4,3028,213021342,House,24.39823,0.79896,1.65685,,,,,,420.0
"1 HANDLEY COURT, BLACKBURN NORTH",-37.80611,145.162208,2019,10,3.0,1.0,2,3130,207031161,House,21.14669,0.7059099999999999,0.56752,1.35478,2.47648,,,1.5918599999999998,400.0
"1 HARRIET STREET, SEDDON",-37.809453,144.889103,2019,11,3.0,1.0,6,3011,213031350,House,8.05959,0.40925,,,1.46895,,,,590.0
"1 HARVARD CT, MILDURA",-34.19901001,142.17971001,2019,9,4.0,2.0,2,3500,215021469,House,542.837,0.35572,3.42796,2.69497,3.17196,5.71346,3.15071,,310.0
"1 HARVEY COURT, ROXBURGH PARK",-37.635317,144.924661,2019,9,4.0,2.0,2,3064,210051544,House,22.13128,,1.5593,1.91224,1.59351,,,,385.0
"1 HARVEY COURT, ROXBURGH PARK",-37.635317,144.924661,2019,10,4.0,2.0,2,3064,210051544,House,22.13128,,1.5593,1.91224,1.59351,,,,385.0
"1 HARVEY COURT, ROXBURGH PARK",-37.635317,144.924661,2019,11,4.0,2.0,2,3064,210051544,House,22.13128,,1.5593,1.91224,1.59351,,,,385.0
"1 HASTINGS AVENUE, BEAUMARIS",-37.979785,145.048482,2019,4,3.0,1.0,2,3193,208011168,House,23.62579,0.91917,1.05561,1.39715,,,2.09577,2.47798,600.0
"1 HAYDN COURT, AIREYS INLET",-38.4546953002,144.1108775002,2019,11,3.0,1.0,1,3231,203031049,House,122.91699,1.95959,11.18851,,,20.31679,10.54547,,410.0
"1 HEATH COURT, SOMERS",-38.388475,145.173982,2019,2,4.0,2.0,2,3927,214021379,House,86.54194,0.36583,1.61715,11.14347,7.07651,,10.59788,,500.0
"1 HERRIOT STREET, BUNINYONG",-37.6575138,143.892334,2019,12,5.0,2.0,4,3357,201011005,House,121.44124,0.95003,0.72933,,,,1.39329,,650.0
"1 HIGHFIELD COURT, TRARALGON",-38.1826771,146.5584388,2019,5,4.0,2.0,2,3844,205041493,House,167.11345,,3.42429,3.1841500000000003,4.56981,,3.49748,,380.0
"1 HIGHFIELD COURT, TRARALGON",-38.1826771,146.5584388,2019,6,4.0,2.0,2,3844,205041493,House,167.11345,,3.42429,3.1841500000000003,4.56981,,3.49748,,380.0
"1 HOBBS COURT, TONGALA",-36.245945,144.951545,2019,8,3.0,2.0,2,3621,216011407,House,213.02566,9.83074,0.92982,15.97323,1.22019,16.406029999999998,0.80562,,380.0
"1 HOBBS COURT, TONGALA",-36.245945,144.951545,2019,10,3.0,2.0,2,3621,216011407,House,213.02566,9.83074,0.92982,15.97323,1.22019,16.406029999999998,0.80562,,380.0
"1 HODDLE LINK, MANOR LAKES",-37.8708117002,144.6019706002,2019,7,4.0,2.0,2,3024,213051579,House,38.74009,,1.28425,,,,,,380.0
"1 HOMEBUSH DRIVE, JUNORTOUN",-36.77333001,144.37425001,2019,6,4.0,2.0,4,3551,202011024,House,160.22098,6.13284,6.07664,3.57898,,,,,495.0
"1 HOOP COURT, WAURN PONDS",-38.21066,144.308838,2019,2,3.0,2.0,2,3216,203021487,House,85.76147,0.4735899999999999,2.52585,1.99837,1.83388,,,,370.0
"1 HOWITT COURT, BERWICK",-38.02383,145.32452,2019,1,4.0,2.0,2,3806,212021293,House,44.87385,0.37847,1.13577,1.46357,3.63006,,3.27483,2.69639,390.0
"1 HOWITT COURT, BERWICK",-38.02383,145.32452,2019,7,4.0,2.0,2,3806,212021293,House,44.87385,0.37847,1.13577,1.46357,3.63006,,3.27483,2.69639,410.0
"1 HOWITT COURT, BERWICK",-38.02383,145.32452,2019,10,4.0,2.0,2,3806,212021293,House,44.87385,0.37847,1.13577,1.46357,3.63006,,3.27483,2.69639,385.0
"1 HOWITT COURT, BERWICK",-38.02383,145.32452,2019,12,4.0,2.0,2,3806,212021293,House,44.87385,0.37847,1.13577,1.46357,3.63006,,3.27483,2.69639,390.0
"1 HUGHES STREET, CORINELLA",-38.414912,145.426079,2019,10,3.0,2.0,1,3984,205031093,House,113.38277,5.93304,0.95027,34.47618,12.57516,36.64767,14.21021,,290.0
"1 IRVINE AVENUE, MOUNT MARTHA",-38.273902,145.009397,2019,4,4.0,2.0,2,3934,214021382,House,78.68727,0.75039,1.43512,,,,,,950.0
"1 JENSEN CRT, ECHUCA",-36.136534,144.743127,2019,7,3.0,2.0,2,3564,216011406,House,210.26811,2.1164,0.74566,2.1111500000000003,2.8926,0.70431,2.26622,,340.0
"1 JENSEN CRT, ECHUCA",-36.136534,144.743127,2019,8,3.0,2.0,2,3564,216011406,House,210.26811,2.1164,0.74566,2.1111500000000003,2.8926,0.70431,2.26622,,340.0
"1 JIANNI WAY, BERWICK",-38.0682793,145.3322669,2019,11,3.0,2.0,2,3806,212021554,House,48.95684,,3.0318400000000003,,,,,,410.0
"1 JOYBELLE WAY, SOUTH MORANG",-37.6497879002,145.0999841002,2019,9,4.0,2.0,2,3752,209041436,House,25.90315,,1.9583,3.65996,3.87012,,,,500.0
"1 KEITH CRESCENT, BROADMEADOWS",-37.693253,144.926074,2019,4,4.0,1.0,3,3047,210051242,House,15.30947,0.09001,0.7269500000000001,1.66675,1.74801,,2.54672,2.7476700000000003,355.0
"1 KENDALL DRIVE, NARRE WARREN",-38.001206,145.304827,2019,2,3.0,2.0,2,3805,212021455,House,41.37531,2.44149,0.40869,,,,,,395.0
"1 KENDALL DRIVE, NARRE WARREN",-38.001206,145.304827,2019,3,3.0,2.0,2,3805,212021455,House,41.37531,2.44149,0.40869,,,,,,395.0
"1 KENDALL DRIVE, NARRE WARREN",-38.001206,145.304827,2019,5,3.0,2.0,2,3805,212021455,House,41.37531,2.44149,0.40869,,,,,,380.0
"1 KEOGH STREET, BURWOOD",-37.855697,145.110241,2019,8,3.0,1.0,2,3125,212051319,House,16.27554,1.09052,1.75169,2.28164,,,,,350.0
"1 KEPPEL COURT, MARYSVILLE",-37.540113,145.752606,2019,6,3.0,1.0,3,3779,204011054,House,102.59998,6.37354,5.61059,41.64961,47.53482,47.23679,5.5488800000000005,,400.0
"1 KIRBY COURT, ST ALBANS",-37.751234,144.802731,2019,3,3.0,1.0,2,3021,213011335,House,23.75267,0.90334,1.03838,2.08503,1.32481,,,,340.0
"1 KRAMER RISE, WIMBLEDON HEIGHTS",-38.478954,145.233125,2019,3,2.0,1.0,0,3922,205031091,House,137.97292000000002,3.56176,4.09808,4.29293,,,4.76121,,275.0
"1 LAKE ROAD, DAYLESFORD",-37.35237,144.140881,2019,5,2.0,1.0,1,3460,201021011,House,111.33885,1.15101,0.8764299999999999,2.76338,2.2077600000000004,2.06856,1.42162,,380.0
"1 LALOR STREET, BALLARAT EAST",-37.566136,143.893852,2019,2,3.0,1.0,2,3350,201011481,House,112.39206,0.89206,1.35829,0.84204,1.35843,,,,295.0
"1 LAMONT AVENUE, THE PATCH",-37.886377,145.389591,2019,9,3.0,2.0,9,3792,211051282,House,52.374300000000005,2.46122,1.25567,,,,8.03039,,600.0
"1 LAMONT CRESCENT, CRANBOURNE",-38.101113,145.270832,2019,6,3.0,1.0,1,3977,212031300,House,52.92896,2.43668,0.31872,1.97918,1.46128,,2.51929,2.0352,360.0
"1 LAMONT CRESCENT, CRANBOURNE",-38.101113,145.270832,2019,8,3.0,1.0,1,3977,212031300,House,52.92896,2.43668,0.31872,1.97918,1.46128,,2.51929,2.0352,340.0
"1 LANDSBOROUGH AVENUE, ROWVILLE",-37.906465,145.256211,2019,8,3.0,2.0,2,3178,211011257,House,37.04864,1.53707,0.83384,,,,,,460.0
"1 LANDSBOROUGH AVENUE, ROWVILLE",-37.906465,145.256211,2019,9,3.0,2.0,2,3178,211011257,House,37.04864,1.53707,0.83384,,,,,,440.0
"1 LAURA AVENUE, BELMONT",-38.180279,144.33625,2019,3,3.0,1.0,0,3216,203021037,House,87.75972999999999,0.84534,0.64177,0.9489,,,,,360.0
"1 LAURISTON COURT, MULGRAVE",-37.92757001,145.15877001,2019,11,3.0,1.0,2,3170,212051325,House,26.31842,2.8099000000000003,0.89173,1.69597,,,,,430.0
"1 LAURISTON COURT, MULGRAVE",-37.92757001,145.15877001,2019,12,3.0,1.0,2,3170,212051325,House,26.31842,2.8099000000000003,0.89173,1.69597,,,,,430.0
"1 LOGAN COURT, SHEPPARTON",-36.40334959,145.41214044,2019,1,3.0,1.0,1,3630,216031594,House,180.23405,2.53548,0.93964,0.92062,2.9661,,4.003340000000001,,250.0
"1 LONSDALE AVENUE, HAMPTON EAST",-37.938004,145.027623,2019,7,2.0,1.0,2,3188,208011172,House,19.17839,0.27863,0.27085,2.41645,3.4615500000000003,3.86353,,,525.0
"1 LUSCOMBE AVENUE, CARRUM DOWNS",-38.093354,145.178367,2019,11,3.0,1.0,2,3201,214011370,House,47.40962,1.73233,1.05534,3.801,,,,,360.0
"1 LYNE STREET, TOORADIN",-38.2093425,145.3758946,2019,5,4.0,2.0,2,3980,212031308,House,70.93378,9.32885,0.81372,,5.017060000000001,,,,450.0
"1 LYNE STREET, TOORADIN",-38.2093425,145.3758946,2019,6,4.0,2.0,2,3980,212031308,House,70.93378,9.32885,0.81372,,5.017060000000001,,,,450.0
"1 LYNE STREET, TOORADIN",-38.2093425,145.3758946,2019,11,4.0,2.0,2,3980,212031308,House,70.93378,9.32885,0.81372,,5.017060000000001,,,,450.0
"1 LYNETTE CRESCENT, LALOR",-37.658924,145.006936,2019,5,3.0,2.0,1,3075,209041530,House,19.94846,,1.17079,1.72127,1.91117,,,,400.0
"1 MACARTHUR STREET, WARRAGUL",-38.153383,145.93769,2019,8,4.0,2.0,1,3820,205011079,House,104.77802,0.13722,1.06368,3.137,2.39629,3.43676,1.77272,,390.0
"1 MACDONALD STREET, BALLARAT",-37.5673024002,143.8707301002,2019,12,3.0,1.0,3,3350,201011481,House,114.44871,1.61369,0.35939,0.6963400000000001,1.48388,,,,320.0
"1 MACKINNON STREET, CORRYONG",-36.1949011,147.902342,2019,3,3.0,1.0,1,3707,204031072,House,434.05109,1.51581,0.5806399999999999,1.1239100000000002,13.98559,0.5009,0.21988,,200.0
"1 MADDERN STREET, BLACK HILL",-37.546449,143.87018,2019,1,3.0,2.0,2,3350,201011482,House,114.73088,1.43039,0.73034,4.636640000000001,2.4403,,,,350.0
"1 MAGNOLIA AVENUE, KINGS PARK",-37.731114,144.780272,2019,5,3.0,1.0,2,3021,213011333,House,25.94022,0.39192,1.07755,1.46561,,,,,310.0
"1 MAGNOLIA WAY, PAYNESVILLE",-37.905068,147.713867,2019,8,5.0,2.0,2,3880,205021086,House,292.72059,1.3263699999999998,1.3563,,,,,,440.0
"1 MAGNOLIA WAY, PAYNESVILLE",-37.905068,147.713867,2019,9,5.0,2.0,2,3880,205021086,House,292.72059,1.3263699999999998,1.3563,,,,,,440.0
"1 MAGPIE STREET, BALLARAT",-37.571538,143.865059,2019,5,3.0,1.0,1,3350,201011483,House,114.85438,0.30993,0.57266,0.7984600000000001,,,,,290.0
"1 MAGPIE STREET, BALLARAT",-37.571538,143.865059,2019,10,3.0,1.0,1,3350,201011483,House,114.85438,0.30993,0.57266,0.7984600000000001,,,,,290.0
"1 MAGPIE STREET, GOLDEN POINT",-37.571538,143.865059,2019,4,3.0,1.0,3,3451,201011483,House,114.85438,0.30993,0.57266,0.7984600000000001,,,,,300.0
"1 MAGPIE STREET, GOLDEN POINT",-37.571538,143.865059,2019,5,3.0,1.0,3,3451,201011483,House,114.85438,0.30993,0.57266,0.7984600000000001,,,,,300.0
"1 MAGPIE STREET, GOLDEN POINT",-37.571538,143.865059,2019,11,3.0,1.0,3,3451,201011483,House,114.85438,0.30993,0.57266,0.7984600000000001,,,,,290.0
"1 MALCALM AVENUE, SURF BEACH",-38.5052847,145.2800819,2019,3,4.0,2.0,3,3922,205031091,House,132.56791,5.08569,7.78088,3.03094,,,8.76707,,390.0
"1 MARIA PLACE, EASTWOOD",-37.81751001,147.64421001,2019,6,3.0,2.0,2,3875,205021081,House,283.69725,1.27232,1.9177,3.21008,3.39477,5.82095,2.34433,,340.0
"1 MARIGOLD STREET, WENDOUREE",-37.5324266,143.817674,2019,6,3.0,1.0,2,3355,201011008,House,121.36514,0.65292,0.4855299999999999,0.71086,,,,0.90758,260.0
"1 MARKS COURT, HARKAWAY",-38.006182,145.350817,2019,8,3.0,2.0,4,3806,212021299,House,47.29963,1.47877,1.2455999999999998,,,,,,550.0
"1 MARY BRYANT COURT, MILL PARK",-37.659852,145.052124,2019,2,4.0,2.0,2,3082,209041220,House,22.667060000000003,,0.3706,2.5365100000000003,,,,,380.0
"1 MARY RD, WANDIN NORTH",-37.7859315,145.4321353,2019,7,3.0,2.0,2,3139,211051285,House,49.79489,,0.7367100000000001,,,,,,500.0
"1 MARY RD, WANDIN NORTH",-37.7859315,145.4321353,2019,8,3.0,2.0,2,3139,211051285,House,49.79489,,0.7367100000000001,,,,,,500.0
"1 MARY STREET, WARRAGUL",-38.156679,145.933467,2019,7,4.0,2.0,6,3820,205011079,House,104.48826,0.5791499999999999,0.8702000000000001,1.85709,1.2073,2.29302,0.70225,,410.0
"1 MAURICE STREET, HERNE HILL",-38.1292229,144.320758,2019,7,3.0,1.0,2,3218,203021040,House,75.92033,0.47297,1.32885,1.0958,,,,,340.0
"1 MEADOWS COURT, CHADSTONE",-37.89028,145.099665,2019,5,3.0,2.0,4,3148,212051319,House,18.54473,2.29349,2.12407,1.95715,,,,,420.0
"1 MERION COURT, ROWVILLE",-37.921374,145.222049,2019,12,4.0,2.0,3,3178,211011256,House,34.77807,0.97348,1.38407,1.38715,,,,,630.0
"1 MEYER STREET, DONALD",-36.367891,142.984855,2019,10,3.0,1.0,1,3480,215031400,House,277.92206,1.17699,0.07446,1.40223,0.34929,1.46047,0.91349,,220.0
"1 MIDDLETON DRIVE, WOORI YALLOCK",-37.781002,145.539866,2019,8,3.0,1.0,3,3139,211051286,House,59.29755,0.74056,1.22272,9.26268,,,7.0736300000000005,,330.0
"1 MINIATA WAY, MANOR LAKES",-37.8689528,144.5922793,2019,2,4.0,2.0,2,3024,213051579,House,40.13479,,2.40147,,,,,,400.0
"1 MINIATA WAY, MANOR LAKES",-37.8689528,144.5922793,2019,3,4.0,2.0,2,3024,213051579,House,40.13479,,2.40147,,,,,,380.0
"1 MINIATA WAY, MANOR LAKES",-37.8689528,144.5922793,2019,10,4.0,2.0,2,3024,213051579,House,40.13479,,2.40147,,,,,,370.0
"1 MINIATA WAY, MANOR LAKES",-37.8689528,144.5922793,2019,11,4.0,2.0,2,3024,213051579,House,40.13479,,2.40147,,,,,,340.0
"1 MITCHELL ST, COBDEN",-38.33209993,143.0734991,2019,4,4.0,1.0,0,3266,217031475,House,201.35892,0.34504,0.8784400000000001,1.88467,1.51476,32.85281,0.55586,,270.0
"1 MITCHELL STREET, COBDEN",-38.3321,143.073485,2019,4,4.0,1.0,2,3266,217031475,House,201.36014,0.34382,0.87966,1.88589,1.51598,32.85402,0.55708,,270.0
"1 MITCHELL STREET, MARIBYRNONG",-37.783998,144.890237,2019,8,5.0,1.0,3,3032,213031349,House,9.22665,0.487,1.99524,0.6989099999999999,,,,1.3203399999999998,520.0
"1 MONASH PLACE, CANADIAN",-37.5914724,143.868372,2019,6,3.0,1.0,2,3350,201011483,House,117.5436,1.05782,1.82836,2.38699,,,,,243.0
"1 MOODIE STREET, TRENTHAM",-37.394744,144.32419,2019,9,3.0,2.0,1,3458,201021011,House,93.1667,16.09823,0.98085,24.15237,1.17987,1.57312,0.8047300000000001,,500.0
"1 MORNANE STREET, PRESTON",-37.750015,145.018539,2019,4,2.0,1.0,2,3072,209021428,House,10.63365,1.71586,1.01046,1.70251,2.3215700000000004,1.44033,1.96699,2.7263200000000003,490.0
"1 MORNANE STREET, PRESTON",-37.750015,145.018539,2019,5,2.0,1.0,2,3072,209021428,House,10.63365,1.71586,1.01046,1.70251,2.3215700000000004,1.44033,1.96699,2.7263200000000003,490.0
"1 MORVEN AVENUE, TECOMA",-37.899939,145.351069,2019,9,3.0,1.0,1,3160,211051284,House,45.73395,2.30511,1.37266,2.7786500000000003,1.49788,,,,520.0
"1 MOUNT BARRON STREET, BALNARRING",-38.36829193,145.13180788,2019,7,3.0,1.0,1,3926,214021379,House,83.05966000000001,1.17593,1.3831,9.2226,5.63433,,9.11599,,480.0
"1 MOUNT BARRON STREET, BALNARRING",-38.36829193,145.13180788,2019,8,3.0,1.0,1,3926,214021379,House,83.05966000000001,1.17593,1.3831,9.2226,5.63433,,9.11599,,480.0
"1 MURRAY STREET, MORNINGTON",-38.2195749,145.0418503,2019,6,3.0,2.0,2,3931,214021592,House,72.69796000000001,0.29997,0.55579,1.66146,,,0.86513,,440.0
"1 MUSSERT AVE, DINGLEY VILLAGE",-37.983033,145.130225,2019,9,4.0,2.0,2,3172,212041313,House,31.91766,0.51767,0.36143,,,,,,580.0
"1 NANTA COURT, SEBASTOPOL",-37.5967,143.845251,2019,4,3.0,2.0,1,3356,201011484,House,119.26985,1.03384,0.07325,1.10434,,,,,280.0
"1 NANTA COURT, SEBASTOPOL",-37.5967,143.845251,2019,5,3.0,2.0,1,3356,201011484,House,119.26985,1.03384,0.07325,1.10434,,,,,280.0
"1 NEVIS STREET, CAMBERWELL",-37.842707,145.07858,2019,1,4.0,2.0,3,3124,207011149,House,13.83857,0.27376,0.91112,2.2631,1.55149,,3.23446,,740.0
"1 NEWELL COURT, CAMPBELLS CREEK",-37.1018821,144.2046695,2019,4,4.0,2.0,2,3451,202021027,House,133.53255,2.60893,1.1902,1.73743,5.40274,6.712350000000001,5.30335,,425.0
"1 NEWELL COURT, CAMPBELLS CREEK",-37.1018821,144.2046695,2019,9,4.0,2.0,2,3451,202021027,House,133.53255,2.60893,1.1902,1.73743,5.40274,6.712350000000001,5.30335,,425.0
"1 NEWRY STREET, FITZROY NORTH",-37.790095,144.976855,2019,7,2.0,1.0,0,3068,206071143,Apartment,3.4270500000000004,1.12422,0.45598,0.38259,2.34562,,,,620.0
"1 NIRVANA CRESCENT, BULLEEN",-37.768327,145.094414,2019,1,4.0,2.0,3,3105,207021156,House,15.19033,1.07963,0.51563,2.67057,,,,0.53577,465.0
"1 NIRVANA CRESCENT, BULLEEN",-37.768327,145.094414,2019,7,4.0,2.0,3,3105,207021156,House,15.19033,1.07963,0.51563,2.67057,,,,0.53577,465.0
"1 NORHAM COURT, BERWICK",-38.046962,145.342112,2019,6,3.0,1.0,2,3806,212021553,House,46.83197,0.72021,1.07272,1.16188,,,,,340.0
"1 OCEANVIEW CRESCENT, SOMERS",-38.391311,145.163586,2019,5,3.0,2.0,3,3927,214021379,House,86.3515,0.35208,0.16966,12.51444,8.92617,,12.40783,,525.0
"1 PARK AVENUE, KEW",-37.795835,145.029662,2019,11,4.0,3.0,6,3101,207011522,House,9.24436,1.28972,1.89556,2.93534,,2.81382,,1.13584,1250.0
"1 PARK AVENUE, KEW",-37.795835,145.029662,2019,12,4.0,3.0,6,3101,207011522,House,9.24436,1.28972,1.89556,2.93534,,2.81382,,1.13584,1250.0
"1 PEGLAR AVENUE, MILDURA",-34.172799,142.155454,2019,9,3.0,1.0,2,3500,215021469,House,545.54556,0.35541,1.0955899999999998,2.59346,1.4373699999999998,1.99261,2.5122,,350.0
"1 PEGLAR AVENUE, MILDURA",-34.172799,142.155454,2019,10,3.0,1.0,2,3500,215021469,House,545.54556,0.35541,1.0955899999999998,2.59346,1.4373699999999998,1.99261,2.5122,,350.0
"1 PEREGRINE DRIVE, KINGLAKE WEST",-37.480382,145.261343,2019,3,3.0,1.0,0,3757,209031211,House,63.16566,25.21577,0.2415,,,,,,350.0
"1 PHAIR COURT, ALTONA",-37.863533,144.814198,2019,2,3.0,1.0,1,3018,213021341,House,20.27775,0.49891,0.6449199999999999,0.32735,0.31631,2.25304,,,430.0
"1 PHILLIP CL, LILYDALE",-37.7590251002,145.3362559002,2019,6,3.0,3.0,2,3140,211051278,House,39.35396,2.54494,0.88448,1.96617,1.71477,,0.7432000000000001,,490.0
"1 PHILLIP CLOSE, LILYDALE",-37.75912001,145.33639001,2019,6,3.0,3.0,2,3140,211051278,House,39.34048000000001,2.53145,0.871,1.95268,1.70129,,0.72972,,490.0
"1 PORTSMOUTH CRESCENT, GROVEDALE",-38.206322,144.329373,2019,3,4.0,1.0,1,3216,203021487,House,86.83684,0.6158899999999999,0.4196,0.6292000000000001,2.71124,,,,430.0
"1 PREMIER COURT, ALTONA MEADOWS",-37.880803,144.766846,2019,11,3.0,2.0,2,3028,213021342,House,25.32511,1.72395,2.28555,,,,,,400.0
"1 PREMIER COURT, ALTONA MEADOWS",-37.880803,144.766846,2019,12,3.0,2.0,2,3028,213021342,House,25.32511,1.72395,2.28555,,,,,,400.0
"1 PRINCETOWN ROAD, SIMPSON",-38.4991151,143.2091854,2019,4,3.0,1.0,1,3266,217031475,House,198.09577,0.35367,0.45931,25.84703,25.47712,30.41601,24.51822,,185.0
"1 PROSPECT COURT, RINGWOOD",-37.806874,145.238133,2019,3,3.0,1.0,1,3134,211031266,House,29.88306,2.64028,3.00313,3.31996,3.12668,,3.29965,2.87293,400.0
"1 READ STREET, COLERAINE",-37.597815,141.696046,2019,4,2.0,1.0,2,3315,217011423,House,344.38494000000003,0.6467999999999999,0.85057,42.31437,0.88178,1.61053,13.57522,,160.0
"1 READ STREET, COLERAINE",-37.597815,141.696046,2019,5,2.0,1.0,2,3315,217011423,House,344.38494000000003,0.6467999999999999,0.85057,42.31437,0.88178,1.61053,13.57522,,160.0
"1 REDAN STREET, BENDIGO",-36.7485712,144.2730355,2019,2,3.0,2.0,1,3550,202011018,House,153.36783,0.7784099999999999,0.5905900000000001,0.71068,2.63708,1.57416,2.68014,1.81124,380.0
"1 REDAN STREET, BENDIGO",-36.7485712,144.2730355,2019,3,3.0,2.0,1,3550,202011018,House,153.36783,0.7784099999999999,0.5905900000000001,0.71068,2.63708,1.57416,2.68014,1.81124,380.0
"1 ROADKNIGHT LANE, TORQUAY",-38.3419249,144.2374759,2019,2,3.0,2.0,1,3228,203031053,House,104.64116,3.51014,3.81611,10.51649,,,10.17719,8.34132,495.0
"1 ROADKNIGHT LANE, TORQUAY",-38.3419249,144.2374759,2019,4,3.0,2.0,1,3228,203031053,House,104.64116,3.51014,3.81611,10.51649,,,10.17719,8.34132,495.0
"1 ROBERT COURT, EASTWOOD",-37.8125143,147.6433974,2019,4,3.0,2.0,2,3875,205021081,House,284.69956,2.11879,2.03037,5.22041,4.81425,5.93363,3.7638,,390.0
"1 ROBERT COURT, EASTWOOD",-37.8125143,147.6433974,2019,6,3.0,2.0,2,3875,205021081,House,284.69956,2.11879,2.03037,5.22041,4.81425,5.93363,3.7638,,390.0
"1 ROCKE STREET, IVANHOE",-37.772591,145.039593,2019,4,4.0,1.0,1,3079,209011200,House,10.83556,0.44161,0.16919,,0.36968,0.14534,,,550.0
"1 ROCKE STREET, IVANHOE",-37.772591,145.039593,2019,5,4.0,1.0,1,3079,209011200,House,10.83556,0.44161,0.16919,,0.36968,0.14534,,,550.0
"1 ROSA AVENUE, SPRINGVALE",-37.958791,145.162751,2019,8,3.0,1.0,1,3171,212041317,House,35.38232,1.97111,0.96533,1.29612,0.33565,,1.43003,,390.0
"1 ROSA AVENUE, SPRINGVALE",-37.958791,145.162751,2019,10,3.0,1.0,1,3171,212041317,House,35.38232,1.97111,0.96533,1.29612,0.33565,,1.43003,,390.0
"1 ROSE AVENUE, BULLEEN",-37.768804,145.099953,2019,11,4.0,2.0,2,3105,207021156,House,14.8451,1.71304,0.84929,2.32534,,,,1.0478599999999998,825.0
"1 ROSE STREET, PASCOE VALE",-37.716409,144.943251,2019,1,2.0,1.0,1,3044,210031538,Apartment,12.30829,0.43925,0.78547,0.5721799999999999,,,,,365.0
"1 ROSEHILL ROAD, ESSENDON WEST",-37.74905,144.890166,2019,10,4.0,1.0,2,3040,210011230,House,11.25418,0.85857,0.74227,0.60864,,,,,465.0
"1 ROSEHILL ROAD, ESSENDON WEST",-37.74905,144.890166,2019,11,4.0,1.0,2,3040,210011230,House,11.25418,0.85857,0.74227,0.60864,,,,,465.0
"1 ROSSDELL STREET, PORTLAND",-38.3576334,141.6171253,2019,4,3.0,1.0,4,3305,217011422,House,363.67156,1.77522,1.61132,2.51154,1.7978299999999998,3.2552600000000003,2.04745,,250.0
"1 ROSSDELL STREET, PORTLAND",-38.3576334,141.6171253,2019,5,3.0,1.0,4,3305,217011422,House,363.67156,1.77522,1.61132,2.51154,1.7978299999999998,3.2552600000000003,2.04745,,250.0
"1 RUPERT COURT, BROADMEADOWS",-37.692473,144.923949,2019,8,3.0,1.0,2,3047,210051242,House,15.46066,0.17968,0.73766,1.67746,1.75872,,2.55743,2.7583800000000003,350.0
"1 SADLER COURT, ALLANSFORD",-38.386904,142.608386,2019,1,2.0,1.0,1,3277,217041480,House,246.59973,1.00801,1.75419,13.554,1.08124,14.28268,1.64246,,280.0
"1 SARA DRIVE, WHEELERS HILL",-37.9146431,145.1914838,2019,9,3.0,2.0,1,3150,212051327,House,27.85296,1.0557999999999998,0.84819,1.50994,,,,3.47744,560.0
"1 SARA DRIVE, WHEELERS HILL",-37.9146431,145.1914838,2019,10,3.0,2.0,1,3150,212051327,House,27.85296,1.0557999999999998,0.84819,1.50994,,,,3.47744,545.0
"1 SARGES MEWS, LILYDALE",-37.7602001,145.33951001,2019,9,2.0,2.0,1,3140,211051278,House,40.55975,1.78985,1.5248,0.42242,0.93714,,0.95497,,370.0
"1 SEDGWICK COURT, LYNBROOK",-38.0576755,145.2599004,2019,7,3.0,2.0,2,3975,212031306,House,44.20676,1.38319,1.07857,,3.65984,,,,420.0
"1 SHABA COURT, MEADOW HEIGHTS",-37.641499,144.923118,2019,9,3.0,1.0,1,3048,210051247,House,21.49165,1.56427,1.35451,,,,,,410.0
"1 SHABA COURT, MEADOW HEIGHTS",-37.641499,144.923118,2019,11,3.0,1.0,1,3048,210051247,House,21.49165,1.56427,1.35451,,,,,,410.0
"1 SHABA COURT, ROXBURGH PARK",-37.64136001,144.92304001,2019,9,3.0,1.0,1,3064,210051247,House,21.508560000000003,1.58118,1.37142,,,,,,410.0
"1 SHABA COURT, ROXBURGH PARK",-37.64136001,144.92304001,2019,10,3.0,1.0,1,3064,210051247,House,21.508560000000003,1.58118,1.37142,,,,,,410.0
"1 SHABA COURT, ROXBURGH PARK",-37.64136001,144.92304001,2019,11,3.0,1.0,1,3064,210051247,House,21.508560000000003,1.58118,1.37142,,,,,,410.0
"1 SHABA CRT, ROXBURGH PARK",-37.64136001,144.92304001,2019,11,3.0,1.0,1,3064,210051247,House,21.508560000000003,1.58118,1.37142,,,,,,410.0
"1 SHABA CT, ROXBURGH PARK",-37.64136001,144.92304001,2019,11,3.0,1.0,1,3064,210051247,House,21.508560000000003,1.58118,1.37142,,,,,,410.0
"1 SHADA COURT, HOPPERS CROSSING",-37.849791,144.675957,2019,5,4.0,2.0,1,3029,213051361,House,30.52858,5.226109999999999,2.98904,1.82872,5.70408,,,,350.0
"1 SHADA COURT, HOPPERS CROSSING",-37.849791,144.675957,2019,6,4.0,2.0,1,3029,213051361,House,30.52858,5.226109999999999,2.98904,1.82872,5.70408,,,,350.0
"1 SHADA COURT, HOPPERS CROSSING",-37.849791,144.675957,2019,7,4.0,2.0,1,3029,213051361,House,30.52858,5.226109999999999,2.98904,1.82872,5.70408,,,,360.0
"1 SHADA COURT, HOPPERS CROSSING",-37.849791,144.675957,2019,8,4.0,2.0,1,3029,213051361,House,30.52858,5.226109999999999,2.98904,1.82872,5.70408,,,,350.0
"1 SHELLEY STREET, HEIDELBERG HEIGHTS",-37.743656,145.050636,2019,7,4.0,1.0,1,3081,209011199,House,14.18151,0.28424,0.57884,1.35984,,,0.5712,,385.0
"1 SHORT STREET, BOX HILL",-37.820046,145.133778,2019,5,3.0,1.0,2,3128,207031163,House,21.51594,0.33905,0.48208,0.77066,1.39452,1.86634,0.73862,1.3682,450.0
"1 SHORT STREET, BOX HILL",-37.820046,145.133778,2019,6,3.0,1.0,2,3128,207031163,House,21.51594,0.33905,0.48208,0.77066,1.39452,1.86634,0.73862,1.3682,450.0
"1 SMITH STREET, KENSINGTON",-37.791094,144.930654,2019,7,2.0,1.0,0,3031,206041121,House,4.59539,0.63546,0.8304199999999999,0.72194,0.56491,,,,600.0
"1 SOMERS STREET, PLUMPTON",-37.7010076,144.7247711,2019,12,4.0,2.0,2,3335,213041574,House,30.34091,8.376299999999999,7.804939999999999,1.92796,,,,,420.0
"1 SPLIT COURT, LEOPOLD",-38.1864688,144.4591143,2019,9,4.0,2.0,2,3224,203021044,House,90.10388,0.19796,1.0523699999999998,,,,,,470.0
"1 SPLIT COURT, LEOPOLD",-38.1864688,144.4591143,2019,10,4.0,2.0,2,3224,203021044,House,90.10388,0.19796,1.0523699999999998,,,,,,470.0
"1 ST JOHNS WOOD, SKYE",-38.092622,145.1992,2019,2,3.0,2.0,2,3977,214011376,House,47.33167,,3.42131,,,,,,420.0
"1 ST MICHAELS PLACE, LAKE GARDENS",-37.546759,143.819711,2019,11,4.0,2.0,2,3355,201011002,House,122.53688,0.35449,2.9041,1.35092,1.5403,3.89466,5.12859,,420.0
"1 STANTON COURT, GLEN WAVERLEY",-37.884283,145.18824,2019,10,4.0,2.0,2,3150,212051321,House,26.69332,1.4000899999999998,0.8316699999999999,3.13355,,,1.99614,,610.0
"1 STATION ROAD, WILLIAMSTOWN",-37.856726,144.892224,2019,4,3.0,1.0,0,3016,213021346,House,13.54212,0.49887,0.29024,0.6667000000000001,1.44362,1.02702,2.03365,,600.0
"1 STATION STREET, CAMPBELLS CREEK",-37.09701538,144.20359802,2019,8,3.0,1.0,2,3451,202021027,House,132.97425,2.05064,0.63191,1.17913,4.84445,6.15405,4.74505,,350.0
"1 STATION STREET, CAMPBELLS CREEK",-37.09701538,144.20359802,2019,9,3.0,1.0,2,3451,202021027,House,132.97425,2.05064,0.63191,1.17913,4.84445,6.15405,4.74505,,350.0
"1 STATION STREET, KEW EAST",-37.799287,145.054401,2019,5,4.0,3.0,2,3102,207011154,House,10.11579,1.16127,0.74698,1.3359100000000002,,,,1.45615,730.0
"1 STEELE COURT, TRARALGON",-38.19212,146.519349,2019,3,3.0,1.0,2,3844,205041494,House,163.50164,,0.70201,0.08326,,2.72962,,,290.0
"1 STEELE COURT, TRARALGON",-38.19212,146.519349,2019,6,3.0,1.0,2,3844,205041494,House,163.50164,,0.70201,0.08326,,2.72962,,,330.0
"1 STRATHEARN AVENUE, COBURG",-37.754017,144.956352,2019,5,4.0,1.0,1,3058,206011498,House,7.94698,0.55465,1.02705,3.40721,0.68311,,2.8478600000000003,,595.0
"1 STREETON COURT, ROWVILLE",-37.931545,145.23441,2019,11,3.0,1.0,2,3178,211011258,House,33.52376,1.14968,0.87349,,,,,,375.0
"1 SWINDON CRESCENT, KEILOR DOWNS",-37.71745001,144.81128001,2019,10,3.0,2.0,2,3038,213011332,House,23.42988,0.76658,0.18018,0.2308899999999999,,,,,400.0
"1 TAIT STREET, FOOTSCRAY",-37.790898,144.896092,2019,3,3.0,1.0,1,3011,213031348,House,8.04362,0.31562,1.41085,0.30674,1.65216,1.61251,2.20698,,430.0
"1 TAIT STREET, FOOTSCRAY",-37.790898,144.896092,2019,4,3.0,1.0,1,3011,213031348,House,8.04362,0.31562,1.41085,0.30674,1.65216,1.61251,2.20698,,440.0
"1 TERRELL CLOSE, ENDEAVOUR HILLS",-37.975853,145.24725,2019,12,4.0,2.0,2,3802,212021454,House,34.39029,0.94359,0.4382799999999999,1.80911,,,,2.4295,415.0
"1 THE BOULEVARD, SALE",-38.0997875,146.9890961,2019,8,4.0,2.0,2,3850,205051102,House,206.28039,7.00428,9.35714,,6.90074,,19.62954,,400.0
"1 THUNDER STREET, BENDIGO",-36.747156,144.284124,2019,11,2.0,1.0,3,3550,202011018,House,152.61764000000002,0.68561,0.68461,1.32582,2.92139,0.55415,3.2032800000000003,2.09564,325.0
"1 TIMOR COURT, COOLAROO",-37.662865,144.933269,2019,8,3.0,1.0,2,3048,210051243,House,19.648,1.1004500000000002,0.33322,1.50155,0.97777,,,2.16741,370.0
"1 TOM ROBERTS CRES, YALLAMBIE",-37.728124,145.090543,2019,2,3.0,2.0,2,3085,209011203,House,18.3199,1.86694,1.45301,2.2491,2.69387,,,,500.0
"1 TRIPLETT AVENUE, ASCOT",-36.697832,144.3265121,2019,6,4.0,2.0,2,3551,202011025,House,159.81303,2.28911,2.24651,6.189970000000001,2.4568600000000003,,,,350.0
"1 TUKKI COURT, PORTLAND",-38.356407,141.591893,2019,8,5.0,2.0,4,3305,217011422,House,361.65159,1.75144,0.27884,0.6988,4.58144,4.27391,2.64019,,540.0
"1 TWEED STREET, RINGWOOD EAST",-37.816044,145.246887,2019,11,4.0,1.0,4,3135,211031267,House,29.6738,0.03503,0.73714,2.83578,0.64174,1.83129,,,400.0
"1 TWEED STREET, RINGWOOD EAST",-37.816044,145.246887,2019,12,4.0,1.0,4,3135,211031267,House,29.6738,0.03503,0.73714,2.83578,0.64174,1.83129,,,400.0
"1 UNION PLACE, CARLTON",-37.796575,144.965627,2019,2,2.0,1.0,1,3053,206041117,House,1.9702,0.67711,1.2662,1.49528,1.88481,,0.44545,,590.0
"1 UNION PLACE, CARLTON",-37.796575,144.965627,2019,3,2.0,1.0,1,3053,206041117,House,1.9702,0.67711,1.2662,1.49528,1.88481,,0.44545,,590.0
"1 VARDON AVENUE, BEAUMARIS",-37.973881,145.041375,2019,1,3.0,2.0,2,3193,208011168,House,22.67687,1.2309,0.51554,1.10858,,,1.8072,2.18941,900.0
"1 VICTORY AVE, WANDIN NORTH",-37.7840996002,145.4293249002,2019,12,3.0,2.0,4,3139,211051285,House,49.78314,,1.25897,,,,,,480.0
"1 VICTORY AVENUE, WANDIN NORTH",-37.78328001,145.42878001,2019,12,3.0,2.0,4,3139,211051285,House,49.681050000000006,,1.36107,,,,,,480.0
"1 VINCENT CRESCENT, WERRIBEE",-37.890758,144.659078,2019,3,3.0,1.0,0,3030,213051467,House,32.79311,0.58029,0.51558,0.56968,,,,,300.0
"1 VINCENT CRESCENT, WERRIBEE",-37.890758,144.659078,2019,4,3.0,1.0,0,3030,213051467,House,32.79311,0.58029,0.51558,0.56968,,,,,300.0
"1 WAKATIPU COURT, TAYLORS LAKES",-37.712412,144.804718,2019,8,5.0,3.0,2,3038,213011340,House,23.98317,1.3697,1.89,1.74141,4.47369,,,,570.0
"1 WAKEFIELD COURT, CRANBOURNE NORTH",-38.077964,145.271013,2019,2,3.0,2.0,1,3977,212031560,House,46.645410000000005,0.7147899999999999,0.4577,0.7737200000000001,,,,,345.0
"1 WALES ROAD, WHITEHEADS CREEK",-37.0490683002,145.2177146002,2019,9,3.0,1.0,1,3660,204011060,House,111.38598,45.00063,19.975810000000003,,10.66343,,21.28776,,330.0
"1 WARRANWAH DRIVE, KENNINGTON",-36.7807107002,144.3111687002,2019,12,4.0,3.0,4,3550,202011020,House,154.50777,3.72091,1.45389,0.65946,,,,,550.0
"1 WEIGELA COURT, FRANKSTON",-38.145211,145.168243,2019,6,3.0,1.0,1,3199,214011372,House,54.0186,0.4316,0.5529,0.94588,,,,1.13379,320.0
"1 WEIGELA COURT, FRANKSTON",-38.145211,145.168243,2019,7,3.0,1.0,1,3199,214011372,House,54.0186,0.4316,0.5529,0.94588,,,,1.13379,310.0
"1 WENDY STREET, PIONEER BAY",-38.38041079,145.5489706,2019,5,3.0,1.0,2,3984,205031093,House,98.9181,8.88691,8.9732,35.21402,9.97039,37.3855,14.94804,,320.0
"1 WESTERN AVENUE, HEPBURN SPRINGS",-37.31966,144.135179,2019,8,2.0,2.0,0,3461,201021011,House,115.7491,1.2825799999999998,1.86028,4.586390000000001,4.03077,2.73103,3.05932,,450.0
"1 WETHERALL DRIVE, CORINELLA",-38.410269,145.439121,2019,12,4.0,2.0,2,3984,205031093,House,112.89579,5.44606,0.83082,33.98921,12.08819,36.16069,13.72323,,450.0
"1 WHIDBURN PLACE, SEBASTOPOL",-37.59383001,143.82822001,2019,11,3.0,2.0,1,3356,201011484,House,119.63844,1.0584,2.5200500000000003,1.56618,,,,,330.0
"1 WHITEHAVEN CRESCENT, MULGRAVE",-37.927212,145.174931,2019,8,3.0,3.0,1,3170,212051325,House,30.26813,3.31496,0.25323,1.40776,,,,,440.0
"1 WHITTA ST, SEBASTOPOL",-37.5905027,143.8374344,2019,1,3.0,1.0,0,3356,201011484,House,118.42206,0.55129,1.4949400000000002,1.14949,,,,,280.0
"1 WHITTA STREET, SEBASTOPOL",-37.590681,143.837435,2019,1,3.0,1.0,0,3356,201011484,House,118.41661,0.51534,1.48949,1.14404,,,,,280.0
"1 WILLOW DRIVE, HAMPTON PARK",-38.02285,145.260177,2019,8,3.0,1.0,2,3976,212031562,House,42.21256,3.3510500000000003,2.24934,2.60845,,,,1.99846,350.0
"1 WILLOW DRIVE, HAMPTON PARK",-38.02285,145.260177,2019,12,3.0,1.0,2,3976,212031562,House,42.21256,3.3510500000000003,2.24934,2.60845,,,,1.99846,350.0
"1 WILLS STREET, SUNBURY",-37.578954,144.711831,2019,9,3.0,1.0,1,3429,210041540,House,39.47071,1.13901,1.09482,,1.88683,,,,330.0
"1 WINDSOR CRESCENT, BUNDOORA",-37.699798,145.065603,2019,1,4.0,2.0,2,3083,209011196,House,17.4934,0.65453,0.76597,1.15439,,,,0.6952699999999999,450.0
"1 WINFIELD ROAD, BALWYN NORTH",-37.801584,145.104099,2019,2,3.0,1.0,1,3104,207011148,House,16.98882,2.12279,0.70039,1.16787,,,,,495.0
"1 WOODLAND WAY, FINGAL",-38.409468,144.85472,2019,7,3.0,2.0,2,3939,214021383,House,98.95813,4.620430000000001,5.71219,,,,8.87001,,720.0
"1 WOODLAND WAY, FINGAL, FINGAL",-38.409468,144.85472,2019,7,3.0,2.0,2,3939,214021383,House,98.95813,4.620430000000001,5.71219,,,,8.87001,,720.0
"1 WRIGHT STREET, MIDDLE PARK",-37.846157,144.961197,2019,6,2.0,2.0,0,3206,206051128,House,5.425949999999999,1.04527,0.5179199999999999,1.11578,0.67461,,3.43081,,725.0
"1 WRIGHT STREET, MIDDLE PARK",-37.846157,144.961197,2019,11,2.0,2.0,0,3206,206051128,House,5.425949999999999,1.04527,0.5179199999999999,1.11578,0.67461,,3.43081,,725.0
"1 YAMBLA STREET, CLIFTON HILL",-37.792736,145.000619,2019,5,2.0,1.0,1,3068,206071145,Apartment,5.77142,0.31939,1.03047,5.748069999999999,0.87617,2.71923,,,600.0
"1 ZIMMERMAN AVENUE, BONNIE DOON",-37.0265488,145.8603715,2019,9,3.0,1.0,6,3720,204011057,House,184.95056,16.19992,0.79475,22.5373,1.2609,21.9348,21.25554,,340.0
"1-11/279 WYNDHAM STREET, SHEPPARTON",-36.379443,145.400004,2019,12,1.0,1.0,0,3630,216031416,Apartment,180.70817,1.79496,1.63542,1.63417,,2.31499,,,200.0
"1-2 TURNER COURT, GLEN WAVERLEY",-37.882369,145.146838,2019,10,4.0,3.0,3,3150,212051322,House,22.70951,2.2985900000000004,1.45554,2.02856,0.96979,,,2.63277,750.0
"1-3/13 ERSKINE AVENUE, RESERVOIR",-37.723414,145.025097,2019,5,2.0,2.0,1,3073,209021525,House,13.151,2.61988,0.86433,0.7713099999999999,,,,,400.0
"1-6/8 MAGNOLIA CRESCENT, WODONGA",-36.12349001,146.86748001,2019,10,3.0,1.0,2,3690,204031492,House,309.70253,0.1500399999999999,1.01674,2.0168,2.82817,2.23225,2.93392,,250.0
"1.02/35 TENNYSON STREET, HIGHETT",-37.956415,145.05593,2019,9,2.0,1.0,1,3190,208031188,Apartment,26.52158,0.96274,1.29435,1.6728900000000002,0.96827,,1.29062,0.98244,470.0
"1.03/281 TOORONGA ROAD, GLEN IRIS",-37.851068,145.042357,2019,5,2.0,2.0,2,3146,208041194,House,10.52775,0.34264,0.90609,1.58569,0.28055,,1.82123,,600.0
"1.06/91 DOW STREET, PORT MELBOURNE",-37.840548,144.942207,2019,10,1.0,1.0,1,3207,206051130,Apartment,5.56449,0.2484799999999999,1.26167,,1.13852,,0.4197099999999999,,390.0
"1.06/91 DOW STREET, PORT MELBOURNE",-37.840548,144.942207,2019,11,1.0,1.0,1,3207,206051130,Apartment,5.56449,0.2484799999999999,1.26167,,1.13852,,0.4197099999999999,,390.0
"1.07/35 TENNYSON STREET, HIGHETT",-37.956415,145.05593,2019,9,2.0,1.0,1,3190,208031188,Apartment,26.52158,0.96274,1.29435,1.6728900000000002,0.96827,,1.29062,0.98244,460.0
"1.08/1 LANGS ROAD, ASCOT VALE",-37.78327001,144.90735001,2019,9,2.0,2.0,1,3032,206031113,Apartment,7.46581,1.20865,0.43845,,2.43832,,,,460.0
"1.08/1 LANGS ROAD, ASCOT VALE",-37.78327001,144.90735001,2019,10,2.0,2.0,1,3032,206031113,Apartment,7.46581,1.20865,0.43845,,2.43832,,,,440.0
"1.08/1 LANGS ROAD, ASCOT VALE",-37.78327001,144.90735001,2019,11,2.0,2.0,1,3032,206031113,Apartment,7.46581,1.20865,0.43845,,2.43832,,,,430.0
"1/1 ADELAIDE STREET, FLORA HILL",-36.7842879,144.2883395,2019,6,2.0,1.0,1,3550,202011021,Apartment,152.00909,1.42618,1.37151,1.99066,,,,,290.0
"1/1 ADELAIDE STREET, FLORA HILL",-36.7842879,144.2883395,2019,12,2.0,1.0,1,3550,202011021,Apartment,152.00909,1.42618,1.37151,1.99066,,,,,290.0
"1/1 ARTHUR STREET, MURRUMBEENA",-37.8915768,145.071034,2019,6,2.0,1.0,0,3163,208021181,Apartment,16.10005,1.79339,1.22024,2.30571,0.42478,,0.63516,,460.0
"1/1 ASHMORE AVENUE, MORDIALLOC",-38.0012459,145.0845794,2019,11,2.0,1.0,1,3195,208031193,Apartment,34.75933,1.02569,0.78313,1.95915,0.8067300000000001,0.83945,0.36778,1.61766,435.0
"1/1 BETTY AVENUE, MOUNT ELIZA",-38.1863187,145.0900831,2019,3,2.0,1.0,1,3930,214021381,Apartment,61.71692,0.18039,1.12763,0.5396299999999999,6.265,,,,450.0
"1/1 BURBIDGE DRIVE, BACCHUS MARSH",-37.6663833,144.4190369,2019,4,3.0,1.0,2,3340,213041353,House,60.06276999999999,2.30534,2.01444,2.67619,3.51862,1.97375,1.96294,,335.0
"1/1 CAMERON ROAD, ESSENDON",-37.7462005,144.9267534,2019,6,4.0,3.0,4,3040,206031502,House,9.28531,1.21407,1.37509,1.44463,0.66395,,2.1135900000000003,,950.0
"1/1 CATHERINE PARADE, FRANKSTON",-38.1459642,145.1339636,2019,10,1.0,1.0,1,3199,214011371,Apartment,53.80324,0.6714,1.76367,1.19408,1.24092,1.63194,1.5061,1.93607,265.0
"1/1 CLYDESDALE CRESCENT, BELMONT",-38.1881549,144.332621,2019,5,1.0,1.0,2,3216,203021037,House,86.96956,0.4335,0.96432,1.26378,,,,,230.0
"1/1 CLYDESDALE CRESCENT, BELMONT",-38.1881549,144.332621,2019,6,1.0,1.0,2,3216,203021037,House,86.96956,0.4335,0.96432,1.26378,,,,,230.0
"1/1 DERRECK AVENUE, BULLEEN",-37.7657805,145.090857,2019,2,3.0,2.0,2,3105,207021156,House,15.19071,1.00149,0.20598,2.91391,,,,0.18046,650.0
"1/1 GEORGIA PLACE, KEALBA",-37.7324904,144.8181187,2019,12,3.0,2.0,1,3021,213011332,House,22.14956,0.92971,0.21167,0.80875,,,,,400.0
"1/1 GRANDVIEW ROAD, NIDDRIE",-37.738876,144.891782,2019,3,2.0,1.0,1,3042,210011230,Apartment,11.46995,2.02703,0.8371000000000001,1.7321099999999998,,,,,330.0
"1/1 GRANDVIEW ST, GLENROY",-37.707274,144.9157699,2019,9,3.0,2.0,1,3046,210031536,House,13.23198,0.8156100000000001,1.03194,1.01788,0.46337,,0.5257200000000001,,460.0
"1/1 GRANDVIEW ST, GLENROY",-37.707274,144.9157699,2019,11,3.0,2.0,1,3046,210031536,House,13.23198,0.8156100000000001,1.03194,1.01788,0.46337,,0.5257200000000001,,460.0
"1/1 HAINES STREET, CHELTENHAM",-37.96791001,145.06067001,2019,9,3.0,2.0,2,3192,208031188,House,28.99223,3.1776,1.33127,4.14354,2.91362,,1.85472,2.29456,850.0
"1/1 HAINES STREET, CHELTENHAM",-37.96791001,145.06067001,2019,10,3.0,2.0,2,3192,208031188,House,28.99223,3.1776,1.33127,4.14354,2.91362,,1.85472,2.29456,695.0
"1/1 HARDING LANE, BONBEACH",-38.0634733,145.1193238,2019,1,3.0,2.0,2,3196,208031186,House,49.07878,1.02092,1.03743,1.03579,0.28519,,1.6876,,600.0
"1/1 JOFFRE STREET, BROADMEADOWS",-37.6858988,144.9294417,2019,1,1.0,1.0,1,3047,210051242,Apartment,16.38477,1.1038,0.2306,0.6826599999999999,1.16681,,1.96551,2.16647,280.0
"1/1 LANGEWAN ROAD, LANGWARRIN",-38.16071001,145.20778001,2019,9,3.0,1.0,2,3910,214011374,House,55.70461,1.99284,1.72883,3.3143800000000003,5.135050000000001,,,,370.0
"1/1 LUSK DRIVE, VERMONT",-37.839119,145.201173,2019,6,2.0,1.0,1,3133,211041272,Apartment,31.15638,0.82371,0.87114,0.62264,,,,,330.0
"1/1 MANTELL STREET, DONCASTER EAST",-37.7915722,145.1603779,2019,6,3.0,1.0,1,3109,207021425,House,22.12137,1.04552,0.6971,2.18703,,,1.5014,2.15416,430.0
"1/1 MAY AVENUE, ALTONA MEADOWS",-37.879989,144.776217,2019,5,2.0,1.0,1,3028,213021342,House,24.22502,0.71438,1.46543,,,,,,325.0
"1/1 MCCRAE STREET, RESERVOIR",-37.7067896,145.0105675,2019,11,3.0,1.0,1,3073,209021523,House,13.990290000000002,1.38192,1.08497,,0.1903899999999999,,,,390.0
"1/1 NORELLE CRESCENT, GOLDEN SQUARE",-36.777226,144.242698,2019,6,2.0,1.0,1,3555,202011022,House,148.25795000000002,1.15732,1.89103,1.83982,2.40082,,,,230.0
"1/1 PEEL STREET, COLLINGWOOD",-37.8050584,144.9837832,2019,2,1.0,1.0,1,3066,206071141,Apartment,2.3790500000000003,,,0.5531200000000001,,0.55351,,,410.0
"1/1 PERRY STREET, MOORABBIN",-37.9388216,145.0397858,2019,5,4.0,2.0,2,3189,208031191,House,19.39062,2.93199,0.72642,0.90311,1.18639,4.78482,0.6874199999999999,,800.0
"1/1 SHARPE STREET, RESERVOIR",-37.7252288,145.0024483,2019,10,2.0,1.0,1,3073,209021526,Apartment,11.34095,0.96099,1.08254,3.44931,0.41661,,1.38826,,320.0
"1/1 SUMMERS STREET, DEER PARK",-37.7724326,144.7685685,2019,12,2.0,1.0,1,3023,213011569,Apartment,26.20774,0.7833600000000001,0.39397,3.12032,0.8899600000000001,,,,280.0
"1/1 SUNNINGDALE DRIVE, HILLSIDE",-37.6912668,144.7287934,2019,7,3.0,1.0,1,3875,213041575,House,28.96218,,1.41511,,,,,,390.0
"1/1 SUNNINGDALE DRIVE, HILLSIDE",-37.6912668,144.7287934,2019,11,3.0,1.0,1,3875,213041575,House,28.96218,,1.41511,,,,,,380.0
"1/1 TEAL STREET, CAPEL SOUND",-38.3732547,144.8618352,2019,5,3.0,2.0,2,3940,214021384,House,94.8381,1.10538,3.16848,2.86351,,2.86919,3.33537,,380.0
"1/1 TENNYSON STREET, ELWOOD",-37.872487,144.986173,2019,2,2.0,1.0,1,3184,206051129,Apartment,8.26969,1.94762,1.37152,0.31006,,,1.2813,,600.0
"1/1 TRAINOR COURT, NOBLE PARK",-37.956445,145.1710795,2019,10,2.0,1.0,1,3174,212041459,House,31.48221,0.80655,1.99905,2.08995,1.63461,,,,335.0
"1/1/CUDGEWA PLACE, KEILOR EAST",-37.73257001,144.86239001,2019,11,2.0,1.0,2,3033,210011534,House,16.16163,2.64757,0.955,1.4055799999999998,,,,,340.0
"1/10 ADENEY STREET, CAMPERDOWN",-38.239106,143.151166,2019,2,2.0,1.0,1,3260,217031471,House,196.5407,0.40563,1.03352,0.72293,1.69266,1.60413,1.47648,,300.0
"1/10 CASH STREET, KINGSBURY",-37.71489001,145.04267001,2019,11,3.0,1.0,2,3083,209021205,House,15.04655,1.45786,0.6477200000000001,1.43574,1.1907,1.00349,,2.31551,500.0
"1/10 DAVISON STREET, MITCHAM",-37.828127,145.20762,2019,3,3.0,2.0,2,3132,211041270,House,28.24527,1.08251,0.32802,3.61106,1.5106400000000002,,,,530.0
"1/10 GUBBAH COURT, ASHWOOD",-37.871531,145.103296,2019,11,4.0,3.0,3,3147,212051319,House,18.6699,1.0001,1.54262,1.1876099999999998,,,,,725.0
"1/10 GUBBAH COURT, ASHWOOD",-37.871531,145.103296,2019,12,4.0,3.0,3,3147,212051319,House,18.6699,1.0001,1.54262,1.1876099999999998,,,,,725.0
"1/10 HERMIONE TERRACE, EPPING",-37.645932,145.040334,2019,1,2.0,1.0,1,3076,209041432,Apartment,21.70157,,0.66602,1.93911,1.62248,,1.61756,,350.0
"1/10 INGRAMS ROAD, RESEARCH",-37.701331,145.183239,2019,4,2.0,1.0,1,3095,209031214,House,28.10395,8.927209999999999,0.57426,1.30089,,,,,390.0
"1/10 JOHNSON AVENUE, CARRUM",-38.075881,145.121666,2019,12,3.0,2.0,2,3197,208031185,House,48.76362,2.23543,0.80887,,0.4031499999999999,,,,570.0
"1/10 LANGS ROAD, ASCOT VALE",-37.7838371002,144.9060072002,2019,11,2.0,2.0,1,3032,206031113,Apartment,7.59863,1.24844,0.57127,,2.57114,,,,439.0
"1/10 LAURIE STREET, NEWPORT",-37.843752,144.870818,2019,2,3.0,2.0,2,3015,213021344,House,12.92944,0.56004,0.29329,1.69673,2.00529,,1.86503,,600.0
"1/10 LAURIE STREET, NEWPORT",-37.843752,144.870818,2019,3,3.0,2.0,2,3015,213021344,House,12.92944,0.56004,0.29329,1.69673,2.00529,,1.86503,,600.0
"1/10 LEONARD AVENUE, GLENROY",-37.705366,144.930217,2019,10,2.0,1.0,1,3046,210031535,House,14.2644,0.77776,0.80559,0.38366,,,,,370.0
"1/10 LIEGE AVENUE, NOBLE PARK",-37.96824,145.191415,2019,6,1.0,1.0,1,3174,212041459,Apartment,32.68011,0.52561,0.23569,1.3199,1.62956,,,,230.0
"1/10 LIEGE AVENUE, NOBLE PARK",-37.96824,145.191415,2019,10,1.0,1.0,1,3174,212041459,Apartment,32.68011,0.52561,0.23569,1.3199,1.62956,,,,195.0
"1/10 LLOYD STREET, DERRINALLUM",-37.945158,143.217745,2019,9,1.0,1.0,1,3325,217031474,Apartment,177.26092,1.23903,11.2197,0.3849599999999999,2.14503,10.80433,11.09835,,110.0
"1/10 LLOYD STREET, DERRINALLUM",-37.945158,143.217745,2019,10,1.0,1.0,1,3325,217031474,Apartment,177.26092,1.23903,11.2197,0.3849599999999999,2.14503,10.80433,11.09835,,110.0
"1/10 LLOYD STREET, DERRINALLUM",-37.945158,143.217745,2019,11,1.0,1.0,1,3325,217031474,Apartment,177.26092,1.23903,11.2197,0.3849599999999999,2.14503,10.80433,11.09835,,120.0
"1/10 MARION STREET, SEAFORD",-38.111154,145.136635,2019,6,3.0,1.0,1,3198,214011375,House,49.78229,1.21951,1.4726400000000002,4.7996300000000005,1.66674,,4.14695,,415.0
"1/10 MARION STREET, SEAFORD",-38.111154,145.136635,2019,7,3.0,1.0,1,3198,214011375,House,49.78229,1.21951,1.4726400000000002,4.7996300000000005,1.66674,,4.14695,,385.0
"1/10 MATTHIESON STREET, HIGHETT",-37.953669,145.050327,2019,9,3.0,1.0,2,3190,208031188,House,26.65073,0.97031,2.51786,1.891,0.97584,,2.23489,1.21658,440.0
"1/10 SALTLEY STREET, SOUTH KINGSVILLE",-37.8271258,144.8680429,2019,2,3.0,2.0,1,3015,213021344,House,11.33658,0.3178399999999999,1.15574,4.00024,2.01648,,3.4113800000000003,,530.0
"1/10 SHRIVES ROAD, NARRE WARREN",-38.02795001,145.30174001,2019,11,2.0,1.0,1,3805,212021456,Apartment,43.09575,0.41304,1.06843,3.64634,0.2675,,,1.6830699999999998,350.0
"1/10 ST LEONARDS ROAD, HEALESVILLE",-37.648538,145.523865,2019,12,2.0,1.0,1,3777,211051276,House,66.9687,0.55676,1.4584,1.1739000000000002,1.73643,0.83987,1.6368,,340.0
"1/10 TEKAPO CRESCENT, TAYLORS LAKES",-37.711162,144.805606,2019,10,3.0,2.0,1,3038,213011340,House,23.97905,1.36558,1.88588,1.73729,4.46957,,,,410.0
"1/10 TEKAPO CRESCENT, TAYLORS LAKES",-37.711162,144.805606,2019,11,3.0,2.0,1,3038,213011340,House,23.97905,1.36558,1.88588,1.73729,4.46957,,,,400.0
"1/10 VINES ROAD, HAMLYN HEIGHTS",-38.127858,144.3268106,2019,10,2.0,1.0,1,3215,203021040,House,75.01516000000001,0.43609,0.71224,0.44962,,,,,295.0
"1/10 VINES ROAD, HAMLYN HEIGHTS",-38.127858,144.3268106,2019,12,2.0,1.0,1,3215,203021040,House,75.01516000000001,0.43609,0.71224,0.44962,,,,,295.0
"1/10 WATTLEBIRD DRIVE, BANDIANA",-36.1406652,146.9164764,2019,7,4.0,2.0,2,3691,204031491,House,316.20266,0.31815,2.77392,6.394609999999999,8.53673,,,,390.0
"1/10-12 GEELONG ROAD, TORQUAY",-38.3365448,144.3175233,2019,5,3.0,1.0,1,3228,203031053,House,103.46823,0.41018,2.02298,2.4131,,,2.26968,2.7901100000000003,365.0
"1/1009 GLEN HUNTLY ROAD, CAULFIELD",-37.888149,145.033592,2019,6,2.0,1.0,0,3162,208021178,Apartment,13.83297,1.91281,0.73265,1.32901,,1.82415,1.66456,,510.0
"1/1009 GLEN HUNTLY ROAD, CAULFIELD",-37.888149,145.033592,2019,11,2.0,1.0,0,3162,208021178,Apartment,13.83297,1.91281,0.73265,1.32901,,1.82415,1.66456,,510.0
"1/1009 GLEN HUNTLY ROAD, CAULFIELD",-37.888149,145.033592,2019,12,2.0,1.0,0,3162,208021178,Apartment,13.83297,1.91281,0.73265,1.32901,,1.82415,1.66456,,510.0
"1/101 CRAMER STREET, PRESTON",-37.7393285,144.9914473,2019,8,2.0,1.0,1,3072,209021429,Apartment,10.34845,0.6144299999999999,0.59772,0.99827,,,,,430.0
"1/101 CRAMER STREET, PRESTON",-37.7393285,144.9914473,2019,9,2.0,1.0,1,3072,209021429,Apartment,10.34845,0.6144299999999999,0.59772,0.99827,,,,,430.0
"1/101 EDITHVALE ROAD, EDITHVALE",-38.0353022,145.1186548,2019,3,2.0,1.0,1,3196,208031189,Apartment,46.01031,0.67806,0.60672,3.25764,1.30323,,,,410.0
"1/101 EDITHVALE ROAD, EDITHVALE",-38.0353022,145.1186548,2019,4,2.0,1.0,1,3196,208031189,Apartment,46.01031,0.67806,0.60672,3.25764,1.30323,,,,410.0
"1/101 SUTTON STREET, ECHUCA",-36.128358,144.759032,2019,3,2.0,1.0,1,3564,216011406,Apartment,212.59077,3.53351,0.6496900000000001,2.37113,0.90179,2.3943600000000003,0.79492,,260.0
"1/103 DENDY STREET, BRIGHTON",-37.920377,145.003618,2019,4,3.0,2.0,1,3186,208011169,House,14.49472,1.0540999999999998,0.83031,0.53437,1.1543800000000002,1.69969,2.42436,,720.0
"1/103 SPRINGFIELD DRIVE, NARRE WARREN",-38.017611,145.293693,2019,4,3.0,2.0,2,3805,212021456,House,41.42821,0.31811,1.30422,1.91403,1.74002,,,2.05026,360.0
"1/104 MONASH STREET, SUNSHINE",-37.788701,144.834732,2019,4,2.0,1.0,1,3020,213011336,House,13.37365,0.60023,0.16882,0.82714,0.23263,,1.63261,,390.0
"1/104 SWAN STREET, WANGARATTA",-36.3483027,146.3114412,2019,10,3.0,1.0,1,3677,204021066,House,241.60359,1.30681,1.11454,1.21977,2.63899,0.83351,1.88299,,260.0
"1/105 GOULBURN RD, ECHUCA",-36.129226,144.765791,2019,2,3.0,2.0,2,3564,216011406,House,213.28053,3.61457,1.03333,2.8618,1.59156,2.88503,1.28559,,350.0
"1/105 GOULBURN ROAD, ECHUCA",-36.129384,144.765743,2019,2,3.0,2.0,2,3564,216011406,House,213.27931,3.61579,1.03456,2.86057,1.59033,2.8838000000000004,1.28436,,350.0
"1/105 MERTON STREET, ALBERT PARK",-37.844557,144.955523,2019,3,2.0,1.0,1,3206,206051128,Apartment,5.35758,0.42836,0.4779,0.93806,1.49023,,3.36245,,560.0
"1/106 BARRY STREET, RESERVOIR",-37.708636,144.998422,2019,6,2.0,2.0,1,3073,209021526,House,14.04283,1.0513800000000002,1.68143,2.55693,2.3398000000000003,,1.6593699999999998,,380.0
"1/107 ISABELLA STREET, GEELONG WEST",-38.132331,144.3404,2019,10,1.0,1.0,1,3218,203021040,Apartment,75.83126,0.7557200000000001,0.71102,1.03212,,,,,250.0
"1/107 IVANHOE PARADE, IVANHOE",-37.760533,145.045892,2019,1,3.0,2.0,1,3079,209011200,House,12.477709999999998,1.04273,0.85653,,1.42579,1.50704,,,500.0
"1/107 IVANHOE PARADE, IVANHOE",-37.760533,145.045892,2019,3,3.0,2.0,1,3079,209011200,House,12.477709999999998,1.04273,0.85653,,1.42579,1.50704,,,520.0
"1/1073 HEATHERTON ROAD, NOBLE PARK",-37.964409,145.169385,2019,4,3.0,1.0,2,3174,212041460,House,34.32017,0.41927,1.06087,,2.55098,,,,350.0
"1/108 YORK STREET, GOLDEN POINT",-37.5696206,143.8717942,2019,12,1.0,1.0,1,3451,201011483,Apartment,114.60542,0.52596,0.68779,0.92534,,,,,220.0
"1/109 NORMANBY AVENUE, THORNBURY",-37.7588501,144.99008179,2019,9,3.0,1.0,1,3071,206021112,House,7.73347,1.14904,0.96539,2.55421,1.65175,,,,490.0
"1/11 ANDREWS STREET, BOORT",-36.1131545,143.727114,2019,9,2.0,1.0,1,3537,202031033,Apartment,257.71552,0.6234700000000001,0.72646,0.6383,1.0376500000000002,0.6840499999999999,0.74018,,200.0
"1/11 CAPEL AVENUE, CAPEL SOUND",-38.3648678,144.8772513,2019,5,2.0,1.0,1,3940,214021384,House,93.1921,1.05075,1.52248,1.21751,,0.97126,1.6893699999999998,,300.0
"1/11 CURTIN AVENUE, LALOR",-37.665485,145.020977,2019,5,2.0,1.0,1,3075,209041529,House,18.50594,0.55148,0.72069,2.27924,,,,,320.0
"1/11 ESTER STREET, GREENSBOROUGH",-37.704969,145.098172,2019,6,2.0,1.0,1,3088,209011197,House,21.38498,0.2379399999999999,0.43466,0.91766,1.68282,,0.3248399999999999,,405.0
"1/11 GIBBS ST, NEWCOMB",-38.16816,144.386589,2019,7,2.0,1.0,1,3219,203021045,House,83.10866,0.35128,1.02207,0.97197,,,,,330.0
"1/11 GIBBS STREET, NEWCOMB",-38.16816,144.386589,2019,7,2.0,1.0,1,3219,203021045,House,83.10866,0.35128,1.02207,0.97197,,,,,330.0
"1/11 JESSOP STREET, GREENSBOROUGH",-37.702784,145.097847,2019,3,3.0,2.0,1,3088,209011197,House,21.44623,0.56624,0.53242,1.24596,1.43437,,0.3861,,530.0
"1/11 LAKEVIEW AVENUE, ROWVILLE",-37.917733,145.23226,2019,1,2.0,1.0,1,3178,211011256,Apartment,34.51373,0.79322,1.11973,1.12281,,,,,380.0
"1/11 LAKEVIEW AVENUE, ROWVILLE",-37.917733,145.23226,2019,10,2.0,1.0,1,3178,211011256,Apartment,34.51373,0.79322,1.11973,1.12281,,,,,380.0
"1/11 NEWNHAM DRIVE, ROMSEY",-37.3612052002,144.7399594002,2019,8,4.0,2.0,3,3434,210021235,House,65.25766,2.20868,1.6062,8.42061,15.215129999999998,,2.30583,,450.0
"1/11 PALMERSTON STREET, MELTON",-37.688365,144.582808,2019,1,2.0,1.0,1,3337,213041577,House,46.5295,1.15175,1.04246,,,,1.11462,,260.0
"1/11 PASSFIELD STREET, BRUNSWICK WEST",-37.767978,144.940369,2019,1,1.0,1.0,1,3055,206011107,Apartment,6.832229999999999,0.12966,0.5949500000000001,1.40208,,,,,260.0
"1/11 PASSFIELD STREET, BRUNSWICK WEST",-37.767978,144.940369,2019,12,1.0,1.0,1,3055,206011107,Apartment,6.832229999999999,0.12966,0.5949500000000001,1.40208,,,,,260.0
"1/11 PAYNE PLACE, SOUTH MORANG",-37.651622,145.093772,2019,1,3.0,2.0,1,3752,209041436,House,24.80691,,0.55883,3.89514,4.105300000000001,,,,400.0
"1/11 SPRINGFIELD DRIVE, MILDURA",-34.2146567,142.148931,2019,8,3.0,2.0,2,3500,215021470,House,539.3020600000001,0.5603899999999999,2.84286,1.47023,,,,,340.0
"1/11 TOWARD STREET, MURRUMBEENA",-37.89252,145.069518,2019,10,1.0,1.0,1,3163,208021181,Apartment,16.11907,0.81274,1.23926,1.89238,0.64962,,0.4122699999999999,,250.0
"1/11 WOODVILLE AVENUE, GLEN HUNTLY",-37.896392,145.037734,2019,11,3.0,2.0,2,3163,208021182,House,15.16748,0.5446599999999999,1.4143800000000002,,1.04655,,1.2481300000000002,,580.0
"1/110 BILLINGHAM ROAD, DEER PARK",-37.759975,144.764901,2019,10,3.0,2.0,2,3023,213011569,House,27.24783,0.7427699999999999,0.71401,0.17454,3.3252,,,,330.0
"1/110 BRADSHAW STREET, ESSENDON",-37.73928833,144.89573669,2019,1,3.0,1.0,1,3040,206031501,House,11.02266,1.22841,0.8084199999999999,1.22948,,,,,560.0
"1/110 BRADSHAW STREET, ESSENDON",-37.73928833,144.89573669,2019,2,3.0,1.0,1,3040,206031501,House,11.02266,1.22841,0.8084199999999999,1.22948,,,,,540.0
"1/110 DUNLOP ROAD, BITTERN",-38.343127,145.174411,2019,4,3.0,2.0,2,3918,214021379,House,78.8527,0.4854,1.1451300000000002,4.9531,0.92585,,4.40751,,450.0
"1/110 LUCERNE CRESCENT, ALPHINGTON",-37.7852309002,145.0347233002,2019,10,3.0,2.0,2,3078,206071145,House,10.32075,0.45776,0.56244,0.6687799999999999,4.29778,2.93109,,,700.0
"1/111 KELVINSIDE ROAD, NOBLE PARK",-37.95536001,145.17128001,2019,11,2.0,1.0,1,3174,212041459,Apartment,31.5305,0.8548300000000001,2.04733,2.13824,1.6829,,,,290.0
"1/111 MAIN ROAD, CAMPBELLS CREEK",-37.090643,144.2045353,2019,2,3.0,1.0,2,3451,202021027,House,132.09269,1.16908,0.2496699999999999,0.29757,3.96289,5.27249,3.86349,,360.0
"1/111 MILLER STREET, FITZROY NORTH",-37.77661,144.983546,2019,6,2.0,1.0,1,3068,206071143,House,5.61504,1.66458,0.34031,1.68015,1.4048900000000002,,,,395.0
"1/111 MILLER STREET, FITZROY NORTH",-37.77661,144.983546,2019,7,2.0,1.0,1,3068,206071143,House,5.61504,1.66458,0.34031,1.68015,1.4048900000000002,,,,395.0
"1/111 MILLER STREET, FITZROY NORTH",-37.77661,144.983546,2019,8,2.0,1.0,1,3068,206071143,House,5.61504,1.66458,0.34031,1.68015,1.4048900000000002,,,,395.0
"1/112 POATH ROAD, HUGHESDALE",-37.895496,145.077036,2019,9,2.0,1.0,2,3166,208021180,Apartment,18.86528,,1.46646,0.8199,,,,,395.0
"1/112 SEVERN STREET, YARRAVILLE",-37.819344,144.878726,2019,12,2.0,2.0,2,3013,213031352,House,10.43157,0.8599600000000001,0.73278,1.0856199999999998,1.91023,,1.71905,,550.0
"1/113 BRIDGE STREET, BENDIGO",-36.748611,144.286537,2019,8,2.0,1.0,1,3550,202011018,House,152.41869,0.42669,0.42569,1.23804,2.71978,0.49695,3.00433,1.89403,380.0
"1/113 BRIDGE STREET, BENDIGO",-36.748611,144.286537,2019,10,2.0,1.0,1,3550,202011018,House,152.41869,0.42669,0.42569,1.23804,2.71978,0.49695,3.00433,1.89403,400.0
"1/113 SURREY ROAD, BLACKBURN NORTH",-37.809993,145.158113,2019,1,2.0,1.0,1,3130,207031161,Apartment,21.18546,0.91712,0.7415499999999999,0.83917,1.71085,,,0.82623,360.0
"1/113 SURREY ROAD, BLACKBURN NORTH",-37.809993,145.158113,2019,6,2.0,1.0,1,3130,207031161,House,21.18546,0.91712,0.7415499999999999,0.83917,1.71085,,,0.82623,360.0
"1/113 WESTBURY STREET, BALACLAVA",-37.867537,144.995529,2019,9,2.0,1.0,1,3183,206051134,Apartment,8.43692,0.8148,0.96331,0.2822699999999999,0.65851,,0.92281,,590.0
"1/113 WESTBURY STREET, BALACLAVA",-37.867537,144.995529,2019,10,2.0,1.0,1,3183,206051134,Apartment,8.43692,0.8148,0.96331,0.2822699999999999,0.65851,,0.92281,,560.0
"1/114 BONEO ROAD, CAPEL SOUND",-38.3702001,144.88875001,2019,12,2.0,1.0,1,3940,214021384,House,92.80211,1.23078,0.8673099999999999,0.4752099999999999,,1.67423,0.0837099999999999,,299.0
"1/115 COULSTOCK STREET, WARRNAMBOOL",-38.3818001,142.49505001,2019,9,2.0,1.0,1,3280,217041479,House,257.52598,0.41612,1.69445,1.02402,4.79195,2.66073,,,300.0
"1/115 WATERDALE ROAD, IVANHOE",-37.767316,145.043183,2019,12,1.0,1.0,1,3079,209011200,Apartment,11.5413,0.6186900000000001,0.0799,,0.97293,0.57062,,,270.0
"1/116 BROUGHAM STREET, KEW",-37.801021,145.031469,2019,2,2.0,1.0,1,3101,207011522,Apartment,8.754209999999999,0.79957,0.95033,2.19665,,2.07513,,0.6456900000000001,500.0
"1/118 HAVERFIELD ST, ECHUCA",-36.132754,144.745356,2019,2,2.0,1.0,0,3564,216011406,Apartment,211.02528,2.87357,0.99388,2.24857,2.00877,0.68672,1.78531,,315.0
"1/118 ROSE STREET, FITZROY",-37.796175,144.979854,2019,9,2.0,2.0,1,3065,206071142,House,3.01675,1.22905,0.5904299999999999,1.0108,1.84157,2.28655,1.32284,,650.0
"1/119 GRANGE ROAD, FAIRFIELD",-37.773328,145.025702,2019,6,2.0,1.0,1,3078,206021110,Apartment,9.42258,0.3772799999999999,1.20261,,1.3678,,,,410.0
"1/12 BENTLEY STREET, SURREY HILLS",-37.829246,145.109946,2019,7,2.0,1.0,1,3127,207031167,Apartment,14.30423,0.4443399999999999,0.2201699999999999,,1.9855,,,,420.0
"1/12 BENTLEY STREET, SURREY HILLS",-37.829246,145.109946,2019,8,2.0,1.0,1,3127,207031167,Apartment,14.30423,0.4443399999999999,0.2201699999999999,,1.9855,,,,420.0
"1/12 BRENNAND STREET, FITZROY NORTH",-37.784975,144.993965,2019,7,1.0,1.0,1,3068,206071143,Apartment,5.70322,1.75276,1.2606400000000002,0.90016,0.65508,,,,375.0
"1/12 CHENIES STREET, RESERVOIR",-37.71111,145.029258,2019,12,2.0,1.0,1,3073,209021523,House,14.90985,1.7458699999999998,0.80103,,2.22209,,,,450.0
"1/12 CUSHING AVENUE, BENTLEIGH",-37.918002,145.045304,2019,1,2.0,1.0,1,3204,208021174,Apartment,18.6062,,0.87538,1.2147,0.90402,,1.06024,,330.0
"1/12 DAVENTRY STREET, RESERVOIR",-37.71467,145.001461,2019,12,4.0,1.0,2,3073,209021526,Apartment,13.03713,0.8732000000000001,0.90729,2.26333,1.31351,,0.65367,,390.0
"1/12 EBDEN AVENUE, BLACK ROCK",-37.976324,145.017566,2019,4,2.0,1.0,1,3193,208011173,House,20.88193,1.38059,0.55213,2.32433,3.51911,2.35812,0.90715,,500.0
"1/12 EBDEN AVENUE, BLACK ROCK",-37.976324,145.017566,2019,8,2.0,1.0,1,3193,208011173,House,20.88193,1.38059,0.55213,2.32433,3.51911,2.35812,0.90715,,480.0
"1/12 EBDEN AVENUE, BLACK ROCK",-37.976324,145.017566,2019,9,2.0,1.0,1,3193,208011173,House,20.88193,1.38059,0.55213,2.32433,3.51911,2.35812,0.90715,,480.0
"1/12 ELWOOD STREET, BRIGHTON",-37.900006,144.990782,2019,6,4.0,2.0,2,3186,208011169,House,11.86175,1.69803,0.9185,0.91451,1.60792,1.5871099999999998,2.02902,,1370.0
"1/12 HODGSON GROVE, BENTLEIGH EAST",-37.928686,145.0736371,2019,3,3.0,1.0,2,3165,208021427,House,22.63441,0.99838,0.93235,0.56611,,,2.1224000000000003,,580.0
"1/12 HODGSON GROVE, BENTLEIGH EAST",-37.928686,145.0736371,2019,4,3.0,1.0,2,3165,208021427,House,22.63441,0.99838,0.93235,0.56611,,,2.1224000000000003,,565.0
"1/12 HODGSON GROVE, BENTLEIGH EAST",-37.928686,145.0736371,2019,5,3.0,1.0,2,3165,208021427,House,22.63441,0.99838,0.93235,0.56611,,,2.1224000000000003,,570.0
"1/12 LANCASHIRE LANE, NORTH MELBOURNE",-37.802558,144.950267,2019,3,3.0,2.0,1,3051,206041506,House,1.97071,0.62424,1.10661,0.43733,2.44736,,,,780.0
"1/12 LEONARD CRESCENT, ASCOT VALE",-37.783845,144.906858,2019,4,2.0,1.0,1,3032,206031113,Apartment,7.56154,1.30438,0.53419,,2.53405,,,,410.0
"1/12 LEONARD CRESCENT, ASCOT VALE",-37.783845,144.906858,2019,5,2.0,1.0,1,3032,206031113,House,7.56154,1.30438,0.53419,,2.53405,,,,410.0
"1/12 LEONARD CRESCENT, ASCOT VALE",-37.783845,144.906858,2019,10,2.0,1.0,1,3032,206031113,Apartment,7.56154,1.30438,0.53419,,2.53405,,,,410.0
"1/12 MADELEINE ROAD, CLAYTON",-37.915266,145.120158,2019,1,3.0,1.0,1,3168,212051568,House,21.46116,1.15403,1.1786,0.80084,1.19839,0.84385,0.65664,,520.0
"1/12 MARLO DRIVE, MELTON WEST",-37.669289,144.55568,2019,9,3.0,2.0,1,3337,213041358,Apartment,48.13038,,1.163,1.19326,,,,3.70474,1387.0
"1/12 MARLO DRIVE, MELTON WEST",-37.669289,144.55568,2019,10,3.0,2.0,1,3337,213041358,Apartment,48.13038,,1.163,1.19326,,,,3.70474,1387.0
"1/12 MARLO DRIVE, MELTON WEST",-37.669289,144.55568,2019,12,3.0,2.0,1,3337,213041358,Apartment,48.13038,,1.163,1.19326,,,,3.70474,1343.0
"1/12 MARYN CLOSE, BERWICK",-38.026813,145.330931,2019,11,3.0,1.0,1,3806,212021293,Apartment,44.79851,1.0691199999999998,1.06043,2.36883,2.81003,,2.4548,1.87637,330.0
"1/12 PALL MALL, BENDIGO",-36.759586,144.279028,2019,9,1.0,1.0,0,3550,202011018,Apartment,150.81586,0.89708,0.22847,0.37041,1.11704,1.77731,1.4015,0.2912,310.0
"1/12 PALL MALL, BENDIGO",-36.759586,144.279028,2019,10,1.0,1.0,0,3550,202011018,Apartment,150.81586,0.89708,0.22847,0.37041,1.11704,1.77731,1.4015,0.2912,295.0
"1/12 VILNIUS WAY, TRUGANINA",-37.844043,144.722769,2019,7,3.0,2.0,1,3029,213051588,House,25.20846,,3.40551,1.7881300000000002,,,,,370.0
"1/12 VILNIUS WAY, TRUGANINA",-37.844043,144.722769,2019,9,3.0,2.0,1,3029,213051588,House,25.20846,,3.40551,1.7881300000000002,,,,,360.0
"1/1206-1208 HEATHERTON ROAD, NOBLE PARK",-37.966251,145.1824,2019,7,3.0,2.0,2,3174,212041459,House,33.15685,0.49535,1.21552,0.78185,0.66172,,,,390.0
"1/1206-1208 HEATHERTON ROAD, NOBLE PARK",-37.966251,145.1824,2019,8,3.0,2.0,2,3174,212041459,House,33.15685,0.49535,1.21552,0.78185,0.66172,,,,390.0
"1/122 SUTTON STREET, ECHUCA",-36.127931,144.760001,2019,11,1.0,1.0,1,3564,216011406,House,212.75194,3.49558,0.68763,2.33319,1.06295,2.35643,0.75699,,824.0
"1/123 PARRAMATTA ROAD, WERRIBEE",-37.882529,144.652294,2019,8,2.0,1.0,1,3030,213051467,House,33.39119,0.79822,1.26859,2.08367,,,,,310.0
"1/124 BLACKSHAWS ROAD, NEWPORT",-37.8337244,144.8719598,2019,5,2.0,1.0,1,3015,213021344,Apartment,12.33117,0.767,1.05332,3.74168,2.44498,,2.30473,,360.0
"1/124 BLACKSHAWS ROAD, NEWPORT",-37.8337244,144.8719598,2019,9,2.0,1.0,1,3015,213021344,Apartment,12.33117,0.767,1.05332,3.74168,2.44498,,2.30473,,360.0
"1/124 BLACKSHAWS ROAD, NEWPORT",-37.8337244,144.8719598,2019,11,2.0,1.0,1,3015,213021344,Apartment,12.33117,0.767,1.05332,3.74168,2.44498,,2.30473,,360.0
"1/126 APPIN STREET, WANGARATTA",-36.344408,146.301002,2019,7,2.0,1.0,1,3677,204021066,Apartment,241.29672,2.59492,0.28291,1.0623399999999998,3.77026,2.12162,3.0787600000000004,,230.0
"1/126 APPIN STREET, WANGARATTA",-36.344408,146.301002,2019,8,2.0,1.0,1,3677,204021066,Apartment,241.29672,2.59492,0.28291,1.0623399999999998,3.77026,2.12162,3.0787600000000004,,230.0
"1/126 WATTLE VALLEY ROAD, CAMBERWELL",-37.837583,145.080986,2019,4,2.0,1.0,1,3124,207011149,Apartment,12.04038,0.88191,0.49706,1.5359200000000002,1.17384,,2.50727,,425.0
"1/127 FORDHOLM ROAD, HAMPTON PARK",-38.0338199,145.254365,2019,5,3.0,1.0,2,3976,212031562,House,41.77827,1.65491,0.58778,0.54975,,,,1.49992,350.0
"1/128 MITCHELL STREET, BRUNSWICK EAST",-37.759987,144.975371,2019,2,2.0,1.0,1,3057,206011106,Apartment,6.05674,0.7633300000000001,1.22592,,,,,,360.0
"1/12A LINCOLN DRIVE, BULLEEN",-37.7697165,145.0953557,2019,1,2.0,1.0,2,3105,207021156,Apartment,14.36864,1.02975,0.70973,1.84888,,,,0.7294700000000001,420.0
"1/13 ALBERT STREET, HIGHETT",-37.951,145.036705,2019,5,3.0,2.0,2,3190,208011171,House,21.49305,1.41717,0.95946,2.19052,0.8595900000000001,,,,630.0
"1/13 BANYULE ROAD, ROSANNA",-37.742893,145.073799,2019,1,3.0,2.0,2,3084,209011198,House,15.82316,0.82708,0.4001,1.494,1.06593,2.87142,1.82617,,430.0
"1/13 COLERIDGE STREET, ELWOOD",-37.8814772,144.9929004,2019,3,2.0,1.0,1,3184,206051129,Apartment,9.32852,1.35066,0.5349400000000001,0.7880900000000001,,,1.07834,,420.0
"1/13 COLERIDGE STREET, ELWOOD",-37.8814772,144.9929004,2019,4,2.0,1.0,1,3184,206051129,Apartment,9.32852,1.35066,0.5349400000000001,0.7880900000000001,,,1.07834,,420.0
"1/13 DAVID STREET, ALTONA",-37.868457,144.825549,2019,4,3.0,2.0,2,3018,213021341,House,18.71704,0.6417999999999999,0.37098,1.55618,0.46208,0.39623,,,560.0
"1/13 DOVER ROAD, WILLIAMSTOWN",-37.8563,144.899462,2019,10,2.0,1.0,1,3016,213021346,Apartment,12.2427,0.73161,0.83199,1.63819,1.74243,1.9985,1.2593800000000002,,400.0
"1/13 DOVER ROAD, WILLIAMSTOWN",-37.8563,144.899462,2019,12,2.0,1.0,1,3016,213021346,Apartment,12.2427,0.73124,0.83199,1.63819,1.7421300000000002,1.9985,1.25901,,400.0
"1/13 GEORGE STREET, FRANKSTON",-38.15358,145.120413,2019,6,2.0,1.0,1,3199,214011371,Apartment,54.87167,0.2583,1.13365,1.42679,1.9177,1.19471,2.23509,1.73097,395.0
"1/13 GEORGE STREET, FRANKSTON",-38.15358,145.120413,2019,7,2.0,1.0,1,3199,214011371,Apartment,54.87167,0.2583,1.13365,1.42679,1.9177,1.19471,2.23509,1.73097,395.0
"1/13 JERICHO COURT, CARRUM DOWNS",-38.090389251709,145.178726196289,2019,8,3.0,2.0,2,3201,214011370,Apartment,46.96048,1.2832,2.31069,3.08762,,,,,350.0
"1/13 KILSYTH AVENUE, KILSYTH",-37.806328,145.317129,2019,9,2.0,1.0,1,3137,211051277,Apartment,35.92578,0.35191,0.81175,1.68877,,,,1.05487,380.0
"1/13 ROSEBROOK STREET, ROSEBUD",-38.361879,144.893383,2019,5,3.0,2.0,1,3939,214021384,House,91.53763,1.25005,1.97209,1.13174,,1.0766300000000002,1.18847,,490.0
"1/13 ROSEBROOK STREET, ROSEBUD",-38.361879,144.893383,2019,8,3.0,2.0,1,3939,214021384,House,91.53763,1.25005,1.97209,1.13174,,1.0766300000000002,1.18847,,460.0
"1/13-15 RESERVE STREET, BERWICK",-38.036541,145.343907,2019,8,2.0,1.0,1,3806,212021293,Apartment,47.19568,0.76234,0.7264299999999999,0.94777,0.92282,,0.72927,1.1121,340.0
"1/13-15 RESERVE STREET, BERWICK",-38.036541,145.343907,2019,9,2.0,1.0,1,3806,212021293,Apartment,47.19568,0.76234,0.7264299999999999,0.94777,0.92282,,0.72927,1.1121,340.0
"1/1329 CENTRE ROAD, CLAYTON",-37.9295884002,145.1270746002,2019,8,3.0,1.0,1,3168,212041310,House,24.86513,1.6179400000000002,2.04212,1.92544,1.8974,,,,430.0
"1/134 SCORESBY ROAD, BORONIA",-37.8556082,145.2680308,2019,7,3.0,2.0,2,3155,211011251,House,34.860730000000004,2.31837,1.12602,1.84969,1.62735,,,2.7391,400.0
"1/135 BEENAK ROAD, YELLINGBO",-37.849889,145.542683,2019,5,3.0,2.0,1,3139,211051286,House,64.66225,7.93916,6.29185,21.17245,,,18.983400000000003,,500.0
"1/135 WEST FYANS STREET, NEWTOWN",-38.1590741,144.3390158,2019,3,2.0,1.0,1,3220,203021046,Apartment,79.11205,0.18072,0.8235,1.30996,,,,,360.0
"1/138 FERNTREE GULLY ROAD, OAKLEIGH EAST",-37.898572,145.118,2019,11,3.0,2.0,2,3166,212051326,House,21.67946,4.48684,1.14673,1.03985,3.56884,2.8678000000000003,3.3330100000000003,,550.0
"1/1385 DANDENONG RD, MALVERN EAST",-37.889859,145.082909,2019,1,3.0,2.0,1,3145,208041195,House,17.958380000000002,2.24399,2.34102,2.09106,2.85481,,,1.15584,520.0
"1/1385 DANDENONG ROAD, MALVERN EAST",-37.88994,145.083164,2019,1,3.0,2.0,1,3145,208041195,House,17.939259999999997,2.22487,2.3219000000000003,2.07193,2.83569,,,1.13672,520.0
"1/139 LENNOX STREET, RICHMOND",-37.815472,144.99528,2019,1,1.0,1.0,0,3121,206071518,Apartment,3.73261,2.12536,0.42469,0.59994,0.72305,,0.5661900000000001,,430.0
"1/139 RAILWAY PLACE, WILLIAMSTOWN",-37.8587048,144.8899393,2019,11,3.0,2.0,1,3016,213021346,House,13.70648,0.30715,0.45461,0.47499,1.2519,0.8352999999999999,1.91687,,650.0
"1/13A DENDY STREET, BRIGHTON",-37.918887,144.990528,2019,8,3.0,2.0,2,3186,208011169,House,13.96822,0.29882,0.3482699999999999,1.07585,1.29888,1.17319,1.90093,,1390.0
"1/14 BETTINA STREET, CLAYTON",-37.91898,145.136706,2019,9,2.0,1.0,1,3168,212051567,Apartment,24.17599,2.47908,1.97284,1.79241,,,,,375.0
"1/14 BOLINGBROKE STREET, PASCOE VALE",-37.732265,144.936287,2019,5,2.0,2.0,2,3044,210031538,House,10.41792,0.90914,0.41539,2.45004,,,,,440.0
"1/14 BOLINGBROKE STREET, PASCOE VALE",-37.732265,144.936287,2019,9,2.0,2.0,2,3044,210031538,House,10.41792,0.90914,0.41539,2.45004,,,,,449.0
"1/14 CAIN STREET, CAPEL SOUND",-38.3696033,144.887408,2019,8,3.0,1.0,1,3940,214021384,House,92.89799,1.32667,0.96322,0.5711,,1.77011,0.17959,,350.0
"1/14 CATHERINE AVENUE, CHELSEA",-38.0517924002,145.1212894002,2019,7,2.0,1.0,1,3196,208031186,House,47.3837,0.8330700000000001,0.40406,2.53835,0.47863,,0.6363,,400.0
"1/14 DICKENS STREET, RICHMOND",-37.8205183,145.0095834,2019,5,2.0,1.0,1,3121,206071517,House,5.05771,0.9189,1.71013,0.82477,1.45021,,,,500.0
"1/14 FOAM STREET, HAMPTON",-37.93811,145.006943,2019,10,2.0,1.0,2,3188,208011172,Apartment,17.03439,0.28589,0.93273,0.9811,0.89779,1.47389,,,460.0
"1/14 FOSTER STREET, ST KILDA",-37.86885452,144.98301697,2019,8,2.0,1.0,0,3182,206051513,Apartment,7.70118,0.03165,0.97392,0.58163,,,,,465.0
"1/14 NAPIER STREET, MORNINGTON",-38.231883,145.031562,2019,7,4.0,2.0,2,3931,214021592,House,74.87474,0.47684,2.02912,1.30582,,,2.55689,,560.0
"1/14 ROSE STREET, BRAYBROOK",-37.784374,144.852266,2019,9,3.0,2.0,1,3019,213031347,House,12.34897,0.62717,1.22591,0.7774500000000001,3.3767600000000004,,2.65022,,450.0
"1/14 ROSE STREET, BRAYBROOK",-37.784374,144.852266,2019,10,3.0,2.0,1,3019,213031347,House,12.34897,0.62717,1.22591,0.7774500000000001,3.3767600000000004,,2.65022,,450.0
"1/14 SEMILLION PLACE, WAURN PONDS",-38.2106646,144.3026523,2019,2,1.0,2.0,1,3216,203021487,Apartment,86.32556,1.26025,3.17612,1.49776,1.1474000000000002,,,,145.0
"1/14 SEMILLION PLACE, WAURN PONDS",-38.2106646,144.3026523,2019,10,1.0,2.0,1,3216,203021487,Apartment,86.32556,1.26025,3.17612,1.49776,1.1474000000000002,,,,145.0
"1/14 TEMPLESTOWE ROAD, BULLEEN",-37.75982001,145.08434001,2019,10,2.0,2.0,1,3105,207021156,House,14.70164,0.9829,1.27182,2.42483,,,,1.2463,460.0
"1/14 THE BOULEVARD, HAWTHORN",-37.82811,145.041502,2019,5,2.0,1.0,1,3122,207011520,House,8.726299999999998,0.17622,1.05178,1.05929,1.92921,,1.53038,,430.0
"1/14 WALSH STREET, ORMOND",-37.902589,145.04569,2019,1,1.0,1.0,1,3204,208021182,House,16.913919999999997,0.6403300000000001,1.21332,,0.6840599999999999,,1.87789,,305.0
"1/14 WALSH STREET, ORMOND",-37.902589,145.04569,2019,9,1.0,1.0,1,3204,208021182,House,16.913919999999997,0.6403300000000001,1.21332,,0.6840599999999999,,1.87789,,300.0
"1/14 WARRIGAL ROAD, SURREY HILLS",-37.827281,145.099337,2019,7,2.0,1.0,1,3127,207011155,House,13.27331,1.14076,1.12825,2.36066,0.5705800000000001,,,,420.0
"1/14 WINIFRED STREET, OAK PARK",-37.72097001,144.91804001,2019,9,3.0,2.0,2,3046,210031537,House,11.81016,0.75649,0.5347999999999999,1.66034,0.8573,,,,550.0
"1/140 MIDDLEBOROUGH ROAD, BLACKBURN SOUTH",-37.844076,145.134025,2019,11,2.0,1.0,2,3130,207031162,House,23.80875,1.5870499999999998,0.43274,2.45047,,,,,370.0
"1/141 BRUNSWICK STREET, FITZROY",-37.803406,144.977304,2019,5,2.0,1.0,0,3065,206071142,Apartment,2.04993,0.16895,0.22509,0.41047,0.8731599999999999,1.31973,0.68522,,585.0
"1/141 MONTEREY BOULEVARD, FRANKSTON NORTH",-38.1218096002,145.1530203002,2019,9,3.0,1.0,2,3200,214011372,House,51.204910000000005,0.22832,0.61294,0.91655,,,,8.59859,360.0
"1/141 MONTEREY BOULEVARD, FRANKSTON NORTH",-38.1218096002,145.1530203002,2019,10,3.0,1.0,2,3200,214011372,House,51.204910000000005,0.22832,0.61294,0.91655,,,,8.59859,350.0
"1/141 MONTEREY BVD, FRANKSTON NORTH",-38.1218096002,145.1530203002,2019,10,3.0,1.0,2,3200,214011372,House,51.204910000000005,0.22832,0.61294,0.91655,,,,8.59859,350.0
"1/145 ERROL STREET, NORTH MELBOURNE",-37.801488,144.949635,2019,4,2.0,1.0,0,3051,206041506,Apartment,2.15703,0.32859,0.57527,0.29455,2.14529,,,,540.0
"1/147 PROSPECT HILL ROAD, CANTERBURY",-37.82987976,145.07504272,2019,6,2.0,1.0,1,3126,207011155,Apartment,11.008959999999998,1.2974100000000002,0.51646,1.2799200000000002,1.69652,,,,430.0
"1/15 ABBOTT STREET, BENDIGO",-36.7614281,144.2888561,2019,1,3.0,2.0,1,3550,202011018,House,152.57367000000002,0.9336,1.31778,1.11634,0.89378,2.40188,2.74243,1.39877,450.0
"1/15 ABBOTT STREET, BENDIGO",-36.7614281,144.2888561,2019,12,3.0,2.0,1,3550,202011018,House,152.57367000000002,0.9336,1.31778,1.11634,0.89378,2.40188,2.74243,1.39877,450.0
"1/15 ASHLEY STREET, IRONBARK",-36.754493,144.264508,2019,12,2.0,1.0,1,3550,202011018,House,151.93363,0.16356,0.87727,1.26214,3.2772,2.39103,1.76971,2.37966,210.0
"1/15 BLANCHE ST, WAHGUNYAH",-36.01084255,146.3953653,2019,5,2.0,1.0,1,3687,204021065,House,288.57766,,0.60422,10.36695,0.82041,9.58476,9.45091,,250.0
"1/15 BLANCHE STREET, WAHGUNYAH",-36.010994,146.395337,2019,5,2.0,1.0,1,3687,204021065,House,288.57766,,0.60422,10.36695,0.82041,9.58476,9.45091,,250.0
"1/15 COLIN COURT, BROADMEADOWS",-37.693622,144.923512,2019,3,2.0,1.0,1,3047,210051242,Apartment,15.40638,0.20671,0.84364,1.78345,1.86471,,2.66341,2.86437,380.0
"1/15 COLIN COURT, BROADMEADOWS",-37.693622,144.923512,2019,10,2.0,1.0,1,3047,210051242,Apartment,15.40638,0.20671,0.84364,1.78345,1.86471,,2.66341,2.86437,370.0
"1/15 COLIN COURT, BROADMEADOWS",-37.693622,144.923512,2019,11,2.0,1.0,1,3047,210051242,Apartment,15.40638,0.20671,0.84364,1.78345,1.86471,,2.66341,2.86437,370.0
"1/15 EVANS STREET, CHADSTONE",-37.883077,145.098135,2019,1,3.0,1.0,1,3148,212051319,House,17.489939999999997,2.00684,1.06927,0.90236,,,,,435.0
"1/15 EVANS STREET, CHADSTONE",-37.883077,145.098135,2019,12,3.0,1.0,1,3148,212051319,House,17.489939999999997,2.00684,1.06927,0.90236,,,,,445.0
"1/15 HAYDEN STREET, HOPPERS CROSSING",-37.877324,144.687586,2019,3,2.0,1.0,1,3029,213051362,House,29.48063,0.79427,0.46301,1.84891,,,,,320.0
"1/15 JURGA COURT, ALTONA",-37.862082,144.846454,2019,11,1.0,1.0,1,3018,213021341,Apartment,16.98649,0.38332,1.20399,3.51556,1.88039,2.72482,,,230.0
"1/15 KIRSTINA ROAD, GLEN WAVERLEY",-37.8899915,145.1661749,2019,4,2.0,1.0,1,3150,212051321,Apartment,24.28869,0.779,1.29742,1.57967,,,1.22604,,430.0
"1/15 LAUREL STREET, PRESTON",-37.7329973002,145.0286639002,2019,10,2.0,2.0,1,3072,209021428,House,12.73352,1.10395,0.1120999999999999,0.6403300000000001,3.22621,3.21109,0.82725,0.93642,469.0
"1/15 LEVANTO STREET, MENTONE",-37.980384,145.07496,2019,8,1.0,1.0,1,3194,208031190,Apartment,30.4965,0.43205,0.82756,1.62723,1.16513,,1.51552,0.57753,270.0
"1/15 LEVANTO STREET, MENTONE",-37.980384,145.07496,2019,11,1.0,1.0,1,3194,208031190,Apartment,30.4965,0.43205,0.82756,1.62723,1.16513,,1.51552,0.57753,250.0
"1/15 MONASTERY DRIVE, WENDOUREE",-37.537431,143.823613,2019,2,2.0,1.0,1,3355,201011008,Apartment,121.98748,1.27526,0.71914,2.25794,,,,1.05811,320.0
"1/15 MONASTERY DRIVE, WENDOUREE",-37.537431,143.823613,2019,12,2.0,1.0,1,3355,201011008,Apartment,121.98748,1.27526,0.71914,2.25794,,,,1.05811,320.0
"1/15 ORRONG AVENUE, RESERVOIR",-37.714224,145.00972,2019,6,1.0,1.0,1,3073,209021523,Apartment,12.74681,1.38623,1.21528,,1.42357,,,,330.0
"1/15 PINE AVE, NORTH SHORE",-38.099092,144.374106,2019,12,3.0,1.0,2,3214,203021488,House,68.55717,1.61939,2.19434,4.96874,1.27887,,2.20134,,340.0
"1/15 PINE AVENUE, NORTH SHORE",-38.099157,144.372353,2019,12,3.0,1.0,2,3214,203021488,House,68.35491999999999,1.41714,1.99209,4.76649,1.07662,,1.99909,,340.0
"1/15-17 GREAT OCEAN ROAD, JAN JUC",-38.339287,144.308398,2019,8,2.0,2.0,2,3228,203031053,House,104.63293,1.04143,2.65423,3.0322,,,2.90094,1.87272,340.0
"1/152 GREY STREET, TRARALGON",-38.191573,146.52097,2019,8,1.0,1.0,1,3844,205041494,Apartment,163.69428,,0.50554,0.24738,,2.92226,,,190.0
"1/152 GREY STREET, TRARALGON",-38.191573,146.52097,2019,11,1.0,1.0,1,3844,205041494,Apartment,163.69428,,0.50554,0.24738,,2.92226,,,190.0
"1/154 CHURCH STREET, HAMLYN HEIGHTS",-38.130093,144.336655,2019,2,3.0,2.0,2,3215,203021040,House,75.63382,0.83573,0.41964,0.53327,,,,,410.0
"1/1553 POINT NEPEAN RD, CAPEL SOUND",-38.3630695,144.8823592,2019,9,3.0,2.0,1,3940,214021384,House,92.17155,1.83803,1.64835,0.81976,,0.3597599999999999,1.25827,,495.0
"1/1559 POINT NEPEAN ROAD, CAPEL SOUND",-38.3624458,144.881477,2019,2,2.0,1.0,1,3940,214021384,Apartment,92.18401,1.63989,1.69234,1.05337,,0.37222,1.89044,,290.0
"1/1565 POINT NEPEAN ROAD, CAPEL SOUND",-38.3626092,144.8808724,2019,9,2.0,1.0,1,3940,214021384,House,92.24013,1.5838,1.63624,1.16713,,0.42834,1.63899,,250.0
"1/156A NAPIER STREET, ESSENDON",-37.748213,144.9194251,2019,6,1.0,1.0,1,3040,206031502,Apartment,9.87605,1.11725,0.83005,0.99046,0.51788,,0.90097,,275.0
"1/157 MITCHELL STREET, BENDIGO",-36.76814,144.285983,2019,4,3.0,1.0,2,3550,202011018,House,151.59942,0.9193,1.37159,1.57906,0.7150299999999999,3.16088,2.79624,1.45258,350.0
"1/157 QUEEN STREET, ALTONA",-37.869053,144.826626,2019,6,3.0,1.0,3,3018,213021341,House,18.69908,0.4497799999999999,0.66969,1.74827,0.45386,0.2042,,,455.0
"1/159 WIDFORD STREET, BROADMEADOWS",-37.692231,144.925377,2019,3,2.0,1.0,1,3047,210051242,House,15.382700000000002,0.10172,0.5352100000000001,1.47502,1.55628,,2.35498,2.55594,365.0
"1/15A KINTORE STREET, CAMBERWELL",-37.82245,145.060814,2019,11,2.0,1.0,1,3124,207011149,Apartment,9.41697,1.43567,1.4599000000000002,2.08313,0.78874,,1.57426,,520.0
"1/15A MIMOSA AVENUE, KILSYTH",-37.806953,145.317673,2019,10,2.0,1.0,1,3137,211051277,Apartment,36.06289,0.4890299999999999,0.53204,1.82588,,,,1.19199,390.0
"1/16 ALBERT CRESCENT, SURREY HILLS",-37.824042,145.102976,2019,3,3.0,2.0,2,3127,207031167,House,13.21457,0.8933099999999999,0.59387,,0.7669400000000001,,,,700.0
"1/16 AQUILA COURT, BALLARAT NORTH",-37.54371586,143.86923195,2019,3,2.0,1.0,1,3350,201011482,House,114.6254,1.3249000000000002,1.07598,3.1814,2.80192,,,,200.0
"1/16 LA ROCHELLE BOULEVARD, POINT COOK",-37.8961872,144.7442654,2019,6,2.0,2.0,1,3030,213051580,House,27.53489,,1.27418,0.33266,,,,,390.0
"1/16 LA ROCHELLE BOULEVARD, POINT COOK",-37.8961872,144.7442654,2019,7,2.0,2.0,1,3030,213051580,House,27.53489,,1.27418,0.33266,,,,,390.0
"1/16 MUNRO STREET, MURTOA",-36.622167,142.47285,2019,8,1.0,1.0,1,3390,215011394,House,294.63044,11.12994,0.13122,0.31876,0.99362,0.6730700000000001,0.91634,,120.0
"1/16 PARKSIDE DRIVE, SHEPPARTON",-36.358077,145.390773,2019,7,3.0,2.0,2,3630,216031416,House,184.29175,0.40888,1.64848,0.29467,,2.11838,,,320.0
"1/16 TURNER STREET, MOONEE PONDS",-37.761678,144.936813,2019,3,2.0,1.0,1,3039,206031116,Apartment,8.10621,2.0084,0.51848,,2.27906,2.93671,1.51836,,420.0
"1/16-18 MARKET STREET, SALE",-38.1100695,147.0719552,2019,2,3.0,2.0,2,3850,205051103,House,213.95861,0.26904,0.58902,0.46784,2.55612,,1.15283,,350.0
"1/16-18 MARKET STREET, SALE",-38.1100695,147.0719552,2019,3,3.0,2.0,2,3850,205051103,House,213.95861,0.26904,0.58902,0.46784,2.55612,,1.15283,,350.0
"1/1618 HIGH STREET, GLEN IRIS",-37.860289,145.058041,2019,1,2.0,1.0,0,3146,208041194,Apartment,12.1082,1.21025,0.86421,2.31121,0.38377,,2.66968,,395.0
"1/162 WESTGARTH STREET, NORTHCOTE",-37.782823,145.009644,2019,9,2.0,1.0,1,3070,206021499,Apartment,7.45174,0.45281,1.22232,2.1616,0.62354,,2.60495,,500.0
