address,latitude_ori,longitude_ori,year,month,nbed,nbath,ncar,postcode,SA2_CODE,residence_type,dist_to_cbd_KM,min_distance_to_park,min_distance_to_prim,min_distance_to_second,min_distance_to_train,min_distance_to_hosp,min_distance_to_poli,min_distance_to_shop,weekly_rent
". 'WILLOW COTTAGE' TARCOMBE RD, AVENEL",-36.9451175,145.2967456,2020,11,3.0,1.0,1,3664,204011058,House,126.1111,18.377,9.08981,,10.60099,,28.86936,,250.0
". 'WILLOW COTTAGE' TARCOMBE ROAD, AVENEL",-36.9496976,145.3090184,2020,11,3.0,1.0,1,3664,204011058,House,127.42434,19.690240000000003,10.40304,,11.91423,,30.18259,,250.0
". UNDER APPLICATION ., DOLLAR",-38.53884001,146.16754001,2020,4,3.0,2.0,0,3871,205031087,House,158.61377,6.05915,6.98571,19.96922,15.76803,20.72416,15.85114,,370.0
". UNDER APPLICATION ., FAIRBANK",-38.40972001,145.92736001,2020,5,3.0,2.0,2,3951,205031090,House,135.618,10.3244,10.17627,9.78421,6.724489999999999,10.80624,9.5112,,420.0
".275 SOLDIERS SETTLERS ROAD, TALLANGATTA VALLEY",-36.2142709,147.3184912,2020,1,3.0,1.0,2,3701,204031072,House,367.34544,12.32206,5.23339,15.68916,5.419,14.93642,14.76891,,280.0
".4 BURNETT STREET, YARRAGON",-38.204743,146.062346,2020,6,3.0,1.0,1,3823,205011078,House,117.01551,0.91479,0.60114,9.59293,0.6766,,0.57072,,300.0
".4 BURNETT STREET, YARRAGON",-38.204743,146.062346,2020,7,3.0,1.0,1,3823,205011078,House,117.01551,0.91479,0.60114,9.59293,0.6766,,0.57072,,300.0
"0 MANAGERS RESIDENCE, BOLINDA VALE, CLARKEFIELD",-37.48284001,144.7528001,2020,3,3.0,1.0,2,3430,210021235,House,50.62358,15.87879,0.88293,14.93019,0.8554400000000001,,15.97593,,330.0
"003/903 DANDENONG ROAD, MALVERN EAST",-37.876178,145.046128,2020,3,1.0,1.0,0,3145,208041195,Apartment,13.86135,0.9325,0.9188,2.494,2.208,,,3.96501,305.0
"005/903 DANDENONG ROAD, MALVERN EAST",-37.876178,145.046128,2020,6,1.0,1.0,0,3145,208041195,Apartment,13.86135,0.9325,0.9188,2.494,2.208,,,3.96501,270.0
"01/17 MACQUARIE STREET, PRAHRAN",-37.85054,144.992182,2020,9,1.0,1.0,0,3181,206061136,Apartment,6.76544,,0.87658,0.16912,0.65365,,1.34207,,260.0
"01/17 MACQUARIE STREET, PRAHRAN",-37.85054,144.992182,2020,10,1.0,1.0,0,3181,206061136,Apartment,6.76544,,0.87658,0.16912,0.65365,,1.34207,,260.0
"01/17 MACQUARIE STREET, PRAHRAN",-37.85054,144.992182,2020,11,1.0,1.0,0,3181,206061136,Apartment,6.76544,,0.87658,0.16912,0.65365,,1.34207,,260.0
"010/903 DANDENONG ROAD, MALVERN EAST",-37.876178,145.046128,2020,3,1.0,1.0,0,3145,208041195,Apartment,13.86135,0.9325,0.9188,2.494,2.208,,,3.96501,315.0
"010/903 DANDENONG ROAD, MALVERN EAST",-37.876178,145.046128,2020,5,1.0,1.0,0,3145,208041195,Apartment,13.86135,0.9325,0.9188,2.494,2.208,,,3.96501,315.0
"03 IMAGE WALK, COBURG NORTH",-37.726,144.96,2020,1,2.0,2.0,1,3058,210031236,House,11.97424,0.15333,,1.11175,0.78725,,,,440.0
"03 IMAGE WALK, COBURG NORTH",-37.726,144.96,2020,2,2.0,2.0,1,3058,210031236,House,11.97424,0.15333,,1.11175,0.78725,,,,450.0
"08/180 LENNOX STREET, RICHMOND",-37.8190024,144.9942573,2020,6,2.0,1.0,1,3121,206071517,House,3.72259,0.47444,0.5692,0.52339,1.12989,,,,450.0
"08/180 LENNOX STREET, RICHMOND",-37.8190024,144.9942573,2020,9,2.0,1.0,1,3121,206071517,Apartment,3.72259,0.47444,0.5692,0.52339,1.12989,,,,495.0
"09/14 SPRING STREET, BOX HILL",-37.815445,145.118278,2020,2,1.0,1.0,0,3128,207031163,Apartment,18.94234,0.95152,0.67191,1.34152,0.36757,0.1469099999999999,1.30602,1.37807,230.0
"1 / 1 ALFRED STREET, BEAUMARIS",-37.976425,145.049731,2020,2,2.0,2.0,2,3193,208011168,House,24.27638,1.75831,1.603,1.94455,,,2.64316,3.02537,500.0
"1 / 15 POPLAR GROVE, CARNEGIE",-37.886089,145.062922,2020,7,1.0,1.0,1,3163,208021176,Apartment,15.42169,2.00998,1.69753,,0.53452,,,,260.0
"1 / 174 MINERVA ROAD, MANIFOLD HEIGHTS",-38.143532,144.329529,2020,9,3.0,2.0,1,3218,203021040,House,77.19199,0.49919,0.86262,1.69782,,,,,360.0
"1 / 19 LANGTREE AVENUE, WANGARATTA",-36.352885,146.301282,2020,1,2.0,1.0,1,3677,204021066,House,240.59394,1.39637,0.6166,1.76606,2.6510700000000003,1.6600899999999998,1.95956,,190.0
"1 / 24 BRISBANE STREET, MURRUMBEENA",-37.885636,145.067958,2020,2,1.0,1.0,1,3163,208021181,Apartment,15.21218,1.91128,0.21562,2.28192,0.5799,,0.61137,,300.0
"1 / 24 BRISBANE STREET, MURRUMBEENA",-37.885636,145.067958,2020,5,1.0,1.0,1,3163,208021181,Apartment,15.21218,1.91128,0.21562,2.28192,0.5799,,0.61137,,290.0
"1 / 24 EBDEN AVENUE, BLACK ROCK",-37.9773344,145.0181317,2020,2,2.0,1.0,2,3193,208011173,Apartment,21.00334,1.502,0.67355,2.44575,3.64053,2.47954,1.02857,,550.0
"1 / 24 MELBOURNE ROAD, YEA",-37.21391001,145.42128001,2020,9,3.0,2.0,2,3717,204011062,House,128.76661,1.53803,0.5676100000000001,1.50961,5.45096,1.44296,0.7985800000000001,,385.0
"1 / 24 PARK STREET, MOONEE PONDS",-37.761492,144.919575,2020,7,3.0,2.0,1,3039,206031116,House,7.71909,0.6386499999999999,0.50203,,1.01255,1.6702,0.81985,,750.0
"1 / 25 ABECKETT ROAD, BUNYIP",-38.0957366002,145.7205765002,2020,5,2.0,1.0,1,3815,212011547,House,82.64059,0.81998,0.7495499999999999,9.28746,0.51642,0.37417,0.48888,,300.0
"1 / 26 NOBLE STREET, NEWTOWN",-38.1542099,144.3492559,2020,8,3.0,1.0,1,3220,203021046,House,79.294,0.44532,0.44571,0.92182,,,,,620.0
"1 / 28 QUEENS PARADE, GLEN IRIS",-37.85246,145.092056,2020,1,3.0,1.0,1,3146,207011150,Apartment,14.50249,0.73573,3.03496,,1.64124,,,4.71847,400.0
"1 / 28 QUEENS PARADE, GLEN IRIS",-37.85246,145.092056,2020,6,3.0,1.0,1,3146,207011150,Apartment,14.50249,0.73573,3.03496,,1.64124,,,4.71847,400.0
"1 / 28 QUEENS PARADE, GLEN IRIS",-37.85246,145.092056,2020,11,3.0,1.0,1,3146,207011150,Apartment,14.50249,0.73573,3.03496,,1.64124,,,4.71847,400.0
"1 / 3 TRENTHAM STREET, SANDRINGHAM",-37.94967,145.006768,2020,4,3.0,2.0,2,3191,208011173,House,17.846700000000002,1.89832,0.3485899999999999,1.66853,0.44356,2.00504,0.45854,,850.0
"1 / 303 WARRENHEIP STREET, BUNINYONG",-37.6497164002,143.8841218002,2020,6,3.0,2.0,2,3357,201011005,House,121.3865,0.5734400000000001,0.78715,,,,0.31892,,320.0
"1 / 303 WARRENHEIP STREET, BUNINYONG",-37.6497164002,143.8841218002,2020,7,3.0,2.0,2,3357,201011005,House,121.3865,0.5734400000000001,0.78715,,,,0.31892,,320.0
"1 / 303 WARRENHEIP STREET, BUNINYONG",-37.6497164002,143.8841218002,2020,8,3.0,2.0,2,3357,201011005,House,121.3865,0.5734400000000001,0.78715,,,,0.31892,,350.0
"1 / 34 BISHOP STREET, KINGSVILLE",-37.81072,144.874925,2020,2,2.0,1.0,1,3012,213031350,Apartment,9.32832,2.08958,,,2.36014,,,,295.0
"1 / 35 LINACRE ROAD, HAMPTON",-37.942114,145.005694,2020,9,2.0,1.0,1,3188,208011172,Apartment,16.98922,0.6789,1.36302,1.76997,0.97182,1.45254,,,495.0
"1 / 392 NEW STREET, BRIGHTON",-37.8985127,144.9943072,2020,7,2.0,2.0,2,3186,208011169,House,11.38959,1.2258699999999998,0.4463399999999999,0.44235,1.13576,1.50058,1.94248,,700.0
"1 / 45 OAKLEIGH ROAD, CARNEGIE",-37.898623,145.04998,2020,4,1.0,1.0,1,3163,208021176,Apartment,16.733580000000003,1.2138,0.92719,,2.11659,,,,260.0
"1 / 45 OAKLEIGH ROAD, CARNEGIE",-37.898623,145.04998,2020,5,1.0,1.0,1,3163,208021176,Apartment,16.733580000000003,1.2138,0.92719,,2.11659,,,,260.0
"1 / 47 ULUPNA ROAD, ORMOND",-37.89988,145.043146,2020,6,1.0,1.0,1,3204,208021182,Apartment,16.10109,1.14697,1.85288,,0.7017,,1.45499,,270.0
"1 / 5 SYLVERLY GROVE, CAULFIELD NORTH",-37.88265001,145.02171001,2020,2,3.0,2.0,2,3161,208021178,House,12.39869,1.531,1.0370899999999998,0.88939,,0.35984,0.23028,,760.0
"1 / 5-7 POET ROAD, BENTLEIGH EAST",-37.91033789,145.07352256,2020,3,2.0,1.0,2,3165,208021426,House,20.62055,2.37171,1.25578,1.47882,,2.5857,,,465.0
"1 / 508 MELBOURNE ROAD, NEWPORT",-37.837444,144.88268,2020,11,2.0,1.0,1,3015,213021344,Apartment,11.08922,0.12182,0.47776,2.45097,1.18557,,1.04531,,350.0
"1 / 52 TRUGANINI ROAD, CARNEGIE",-37.890082,145.05392,2020,1,3.0,2.0,2,3163,208021176,House,15.94161,0.8250599999999999,0.17121,,1.00394,,,,575.0
"1 / 530 TOORAK ROAD, TOORAK",-37.842784,145.018443,2020,1,2.0,1.0,1,3142,206061138,Apartment,8.247069999999999,1.23274,1.1036,1.18314,1.12668,,,,440.0
"1 / 57 ROBE STREET, ST KILDA",-37.86387,144.979793,2020,5,1.0,1.0,1,3182,206051514,Apartment,8.051350000000001,1.06563,0.87301,1.33858,0.73753,,,,400.0
"1 / 6 LATROBE STREET, MENTONE",-37.9748024002,145.064823002,2020,11,3.0,1.0,2,3194,208031190,House,24.50173,1.49546,1.33662,1.40447,1.12104,,1.29275,1.73669,550.0
"1 / 67 HIGH STREET, WYCHEPROOF",-36.0767136002,143.2271833002,2020,4,1.0,1.0,1,3527,215031400,Apartment,275.183,0.94163,0.1274,0.60339,0.76201,0.57305,0.6464099999999999,,145.0
"1 / 67 HIGH STREET, WYCHEPROOF",-36.0767136002,143.2271833002,2020,5,1.0,1.0,1,3527,215031400,Apartment,275.183,0.94163,0.1274,0.60339,0.76201,0.57305,0.6464099999999999,,145.0
"1 / 67 HIGH STREET, WYCHEPROOF",-36.0767136002,143.2271833002,2020,12,1.0,1.0,1,3527,215031400,Apartment,275.183,0.94163,0.1274,0.60339,0.76201,0.57305,0.6464099999999999,,145.0
"1 / 707 HUMFFRAY STREET SOUTH, BALLARAT",-37.572998,143.855147,2020,6,3.0,1.0,1,3350,201011483,House,115.53446,1.51943,0.8600399999999999,1.47887,,,,,275.0
"1 / 714 NEPEAN HIGHWAY, CARRUM, CARRUM",-38.0747544002,145.1221173002,2020,12,3.0,1.0,3,3197,208031185,House,48.76409,2.2359,0.8093400000000001,,0.40362,,,,395.0
"1 / 724 HAWTHORN ROAD, BRIGHTON EAST",-37.91092,145.01723,2020,9,3.0,2.0,1,3187,208011170,House,15.50505,0.75913,0.08707,1.54175,,,,,670.0
"1 / 77 OGILVIE STREET, ESSENDON",-37.747324,144.892666,2020,6,3.0,2.0,2,3040,206031501,House,11.46599,1.48982,1.57149,0.82573,,,,,450.0
"1 / 87 BRANDY CREEK ROAD, WARRAGUL",-38.145106,145.937604,2020,2,2.0,1.0,1,3820,205011079,Apartment,105.30555,1.30981,0.59424,3.66452,2.68445,3.77017,2.30024,,245.0
"1 / 88 VIEW STREET, GLENROY",-37.6960116,144.9283001,2020,5,2.0,1.0,1,3046,210031535,House,15.26227,0.64971,0.3665,1.19521,,,,,370.0
"1 / 9 VAN NESS AVENUE, MORNINGTON",-38.236251,145.03811,2020,10,3.0,1.0,2,3931,214021591,House,74.48013,0.43594,3.1331,3.57953,2.30947,,,,495.0
"1 / 99 ROSE STREET, COBURG",-37.7408079,144.9473533,2020,5,2.0,1.0,1,3058,206011109,House,9.88485,0.9936,1.63257,0.55388,,,1.16407,,495.0
"1 //231 TSCHAMPIONS ROAD, MACCLESFIELD",-37.88456001,145.50156001,2020,4,2.0,1.0,1,3782,211051279,Apartment,66.20307000000001,,2.97688,13.64423,,,13.3001,,350.0
"1 ADINA COURT, FRANKSTON",-38.1437447002,145.1543184002,2020,9,4.0,1.0,1,3199,214011372,House,55.03218,0.61364,0.75494,0.5767100000000001,,,,2.07781,450.0
"1 ALMA AVENUE, ALTONA MEADOWS",-37.86962,144.786918,2020,2,3.0,1.0,2,3028,213021342,House,23.55871,0.3671999999999999,0.68125,,,,,,350.0
"1 ALMA AVENUE, ALTONA MEADOWS",-37.86962,144.786918,2020,3,3.0,1.0,2,3028,213021342,House,23.55871,0.3671999999999999,0.68125,,,,,,350.0
"1 AMAROO COURT, ELTHAM",-37.709799,145.168685,2020,5,3.0,2.0,2,3095,209031209,House,26.58637,2.14813,1.42774,2.8520700000000003,2.31795,,2.06194,,590.0
"1 AMAROO GROVE, BURNSIDE",-37.7519408002,144.7531832002,2020,3,4.0,2.0,1,3023,213041461,House,29.61786,,1.14786,,,,,,510.0
"1 ANDERSON PARADE, BUNDOORA",-37.698487,145.079134,2020,6,3.0,1.0,2,3083,209011196,House,18.90293,0.4335799999999999,1.27829,2.56392,,,,1.05275,460.0
"1 ANVIL STREET, CHARLEMONT",-38.2126242002,144.3552862002,2020,8,4.0,2.0,2,3217,203021485,House,90.18399,2.32666,,4.28307,,,,,420.0
"1 APPLE LANE, ASCOT",-36.7022425002,144.3252294002,2020,1,4.0,2.0,2,3551,202011025,House,159.08228,1.11389,1.51576,5.45923,0.91949,,,,380.0
"1 ASHBROOK WAY, CRANBOURNE WEST",-38.10861,145.265177,2020,7,4.0,2.0,2,3977,212031304,House,51.93514,3.11794,3.39315,3.06377,,,,,410.0
"1 AUGUSTA CRESCENT, FRANKSTON",-38.119878,145.1881194,2020,8,3.0,2.0,1,3199,214011376,House,50.96986,,1.4878399999999998,,,,,,430.0
"1 AUGUSTA CRESCENT, FRANKSTON",-38.119878,145.1881194,2020,9,3.0,2.0,1,3199,214011376,House,50.96986,,1.4878399999999998,,,,,,430.0
"1 AVARD COURT, NOBLE PARK",-37.975678,145.176668,2020,1,3.0,1.0,2,3174,212041460,House,34.8768,0.60797,0.7078099999999999,,1.96872,,,,400.0
"1 AVARD COURT, NOBLE PARK",-37.975678,145.176668,2020,2,3.0,1.0,2,3174,212041460,House,34.8768,0.60797,0.7078099999999999,,1.96872,,,,400.0
"1 AVILA PLACE, KEILOR LODGE",-37.700397,144.806967,2020,8,4.0,2.0,2,3038,213011340,House,22.96696,1.69257,2.58927,0.34701,3.62671,,,,400.0
"1 AVON COURT, BUNDOORA",-37.70581,145.055805,2020,3,3.0,1.0,1,3083,209011196,House,16.2791,0.99519,0.93857,0.88303,,,,1.88991,360.0
"1 AVON COURT, BUNDOORA",-37.70581,145.055805,2020,11,3.0,1.0,1,3083,209011196,House,16.2791,0.99519,0.93857,0.88303,,,,1.88991,1434.0
"1 AVON COURT, WERRIBEE",-37.91071001,144.67657001,2020,5,4.0,2.0,2,3030,213051368,House,32.51007,2.39516,2.09463,1.14322,3.84718,2.9198000000000004,4.11653,,450.0
"1 BAIKAL CRESCENT, MANOR LAKES",-37.8733986,144.5820828,2020,8,4.0,2.0,2,3024,213051579,House,41.26749,,3.53416,,,,,,390.0
"1 BALTIMORE DRIVE, POINT COOK",-37.882097,144.726277,2020,2,4.0,2.0,2,3030,213051581,House,26.96794,,1.9835,2.25284,,,,,440.0
"1 BALTIMORE DRIVE, POINT COOK",-37.882097,144.726277,2020,4,4.0,2.0,2,3030,213051581,House,26.96794,,1.9835,2.25284,,,,,440.0
"1 BANOOL COURT, FRANKSTON SOUTH",-38.162686,145.132275,2020,12,3.0,1.0,2,3199,214011373,House,55.74444,1.15015,1.72347,0.44511,,,,,475.0
"1 BARINGHUP STREET, CHELTENHAM",-37.964836,145.061661,2020,5,3.0,1.0,1,3192,208031188,House,27.46104,1.92255,0.25949,2.61235,1.65858,,0.59968,1.03952,520.0
"1 BARRINGUN CRESCENT, CLAYTON SOUTH",-37.941694,145.113761,2020,11,3.0,1.0,6,3169,212041310,House,26.41749,2.1963000000000004,0.6766,2.67229,3.77917,,,,450.0
"1 BARTON PLACE, EASTWOOD",-37.814218,147.629283,2020,4,3.0,2.0,2,3875,205021081,House,282.88763,0.3780199999999999,0.27001,3.40847,3.75368,4.121689999999999,4.09051,,355.0
"1 BASS COURT, MOUNT WAVERLEY",-37.858909,145.136799,2020,1,4.0,3.0,2,3149,212051323,House,18.64485,2.69964,1.50108,1.51954,2.76044,,,,625.0
"1 BASS CT, MOUNT WAVERLEY",-37.8588001,145.13683001,2020,1,4.0,3.0,2,3149,212051323,House,18.64485,2.69964,1.50108,1.51954,2.76044,,,,625.0
"1 BATMAN STREET, SURF BEACH",-38.50553001,145.28518001,2020,9,2.0,1.0,0,3922,205031091,House,131.9532,5.2378100000000005,7.16617,3.19752,,,8.93365,,300.0
"1 BATMAN STREET, SURF BEACH",-38.50553001,145.28518001,2020,10,2.0,1.0,0,3922,205031091,House,131.9532,5.2378100000000005,7.16617,3.19752,,,8.93365,,300.0
"1 BEASTON WAY, LUCAS",-37.553,143.771,2020,2,4.0,2.0,2,3350,201011001,House,126.75725,3.01574,1.0878,,,,,,420.0
"1 BEASTON WAY, LUCAS",-37.553,143.771,2020,9,4.0,2.0,2,3350,201011001,House,126.75725,3.01574,1.0878,,,,,,420.0
"1 BEAUMONT AVE, CHARLEMONT",-38.2617284,144.3248554,2020,2,3.0,2.0,2,3217,203031053,House,95.29367,2.4098200000000003,6.22767,5.48241,,,7.505529999999999,11.56733,400.0
"1 BEAUMONT AVENUE, CHARLEMONT",-38.2182224666837,144.367786645889,2020,1,3.0,2.0,2,3217,203021485,House,91.10362,2.48758,,4.52855,,,,,400.0
"1 BEAUMONT DRIVE, BEECHWORTH",-36.350616,146.691136,2020,9,3.0,2.0,1,3747,204031068,House,275.59119,1.22349,0.5909099999999999,0.85768,1.66802,0.13029,0.98537,,350.0
"1 BECKWITH STREET, COBURG",-37.738086,144.965278,2020,7,3.0,1.0,3,3058,206011497,House,9.42921,0.59593,0.58212,0.39799,,,,,570.0
"1 BEECH STREET, SURREY HILLS",-37.835865,145.107994,2020,1,2.0,1.0,1,3127,207031167,House,14.19097,0.90521,1.06194,,2.6055,,,,450.0
"1 BEREA COURT, RINGWOOD",-37.800525,145.235433,2020,8,5.0,2.0,2,3134,211031266,House,28.74455,0.55851,1.04809,0.66811,2.38633,,2.2032,1.80011,530.0
"1 BEREA COURT, RINGWOOD",-37.800525,145.235433,2020,11,5.0,2.0,2,3134,211031266,House,28.74455,0.55851,1.04809,0.66811,2.38633,,2.2032,1.80011,530.0
"1 BETHELA STREET, CAMBERWELL",-37.846692,145.08925,2020,6,2.0,1.0,2,3124,207011149,House,14.13584,1.36703,0.53923,3.75858,1.84877,,3.60485,,440.0
"1 BEVERLEY GROVE, MOUNT WAVERLEY",-37.876044,145.121178,2020,1,4.0,2.0,2,3149,212051324,House,20.085330000000003,1.5278699999999998,0.89301,3.44229,,4.44754,1.1256700000000002,7.4186,795.0
"1 BITTERN STREET, MELTON",-37.678804,144.57509,2020,7,3.0,1.0,2,3337,213041577,House,46.79107,0.93712,1.31872,,,,0.97426,,340.0
"1 BITTERN STREET, MELTON",-37.678804,144.57509,2020,8,3.0,1.0,2,3337,213041577,House,46.79107,0.93712,1.31872,,,,0.97426,,340.0
"1 BOISDALE STREET, SURREY HILLS",-37.83467,145.099151,2020,2,3.0,2.0,2,3127,207031167,House,13.33751,1.91347,1.17927,,2.30979,,,,640.0
"1 BOISDALE STREET, SURREY HILLS",-37.83467,145.099151,2020,3,3.0,2.0,2,3127,207031167,House,13.33751,1.91347,1.17927,,2.30979,,,,600.0
"1 BOND STREET, NEWTOWN",-38.156624,144.350348,2020,9,3.0,2.0,2,3220,203021046,House,79.63588,0.49244,0.7876000000000001,1.2637,,,,,550.0
"1 BORRIE STREET, RESERVOIR",-37.70866001,145.0196001,2020,8,3.0,1.0,2,3073,209021523,House,14.05843,0.92464,0.41814,,1.11858,,,,430.0
"1 BRACK COURT, SUNBURY",-37.572594,144.713091,2020,8,3.0,1.0,2,3429,210041541,House,40.37111,0.72215,0.87763,2.12556,,,,,390.0
"1 BRACK COURT, SUNBURY",-37.572594,144.713091,2020,10,3.0,1.0,2,3429,210041541,House,40.37111,0.72215,0.87763,2.12556,,,,,390.0
"1 BRACKNELL COURT, LARA",-38.015172,144.406619,2020,9,2.0,1.0,1,3212,203021043,House,60.263,1.57243,0.49809,1.7832,3.91393,,2.87759,,325.0
"1 BRIDLE PATH, CHIRNSIDE PARK",-37.758785,145.323642,2020,2,3.0,1.0,2,3116,211051275,House,38.03047,1.93014,2.10244,2.48734,,,,,450.0
"1 BRISTOL DRIVE, CRANBOURNE NORTH",-38.0875865,145.3281735,2020,1,4.0,2.0,2,3977,212031559,House,51.56061,,0.8503200000000001,4.86173,,,,,430.0
"1 BRISTOL DRIVE, CRANBOURNE NORTH",-38.0875865,145.3281735,2020,11,4.0,2.0,2,3977,212031559,House,51.56061,,0.8503200000000001,4.86173,,,,,440.0
"1 BRIXTON STREET, BONBEACH",-38.065533,145.121075,2020,7,2.0,1.0,1,3196,208031186,House,49.77763,1.25941,0.61354,0.6119,0.1387,,2.06564,,420.0
"1 BRUFORD ROAD, PORT MELBOURNE",-37.82848001,144.94267001,2020,9,3.0,3.0,2,3207,206051511,House,4.58499,1.3857000000000002,1.15,,1.11804,,,,800.0
"1 CANTALA DRIVE, DONCASTER",-37.775855,145.127204,2020,9,4.0,2.0,2,3108,207021157,House,19.32405,2.39421,0.84324,2.18968,,,,1.52743,600.0
"1 CARAMUT COURT, WARRANWOOD",-37.775769,145.240291,2020,5,3.0,2.0,2,3134,211031265,House,31.46725,1.23683,0.86478,3.91136,,,,,500.0
"1 CARMYLE COURT, BUNDOORA",-37.7065314002,145.0610694002,2020,8,3.0,1.0,2,3083,209011196,House,16.91162,0.60539,0.20762,0.15208,,,,1.5001,420.0
"1 CARR ST, BELMONT",-38.1793986,144.3389362,2020,10,3.0,1.0,1,3216,203021037,House,87.86048,0.65127,0.41756,1.2191500000000002,,,,,370.0
"1 CARR STREET, BELMONT",-38.179372,144.338891,2020,10,3.0,1.0,1,3216,203021037,House,87.85613000000001,0.65563,0.42192,1.21479,,,,,370.0
"1 CASHIN COURT, MELTON",-37.678394,144.589378,2020,7,3.0,1.0,2,3337,213041577,House,44.75445,3.08406,1.66873,,,,3.12119,,340.0
"1 CATHERINE STREET, GOUGHS BAY",-37.179698,146.067158,2020,1,3.0,2.0,2,3723,204011057,House,227.27559,11.98544,20.36091,20.73988,34.87221,20.65421,21.35056,,280.0
"1 CATHERINE STREET, GOUGHS BAY",-37.179698,146.067158,2020,3,3.0,2.0,2,3723,204011057,House,227.27559,11.98544,20.36091,20.73988,34.87221,20.65421,21.35056,,280.0
"1 CATHERINE STREET, GOUGHS BAY",-37.179698,146.067158,2020,4,3.0,2.0,2,3723,204011057,House,227.27559,11.98544,20.36091,20.73988,34.87221,20.65421,21.35056,,280.0
"1 CAYMAN COURT, LYNDHURST",-38.0577860451654,145.246936078646,2020,2,3.0,2.0,2,3975,212031306,House,43.767050000000005,2.97263,2.84709,,5.35813,,,,400.0
"1 CECIL COURT, TECOMA",-37.896452,145.342163,2020,7,3.0,2.0,2,3160,211051284,House,45.95086,1.74261,1.58958,2.99556,1.7148,,,,540.0
"1 CEDAR CLOSE, MOOROOLBARK",-37.7881927002,145.315112002,2020,11,2.0,1.0,1,3138,211051281,House,36.38558,1.84229,0.24405,0.09553,0.64388,,0.58298,,400.0
"1 CENTAURUS AVE, CLIFTON SPRINGS",-38.1492755,144.57108414,2020,2,3.0,2.0,1,3222,203031048,House,101.99034,1.06534,2.41196,3.62164,4.38223,,3.20547,,460.0
"1 CENTAURUS AVENUE, CLIFTON SPRINGS",-38.1492755,144.57108414,2020,1,3.0,2.0,1,3222,203031048,House,101.99034,1.06534,2.41196,3.62164,4.38223,,3.20547,,460.0
"1 CENTAURUS AVENUE, CLIFTON SPRINGS",-38.1492755,144.57108414,2020,2,3.0,2.0,1,3222,203031048,House,101.99034,1.06534,2.41196,3.62164,4.38223,,3.20547,,460.0
"1 CENTAURUS AVENUE, CLIFTON SPRINGS",-38.1492755,144.57108414,2020,3,3.0,2.0,1,3222,203031048,House,101.99034,1.06534,2.41196,3.62164,4.38223,,3.20547,,460.0
"1 CHANNEL ROAD, MOUNT EVELYN",-37.783902,145.373141,2020,2,3.0,2.0,2,3796,211051283,House,43.98129,0.62493,0.93661,2.27796,,,0.90759,,440.0
"1 CHAPPELL COURT, SUNBURY",-37.5850023002,144.6969701002,2020,1,4.0,2.0,1,3429,210041540,House,39.76229,1.59374,2.40968,,3.66341,,,,360.0
"1 CHATSWORTH QUADRANT, TEMPLESTOWE LOWER",-37.763359,145.103782,2020,5,3.0,1.0,1,3107,207021160,House,15.5783,0.7767000000000001,0.78626,1.50996,,,,,400.0
"1 CHIANINA LANE, CLYDE NORTH",-38.100457,145.3321233,2020,12,4.0,3.0,2,3978,212031556,House,52.33725,,1.94362,,,,,,495.0
"1 CHIFLEY CIRCUIT, BURNSIDE HEIGHTS",-37.726732,144.761692,2020,6,4.0,3.0,2,3023,213041462,House,33.59978,,1.69242,,,,,,440.0
"1 CLARENDON STREET, COBURG",-37.753546,144.952063,2020,9,3.0,1.0,0,3058,206011498,House,8.3096,0.51764,0.52606,2.90621,1.04573,,2.34687,,590.0
"1 CLIFTON STREET, CLIFTON HILL",-37.787337,145.00483,2020,12,2.0,1.0,0,3068,206071145,Apartment,6.13638,0.24595,1.81315,3.77209,1.16823,2.23287,,,645.0
"1 CLYDEN COURT, BURWOOD EAST",-37.85263,145.147255,2020,7,4.0,2.0,1,3151,207031166,House,19.20312,1.36059,1.0933499999999998,3.0009200000000003,1.29367,,,,510.0
"1 COLLINS ROAD, STANLEY",-36.407146,146.757034,2020,7,4.0,1.0,2,3747,204031068,House,283.82434,11.3904,0.49369,11.75151,9.45708,11.02432,9.82884,,350.0
"1 COLONIAL CLOSE, WHEELERS HILL",-37.904559,145.190823,2020,11,3.0,2.0,2,3150,212051327,House,26.61916,1.10157,0.34642,2.23624,,,,3.22754,460.0
"1 CORVI COURT, LARA",-38.019955,144.409668,2020,5,4.0,2.0,2,3212,203021043,House,60.06243,0.4482799999999999,1.40279,0.47134,1.3224200000000002,,1.73552,,370.0
"1 CRAWFORDS ROAD, WERRIBEE SOUTH",-37.93404001,144.71602001,2020,6,3.0,1.0,2,3030,213051368,House,35.63156,5.50635,4.0606100000000005,3.03747,8.70077,7.7734,8.970120000000001,,310.0
"1 CRAWFORDS ROAD, WERRIBEE SOUTH, WERRIBEE SOUTH",-37.93404001,144.71602001,2020,6,3.0,1.0,2,3030,213051368,House,35.63156,5.50635,4.0606100000000005,3.03747,8.70077,7.7734,8.970120000000001,,310.0
"1 CURDIE PLACE, GROVEDALE",-38.2098159002,144.3160061002,2020,12,4.0,2.0,2,3216,203021487,House,85.84205,1.00641,1.93604,1.7733800000000002,1.67553,,,,520.0
"1 CURRAN COURT, WURRUK",-38.103497,147.03306,2020,12,3.0,1.0,2,3850,205051103,House,210.29858,0.33975,1.42586,4.00244,4.92478,,3.5215,,300.0
"1 CUSTARD WAY, MANOR LAKES",-37.86553001,144.58171001,2020,6,4.0,2.0,2,3024,213051579,House,41.112370000000006,,3.37904,,,,,,375.0
"1 CUSTARD WAY, MANOR LAKES",-37.86553001,144.58171001,2020,7,4.0,2.0,2,3024,213051579,House,41.112370000000006,,3.37904,,,,,,375.0
"1 DATURA AVENUE, CRANBOURNE NORTH",-38.07289001,145.31952001,2020,1,4.0,2.0,2,3977,212031559,House,50.62946,,1.86737,1.18215,,,,,510.0
"1 DATURA AVENUE, CRANBOURNE NORTH",-38.07289001,145.31952001,2020,2,4.0,2.0,2,3977,212031559,House,50.62946,,1.86737,1.18215,,,,,510.0
"1 DAY STREET, TONGALA",-36.253645,144.9547219,2020,1,3.0,1.0,0,3621,216011407,House,211.16094,7.96097,0.18198,14.22174,0.52697,14.65455,0.78271,,220.0
"1 DENDY COURT, MULGRAVE",-37.9341331002,145.1646824002,2020,7,3.0,1.0,2,3170,212041317,House,30.12784,3.0155,1.42726,2.47658,2.61742,,3.34141,,390.0
"1 DENTON STREET, BRIGHTON EAST",-37.929992,145.026658,2020,9,4.0,2.0,2,3187,208011170,House,18.00028,1.26958,1.99368,1.6993900000000002,,,,,725.0
"1 DIABLO PLACE, CRAIGIEBURN",-37.6064503,144.9150499,2020,7,4.0,2.0,2,3064,210051443,House,26.92667,3.26937,2.17228,2.90942,5.59378,,,,410.0
"1 DIABLO PLACE, CRAIGIEBURN",-37.6064503,144.9150499,2020,8,4.0,2.0,2,3064,210051443,House,26.92667,3.26937,2.17228,2.90942,5.59378,,,,410.0
"1 DIABLO PLACE, CRAIGIEBURN",-37.6064503,144.9150499,2020,9,4.0,2.0,2,3064,210051443,House,26.92667,3.26937,2.17228,2.90942,5.59378,,,,410.0
"1 DIAMOND DRIVE, CARDIGAN VILLAGE",-37.5212175002,143.7095363002,2020,11,5.0,2.0,2,3352,201011001,House,135.54306,12.22251,10.38027,,,,,,600.0
"1 DICKENS STREET, RICHMOND",-37.820135,145.008702,2020,9,2.0,1.0,1,3121,206071517,House,4.97429,0.83548,1.56226,0.87041,1.3023399999999998,,,,600.0
"1 DINGLEY CLOSE, GLADSTONE PARK",-37.686288,144.89869,2020,7,3.0,1.0,1,3043,210051245,House,20.53179,1.75015,0.30487,1.6726800000000002,,,2.78527,2.09394,400.0
"1 DOLPHIN DRIVE, SMITHS BEACH",-38.497641,145.260932,2020,2,3.0,2.0,2,3922,205031091,House,134.41009,4.10757,6.86651,2.9413,,,7.52964,,350.0
"1 DOLPHIN DRIVE, SMITHS BEACH",-38.497641,145.260932,2020,3,3.0,2.0,2,3922,205031091,House,134.41009,4.10757,6.86651,2.9413,,,7.52964,,350.0
"1 DOLPHIN DRIVE, SMITHS BEACH",-38.497641,145.260932,2020,7,3.0,2.0,2,3922,205031091,House,134.41009,4.10757,6.86651,2.9413,,,7.52964,,1060.0
"1 DON DRIVE, CRANBOURNE WEST",-38.105162,145.2594,2020,1,3.0,1.0,0,3977,212031304,House,52.181050000000006,3.36385,3.55152,0.5153300000000001,,,,,330.0
"1 DULNAIN STREET, MOUNT MARTHA",-38.245275,145.034003,2020,6,3.0,1.0,2,3934,214021382,House,74.47774000000001,1.86126,2.13388,,,,,,600.0
"1 DUNDAS STREET, EDENHOPE",-37.0352228,141.3010894,2020,12,3.0,1.0,2,3318,215011393,House,392.00444,5.84648,0.31031,0.2166699999999999,38.829,1.1165,0.8987999999999999,,300.0
"1 EAGLE COURT, INVERMAY PARK",-37.530758,143.858667,2020,6,2.0,2.0,1,3350,201011482,House,119.74088,0.50775,1.459,4.36257,3.67882,,,,320.0
"1 EARLS COURT, BALWYN NORTH",-37.78764001,145.09698001,2020,5,4.0,2.0,2,3104,207011148,House,15.90433,0.5659099999999999,1.8222,2.14819,,,,,720.0
"1 EARLS CT, BALWYN NORTH",-37.78764001,145.09698001,2020,5,4.0,2.0,2,3104,207011148,House,15.90433,0.5659099999999999,1.8222,2.14819,,,,,720.0
"1 ENRIGHT ST, BOTANIC RIDGE",-38.1456318002,145.2829242002,2020,6,4.0,2.0,2,3977,212031303,House,58.32573,6.71271,0.64464,4.03488,7.40772,,,,480.0
"1 ENRIGHT STREET, BOTANIC RIDGE",-38.1456318002,145.2829242002,2020,6,4.0,2.0,2,3977,212031303,House,58.32573,6.71271,0.64464,4.03488,7.40772,,,,480.0
"1 EVANS CRESCENT, LAVERTON",-37.855376,144.774672,2020,1,3.0,1.0,1,3028,213051363,House,20.86209,0.38422,0.3695,,1.73739,,1.3716199999999998,,305.0
"1 EVERETT COURT, MACLEOD",-37.7171746002,145.0625997002,2020,2,4.0,3.0,4,3085,209021205,House,17.88754,2.80439,3.10901,1.88225,2.11679,1.5011199999999998,,3.2416,900.0
"1 EVERETT COURT, MACLEOD",-37.7171746002,145.0625997002,2020,3,4.0,3.0,4,3085,209021205,House,17.88754,2.80439,3.10901,1.88225,2.11679,1.5011199999999998,,3.2416,900.0
"1 FEDERAL STREET, FOOTSCRAY",-37.79563001,144.89719001,2020,6,3.0,1.0,2,3011,213031348,House,7.717899999999999,0.41918,0.7478400000000001,0.35436,0.99106,1.47992,1.54588,,440.0
"1 FERNWOOD ROAD, NARRE WARREN",-38.014887,145.30045,2020,2,4.0,1.0,2,3805,212021456,House,42.14383,0.43357,1.04099,1.54879,2.41194,,,2.72218,350.0
"1 FINK COURT, HOPPERS CROSSING",-37.865846,144.676703,2020,5,3.0,1.0,2,3029,213051362,House,31.68955,3.00319,0.24549,2.61139,,,,,330.0
"1 FINLASON STREET, MANSFIELD",-37.059212,146.089659,2020,10,2.0,1.0,1,3722,204011057,Apartment,207.06656,14.09751,0.15188,0.40023,14.66319,0.44518,1.14153,,1216.0
"1 FINTONIA ROAD, NOBLE PARK",-37.9659604,145.1850454,2020,10,3.0,1.0,2,3174,212041459,House,32.9973,0.65659,1.05597,1.03879,0.91893,,,,385.0
"1 FLETCHER LANE, CARLTON NORTH",-37.78517,144.972009,2020,2,2.0,1.0,1,3054,206071140,Apartment,3.54799,2.73797,0.90842,0.8438300000000001,,,,,600.0
"1 FLODDEN WAY, BRIAR HILL",-37.70438,145.118709,2020,12,5.0,2.0,2,3088,209011202,House,23.66491,0.45913,1.39166,2.1592800000000003,2.33231,,,,635.0
"1 FLORENCE AVENUE, CAPEL SOUND",-38.3689051002,144.8683848002,2020,5,3.0,2.0,0,3940,214021384,House,94.08698,0.7128,2.41736,2.11239,,2.01184,2.58424,,1564.0
"1 FLORIDA COURT, BURNSIDE HEIGHTS",-37.735711,144.750294,2020,7,3.0,2.0,3,3023,213041462,House,31.12178,,0.4153199999999999,,,,,,400.0
"1 FORD STREET, CLIFTON HILL",-37.791503,144.998284,2020,2,2.0,1.0,0,3068,206071145,House,5.8081000000000005,0.62194,1.18267,4.1503000000000005,0.60903,2.6110900000000004,,,650.0
"1 FORESHORE ROAD, TOORADIN",-38.21378001,145.37984001,2020,6,2.0,1.0,0,3980,212031308,House,71.42214,9.81722,0.99836,,4.15596,,,,320.0
"1 GAUL AVENUE, DARNUM",-38.18797925,146.00027443,2020,5,3.0,2.0,3,3822,205011079,House,111.35305,1.1638,0.06142,7.80093,0.51737,7.14212,8.514040000000001,,350.0
"1 GAUL AVENUE, DARNUM",-38.18797925,146.00027443,2020,6,3.0,2.0,3,3822,205011079,House,111.35305,1.1638,0.06142,7.80093,0.51737,7.14212,8.514040000000001,,350.0
"1 GIDDINGS STREET, NORTH GEELONG",-38.1210221,144.3447254,2020,1,3.0,1.0,1,3215,203021047,House,76.12969,0.8169,1.93949,1.89741,1.35706,,,,335.0
"1 GLENCAPLE COURT, ENDEAVOUR HILLS",-37.95955,145.26503,2020,9,4.0,1.0,2,3802,212021453,House,37.20388,0.73845,1.06147,3.02061,,,,,360.0
"1 GLENEAGLES COURT, ROWVILLE",-37.91881705,145.22503679,2020,2,2.0,2.0,1,3178,211011256,House,34.81825,0.45359,1.42425,1.42733,,,,,395.0
"1 GRAIL COURT, GLEN WAVERLEY",-37.865073,145.182676,2020,7,3.0,2.0,2,3150,212051321,House,22.99935,2.44003,0.53264,1.15035,,,3.33377,,530.0
"1 GREEN COURT, BURNSIDE HEIGHTS",-37.7257359,144.7530587,2020,6,3.0,2.0,2,3023,213041462,House,32.43354,,1.39604,,,,,,400.0
"1 GREVILLIA COURT, ALTONA MEADOWS",-37.871216,144.787461,2020,6,4.0,2.0,7,3028,213021342,House,24.21739,0.60349,0.86521,,,,,,440.0
"1 GROSVENOR COURT, TOORAK",-37.8438495,145.0302901,2020,6,3.0,2.0,1,3142,206061138,House,9.3296,2.31528,2.18613,2.26568,1.70898,,,,995.0
"1 GUGGER PLACE, FYANSFORD",-38.13977001,144.31271001,2020,12,4.0,2.0,2,3221,203021040,House,79.24645,1.14247,1.39078,2.82754,,,,,550.0
"1 GUY PLACE, BACCHUS MARSH",-37.693268,144.415425,2020,10,3.0,2.0,1,3340,213041353,House,62.376,2.76576,4.10147,2.4015500000000003,2.75693,3.515,3.61471,,360.0
"1 HAKEA COURT, PORTLAND NORTH",-38.36645001,141.59602001,2020,8,3.0,1.0,2,3305,217011422,House,363.12525,0.47616,0.72668,1.2346199999999998,6.05508,5.74755,3.17601,,280.0
"1 HAMMENCE STREET, GLEN WAVERLEY",-37.871997,145.169335,2020,7,2.0,1.0,1,3150,212051321,House,26.04323,2.19621,0.5142,2.44047,,,3.08995,,420.0
"1 HANI COURT, TORQUAY",-38.316042,144.339206,2020,1,3.0,2.0,2,3228,203031053,House,102.51246,0.83275,1.7716500000000002,2.9293,,,2.75141,6.81321,500.0
"1 HANI COURT, TORQUAY",-38.316042,144.339206,2020,3,3.0,2.0,2,3228,203031053,House,102.51246,0.83275,1.7716500000000002,2.9293,,,2.75141,6.81321,500.0
"1 HARE ST, MORWELL",-38.2304105002,146.4196189002,2020,10,2.0,1.0,1,3840,205041096,House,153.93429999999998,0.60657,0.49749,1.30008,3.14541,3.70249,3.6052,,210.0
"1 HASLUCK CRESCENT, LYNBROOK",-38.053676,145.254136,2020,6,4.0,2.0,2,3975,212031306,House,43.68234,0.58297,0.81489,,4.68894,,,,420.0
"1 HASTINGS AVENUE, BEAUMARIS",-37.979785,145.048482,2020,1,3.0,1.0,2,3193,208011168,House,23.62579,0.91917,1.05561,1.39715,,,2.09577,2.47798,600.0
"1 HASTINGS AVENUE, BEAUMARIS",-37.979785,145.048482,2020,2,3.0,1.0,2,3193,208011168,House,23.62579,0.91917,1.05561,1.39715,,,2.09577,2.47798,600.0
"1 HASTINGS AVENUE, BEAUMARIS",-37.979785,145.048482,2020,12,3.0,1.0,2,3193,208011168,House,23.62579,0.91917,1.05561,1.39715,,,2.09577,2.47798,600.0
"1 HEATH COURT, SOMERS",-38.388475,145.173982,2020,12,4.0,2.0,2,3927,214021379,House,86.54194,0.36583,1.61715,11.14347,7.07651,,10.59788,,525.0
"1 HEATHWOOD WAY, OCEAN GROVE",-38.2521481,144.5477453,2020,2,3.0,2.0,2,3226,203031490,House,103.20063,0.31348,1.69016,1.58088,,,4.01613,,450.0
"1 HEATHWOOD WAY, OCEAN GROVE",-38.2521481,144.5477453,2020,11,3.0,2.0,2,3226,203031490,House,103.20063,0.31348,1.69016,1.58088,,,4.01613,,450.0
"1 HERRIOT STREET, BUNINYONG",-37.6575138,143.892334,2020,11,5.0,2.0,4,3357,201011005,House,121.44124,0.95003,0.72933,,,,1.39329,,650.0
"1 HICKS COURT, TRARALGON",-38.2001516,146.521337,2020,9,3.0,1.0,2,3844,205041494,House,162.61386,,0.7261299999999999,0.92897,,0.92875,,,335.0
"1 HIGHFIELD ROAD, CHADSTONE",-37.887273,145.104871,2020,4,4.0,1.0,1,3148,212051319,House,19.21317,1.67999,1.9293,1.4183599999999998,,,,,950.0
"1 HIGHTON LANE, MANSFIELD",-37.05994001,146.09632001,2020,1,2.0,1.0,2,3722,204011057,House,207.59725,14.62819,0.68256,1.06153,15.19386,0.97586,1.67221,,370.0
"1 HOBBS COURT, TONGALA",-36.245945,144.951545,2020,2,3.0,2.0,2,3621,216011407,House,213.02566,9.83074,0.92982,15.97323,1.22019,16.406029999999998,0.80562,,370.0
"1 HOLT PLACE, PAKENHAM",-38.082302,145.482535,2020,1,3.0,2.0,1,3810,212011552,House,61.62917,,2.03827,2.3355900000000003,6.14594,,,,340.0
"1 HOLT PLACE, PAKENHAM",-38.082302,145.482535,2020,9,3.0,2.0,1,3810,212011552,House,61.62917,,2.03827,2.3355900000000003,6.14594,,,,330.0
"1 HOLT PLACE, PAKENHAM",-38.082302,145.482535,2020,10,3.0,2.0,1,3810,212011552,House,61.62917,,2.03827,2.3355900000000003,6.14594,,,,330.0
"1 HONOUR LANE, CAROLINE SPRINGS",-37.718355,144.732771,2020,2,3.0,2.0,1,3023,213041360,House,32.79612,,1.68951,3.22384,,,,,380.0
"1 HONOUR LANE, CAROLINE SPRINGS",-37.718355,144.732771,2020,3,3.0,2.0,1,3023,213041360,House,32.79612,,1.68951,3.22384,,,,,380.0
"1 HOPE PLACE, SEABROOK",-37.878608,144.756692,2020,4,4.0,2.0,1,3028,213021345,House,24.30718,0.61186,0.2545,,,,,,400.0
"1 HUGHES PARADE, RESERVOIR",-37.696843,145.010412,2020,6,4.0,1.0,7,3073,209021524,House,15.06905,,0.74464,0.77309,,,,,550.0
"1 HUGHES PARADE, RESERVOIR",-37.696843,145.010412,2020,12,4.0,1.0,7,3073,209021524,House,15.06905,,0.74464,0.77309,,,,,595.0
"1 HUGHES STREET, CORINELLA",-38.414912,145.426079,2020,5,3.0,2.0,1,3984,205031093,House,113.38277,5.93304,0.95027,34.47618,12.57516,36.64767,14.21021,,290.0
"1 HUGHES STREET, CORINELLA",-38.414912,145.426079,2020,9,3.0,2.0,1,3984,205031093,House,113.38277,5.93304,0.95027,34.47618,12.57516,36.64767,14.21021,,290.0
"1 INCA WAY, COBURG",-37.745083002,144.9667911002,2020,4,3.0,3.0,1,3058,206011497,House,8.438469999999999,0.7785,0.6364299999999999,0.8856499999999999,,,,,685.0
"1 INCA WAY, COBURG",-37.745083002,144.9667911002,2020,5,3.0,3.0,1,3058,206011497,House,8.438469999999999,0.7785,0.6364299999999999,0.8856499999999999,,,,,685.0
"1 INCA WAY, COBURG",-37.745083002,144.9667911002,2020,6,3.0,3.0,1,3058,206011497,House,8.438469999999999,0.7785,0.6364299999999999,0.8856499999999999,,,,,685.0
"1 IRVINE AVENUE, MOUNT MARTHA",-38.273902,145.009397,2020,6,4.0,2.0,2,3934,214021382,House,78.68727,0.75039,1.43512,,,,,,1000.0
"1 JOHN STREET, SUNBURY",-37.5792202002,144.737064002,2020,5,4.0,1.0,1,3429,210041240,House,37.42821,5.75907,0.8415,1.55105,,,0.76918,,440.0
"1 JOHN STREET, SUNBURY",-37.5792202002,144.737064002,2020,6,4.0,1.0,1,3429,210041240,House,37.42821,5.75907,0.8415,1.55105,,,0.76918,,440.0
"1 JOHN STREET, SUNBURY",-37.5792202002,144.737064002,2020,11,4.0,1.0,1,3429,210041240,House,37.42821,5.75907,0.8415,1.55105,,,0.76918,,440.0
"1 KENMARE STREET, WATSONIA",-37.713596,145.077016,2020,9,2.0,1.0,1,3087,209011204,Apartment,19.20183,0.17825,1.59018,2.24678,1.5663699999999998,,,,1695.0
"1 KENMARE STREET, WATSONIA",-37.713596,145.077016,2020,10,2.0,1.0,1,3087,209011204,Apartment,19.20183,0.17825,1.59018,2.24678,1.5663699999999998,,,,1695.0
"1 KENNY STREET, STRATHMERTON",-35.924669,145.474731,2020,6,2.0,1.0,0,3641,216021413,House,238.78936,0.89458,0.39111,24.12978,0.93051,24.43817,23.3074,,170.0
"1 KING STREET, FITZROY NORTH",-37.776285,144.982677,2020,12,3.0,1.0,1,3068,206071143,House,5.17486,1.91486,0.4886999999999999,1.93043,1.65517,,,,670.0
"1 KOSKY STREET, SUNSHINE WEST",-37.787644,144.822797,2020,2,3.0,1.0,2,3020,213011338,House,14.274629999999998,1.2593299999999998,1.09411,1.53503,2.89575,,,,360.0
"1 LAING PLACE, MACLEOD",-37.71894705,145.07133309,2020,2,2.0,1.0,2,3085,209011203,House,18.24498,2.14276,2.6147600000000004,2.35367,2.2961,,,,380.0
"1 LAING PLACE, MACLEOD",-37.71894705,145.07133309,2020,3,2.0,1.0,2,3085,209011203,House,18.24498,2.14276,2.6147600000000004,2.35367,2.2961,,,,375.0
"1 LAKE ROAD, DAYLESFORD",-37.35237,144.140881,2020,5,2.0,1.0,1,3460,201021011,House,111.33885,1.15101,0.8764299999999999,2.76338,2.2077600000000004,2.06856,1.42162,,380.0
"1 LAKE ROAD, DAYLESFORD",-37.35237,144.140881,2020,11,2.0,1.0,1,3460,201021011,Apartment,111.33885,1.15101,0.8764299999999999,2.76338,2.2077600000000004,2.06856,1.42162,,380.0
"1 LAKE ROAD, DAYLESFORD",-37.35237,144.140881,2020,12,2.0,1.0,1,3460,201021011,Apartment,111.33885,1.15101,0.8764299999999999,2.76338,2.2077600000000004,2.06856,1.42162,,380.0
"1 LALOR STREET, BALLARAT EAST",-37.566136,143.893852,2020,10,3.0,1.0,2,3350,201011481,House,112.39206,0.89206,1.35829,0.84204,1.35843,,,,305.0
"1 LALOR STREET, BALLARAT EAST",-37.566136,143.893852,2020,11,3.0,1.0,2,3350,201011481,House,112.39206,0.89206,1.35829,0.84204,1.35843,,,,305.0
"1 LAMONT AVENUE, THE PATCH",-37.886377,145.389591,2020,1,3.0,2.0,9,3792,211051282,House,52.374300000000005,2.47209,1.25567,,,,8.03039,,600.0
"1 LAMONT CRESCENT, CRANBOURNE",-38.101113,145.270832,2020,10,3.0,1.0,1,3977,212031300,House,52.92896,2.43668,0.31872,1.97918,1.46128,,2.51929,2.0352,360.0
"1 LANDSBOROUGH AVENUE, ROWVILLE",-37.906465,145.256211,2020,6,3.0,2.0,2,3178,211011257,House,37.04864,1.53707,0.83384,,,,,,440.0
"1 LAURA AVENUE, BELMONT",-38.180279,144.33625,2020,6,3.0,1.0,0,3216,203021037,House,87.75972999999999,0.84534,0.64177,0.9489,,,,,350.0
"1 LISMORE ROAD, SKIPTON",-37.68522944,143.3496661,2020,12,3.0,1.0,0,3361,201031014,House,168.05327,29.59305,29.26252,29.28973,30.66109,30.17417,30.1516,,210.0
"1 LITTLE DODDS STREET, GOLDEN POINT",-37.5683789,143.8705877,2020,9,3.0,1.0,0,3451,201011483,House,114.8592,0.43855,0.99163,0.7370099999999999,,,,,255.0
"1 LIUZZI DRIVE, TORQUAY",-38.3198649,144.3129888,2020,5,3.0,2.0,2,3228,203031053,House,103.1518,1.75231,0.34726,0.39897,,,1.3005,4.46174,440.0
"1 LONSDALE STREET, CAULFIELD SOUTH",-37.889778,145.036693,2020,11,3.0,1.0,2,3162,208021178,House,14.22281,2.30264,1.12249,1.33518,,2.21398,2.05439,,420.0
"1 LORD AVENUE, DINGLEY VILLAGE",-37.9828242,145.1262675,2020,12,3.0,2.0,4,3172,212041313,House,31.24648,1.13069,0.73911,,,,,,520.0
"1 LUMB PLACE, RIPPLESIDE",-38.126001,144.35765001,2020,12,3.0,2.0,2,3215,203021047,House,72.02669999999999,0.75058,1.14538,3.67257,1.2707,,,,680.0
"1 LYNE STREET, TOORADIN",-38.2093425,145.3758946,2020,5,4.0,2.0,2,3980,212031308,House,70.93378,9.32885,0.81372,,5.017060000000001,,,,450.0
"1 LYNE STREET, TOORADIN",-38.2093425,145.3758946,2020,6,4.0,2.0,2,3980,212031308,House,70.93378,9.32885,0.81372,,5.017060000000001,,,,450.0
"1 LYNE STREET, TOORADIN",-38.2093425,145.3758946,2020,8,4.0,2.0,2,3980,212031308,House,70.93378,9.32885,0.81372,,5.017060000000001,,,,450.0
"1 MACKINTOSH ROAD, WHEELERS HILL",-37.89515001,145.17613001,2020,12,4.0,2.0,4,3150,212051327,House,26.17412,2.33312,0.86949,2.20235,,,,2.7825100000000003,640.0
"1 MAGNOLIA WAY, PAYNESVILLE",-37.905068,147.713867,2020,5,5.0,2.0,2,3880,205021086,House,292.72059,1.3263699999999998,1.3563,,,,,,440.0
"1 MAGNOLIA WAY, PAYNESVILLE",-37.905068,147.713867,2020,9,5.0,2.0,2,3880,205021086,House,292.72059,1.3263699999999998,1.3563,,,,,,440.0
"1 MAGPIE STREET, GOLDEN POINT",-37.571538,143.865059,2020,6,3.0,1.0,3,3451,201011483,House,114.85438,0.30993,0.57266,0.7988,,,,,290.0
"1 MAIN STREET, GEMBROOK",-37.9511055,145.5399047,2020,10,3.0,2.0,1,3783,212011289,House,68.27033999999999,0.6237699999999999,0.4855299999999999,10.00632,10.96581,,11.56553,,390.0
"1 MALCALM AVENUE, SURF BEACH",-38.5052847,145.2800819,2020,3,4.0,2.0,3,3922,205031091,House,132.56791,5.08569,7.78088,3.03094,,,8.76707,,395.0
"1 MARCHANT AVENUE, RESERVOIR",-37.715882,145.010742,2020,5,2.0,1.0,1,3073,209021523,House,12.88149,0.94712,1.03794,,1.55826,,,,420.0
"1 MARLEE CRT, GROVEDALE",-38.2007328,144.3328951,2020,11,4.0,2.0,2,3216,203021487,House,86.78896,0.18347,0.92194,1.56955,3.65159,,,,440.0
"1 MARY COURT, LANCEFIELD",-37.2791516,144.7242775,2020,1,3.0,2.0,2,3435,210021235,House,74.7864,8.59,0.55483,16.01544,24.74387,,1.14458,,410.0
"1 MAXWELL STREET, TYLDEN",-37.328451,144.41552,2020,10,3.0,1.0,2,3444,202021030,House,81.01797,13.27026,0.94181,11.75717,2.29484,12.28625,11.77607,,395.0
"1 MCBRIDE ROAD, BEACONSFIELD UPPER",-38.00556,145.409948,2020,2,3.0,2.0,1,3808,212011289,House,53.19899,0.76264,1.2943,14.99398,12.41793,,13.38668,,400.0
"1 MCKILLOP PLACE, GEELONG",-38.153238,144.355884,2020,1,3.0,2.0,1,3220,203021039,House,79.5689,0.40002,0.90832,0.6437,1.0554400000000002,1.12027,1.20351,,500.0
"1 MCKILLOP PLACE, GEELONG",-38.153238,144.355884,2020,2,3.0,2.0,1,3220,203021039,House,79.5689,0.40002,0.90832,0.6437,1.0554400000000002,1.12027,1.20351,,480.0
"1 MELOSA AVENUE, CLAYTON SOUTH",-37.937284,145.114101,2020,2,3.0,1.0,2,3169,212041310,House,25.6843,1.46311,0.71048,2.15131,3.77941,,,,395.0
"1 MELOSA AVENUE, CLAYTON SOUTH",-37.937284,145.114101,2020,3,3.0,1.0,2,3169,212041310,House,25.6843,1.46311,0.71048,2.15131,3.77941,,,,395.0
"1 MERLOW STREET, ALTONA",-37.860889,144.811145,2020,7,3.0,2.0,1,3018,213021341,House,19.6067,0.15418,0.6618200000000001,0.33948,0.6077899999999999,2.63573,,,500.0
"1 MERLOW STREET, ALTONA",-37.860889,144.811145,2020,10,3.0,2.0,1,3018,213021341,House,19.6067,0.15418,0.6618200000000001,0.33948,0.6077899999999999,2.63573,,,490.0
"1 MERLOW STREET, ALTONA",-37.860889,144.811145,2020,11,3.0,2.0,1,3018,213021341,House,19.6067,0.15418,0.6618200000000001,0.33948,0.6077899999999999,2.63573,,,500.0
"1 MILNERS ROAD, YARRA JUNCTION",-37.791592,145.621309,2020,3,2.0,1.0,2,3797,211051286,House,68.3215,3.71615,0.54507,0.34718,,,2.01771,,350.0
"1 MILNERS ROAD, YARRA JUNCTION",-37.791592,145.621309,2020,7,2.0,1.0,2,3797,211051286,House,68.3215,3.71615,0.54507,0.34718,,,2.01771,,350.0
"1 MINIATA WAY, MANOR LAKES",-37.8689528,144.5922793,2020,11,4.0,2.0,2,3024,213051579,House,40.13479,,2.40147,,,,,,1542.0
"1 MINIATA WAY, MANOR LAKES",-37.8689528,144.5922793,2020,12,4.0,2.0,2,3024,213051579,House,40.13479,,2.40147,,,,,,1542.0
"1 MITCHELL ST, COBDEN",-38.33209993,143.0734991,2020,2,4.0,1.0,0,3266,217031475,House,201.35892,0.34504,0.8784400000000001,1.88467,1.51476,32.85281,0.55586,,275.0
"1 MITCHELL STREET, COBDEN",-38.3321,143.073485,2020,2,4.0,1.0,2,3266,217031475,House,201.36014,0.34382,0.87966,1.88589,1.51598,32.85402,0.55708,,275.0
"1 MONASH PLACE, CANADIAN",-37.5914724,143.868372,2020,6,3.0,1.0,2,3350,201011483,House,117.5436,1.05782,1.82836,2.38699,,,,,243.0
"1 MORNANE STREET, PRESTON",-37.750015,145.018539,2020,3,2.0,1.0,2,3072,209021428,House,10.63365,1.71586,1.01046,1.70251,2.3215700000000004,1.44033,1.96699,2.7263200000000003,490.0
"1 MORNANE STREET, PRESTON",-37.750015,145.018539,2020,4,2.0,1.0,2,3072,209021428,House,10.63365,1.71586,1.01046,1.70251,2.3215700000000004,1.44033,1.96699,2.7263200000000003,490.0
"1 MORTIMER TCE, LENEVA",-36.15802001,146.88244001,2020,10,3.0,2.0,2,3691,204031491,House,314.35259,0.69123,3.2022600000000003,6.82121,13.26152,,,,440.0
"1 MORTIMER TERRACE, LENEVA",-36.15802001,146.88244001,2020,10,3.0,2.0,2,3691,204031491,House,314.35259,0.69123,3.2022600000000003,6.82121,13.26152,,,,440.0
"1 MOUNT BARRON STREET, BALNARRING",-38.36829193,145.13180788,2020,7,3.0,1.0,1,3926,214021379,House,83.05966000000001,1.13295,1.3831,9.2226,5.63433,,9.11599,,480.0
"1 MURRAY STREET, MORNINGTON",-38.2195749,145.0418503,2020,8,3.0,2.0,2,3931,214021592,House,72.69796000000001,0.29997,0.55579,1.66146,,,0.86513,,440.0
"1 MURRAY STREET, MORNINGTON",-38.2195749,145.0418503,2020,9,3.0,2.0,2,3931,214021592,House,72.69796000000001,0.29997,0.55579,1.66146,,,0.86513,,440.0
"1 NARONG CRESCENT, KNOXFIELD",-37.885283,145.241129,2020,9,3.0,2.0,3,3180,211011254,House,36.72702,1.14213,1.49139,1.2557,,,,2.48166,440.0
"1 NORFOLK CRESCENT, CORIO",-38.072829,144.349635,2020,3,3.0,1.0,2,3214,203021486,House,66.93338,0.82299,0.20616,2.04187,3.5505500000000003,,,,280.0
"1 NORHAM COURT, BERWICK",-38.046962,145.342112,2020,5,3.0,1.0,2,3806,212021553,House,46.83197,0.72021,1.07272,1.16188,,,,,350.0
"1 NORMAN COURT, BRIGHT",-36.723289,146.961389,2020,8,3.0,2.0,2,3741,204031069,House,314.97438,1.39953,6.67903,29.98244,1.48538,30.31099,1.6885,,440.0
"1 OCEANVIEW CRESCENT, SOMERS",-38.391311,145.163586,2020,5,3.0,2.0,3,3927,214021379,House,86.3515,0.35208,0.16966,12.51444,8.92617,,12.40783,,520.0
"1 OCEANVIEW CRESCENT, SOMERS",-38.391311,145.163586,2020,6,3.0,2.0,3,3927,214021379,House,86.3515,0.35208,0.16966,12.51444,8.92617,,12.40783,,520.0
"1 OMEGA STREET, CARRUM DOWNS",-38.086674,145.184404,2020,5,4.0,2.0,2,3201,214011370,House,46.80459,0.5541200000000001,1.5816199999999998,2.35855,,,,,410.0
"1 ORMOND STREET, SHELFORD",-38.0118015,143.9743171,2020,9,2.0,1.0,2,3329,203011035,House,113.81256,26.14996,0.89179,,14.67849,,14.06888,,295.0
"1 PARK ROAD, MOUNT MARTHA",-38.28511001,144.99406001,2020,9,3.0,2.0,2,3934,214021382,House,80.74342,0.76706,3.49128,,,,,,750.0
"1 PARWAN ROAD, MADDINGLEY",-37.68761,144.433346,2020,8,3.0,1.0,2,3340,213041353,House,60.22641,0.61617,1.95188,0.22047,0.33843,1.36541,1.46512,,385.0
"1 PATRICK ST, STRATHMERTON",-35.9267355002,145.4713129002,2020,1,3.0,1.0,1,3641,216021413,House,238.38717000000003,1.18289,0.96152,23.7276,1.21882,24.03598,22.90522,,300.0
"1 PATRICK ST, STRATHMERTON",-35.9267355002,145.4713129002,2020,12,3.0,1.0,1,3641,216021413,House,238.38717000000003,1.18289,0.96152,23.7276,1.21882,24.03598,22.90522,,300.0
"1 PATRICK STREET, STRATHMERTON",-35.92662001,145.47588001,2020,1,3.0,1.0,1,3641,216021413,House,238.80694,1.1503599999999998,0.92898,24.14737,1.18629,24.45576,23.324990000000003,,300.0
"1 PATRICK STREET, STRATHMERTON",-35.92662001,145.47588001,2020,12,3.0,1.0,1,3641,216021413,House,238.80694,1.1503599999999998,0.92898,24.14737,1.18629,24.45576,23.324990000000003,,300.0
"1 PEEL STREET, NEWPORT",-37.846853,144.893668,2020,12,3.0,1.0,1,3015,213021344,House,11.01308,0.41307,1.6721700000000002,3.40881,1.27306,,0.87827,,560.0
"1 PENZANCE PLACE, SYDENHAM",-37.685521,144.75913,2020,1,4.0,2.0,2,3037,213011339,House,29.5058,1.63223,1.64586,2.57222,3.25517,,,,410.0
"1 PEPPERMINT COURT, ALTONA MEADOWS",-37.868832,144.788735,2020,5,4.0,2.0,2,3028,213021342,House,23.68685,0.70005,1.0141,,,,,,480.0
"1 PEREGRINE DRIVE, KINGLAKE WEST",-37.480382,145.261343,2020,3,3.0,1.0,0,3757,209031211,House,63.16566,25.21577,0.2415,,,,,,360.0
"1 PHILIPPA COURT, INVERMAY PARK",-37.52659558,143.86317436,2020,2,4.0,2.0,2,3350,201011482,House,120.29467,0.86462,2.08039,4.45507,4.30021,,,,400.0
"1 PILITA STREET, FOREST HILL",-37.836767,145.171195,2020,5,3.0,2.0,2,3131,211041269,House,25.56634,,0.87091,0.6634500000000001,2.88463,,,1.41706,570.0
"1 PINE GROVE, TYABB",-38.260303,145.191872,2020,11,3.0,1.0,1,3913,214021385,House,68.32641000000001,0.5136499999999999,0.22006,2.1118200000000003,0.7056,,,,420.0
"1 PINE VALLEY PLACE, HEATHERTON",-37.958019,145.079459,2020,1,4.0,2.0,2,3202,208031191,House,25.31342,0.07845,2.59087,3.28904,6.54785,1.21134,6.0488800000000005,,720.0
"1 PINEWOOD AVENUE, RINGWOOD EAST",-37.825371,145.254968,2020,9,4.0,2.0,6,3135,211031267,House,30.81638,1.01659,0.77318,2.5325,1.77644,3.72167,,,1200.0
"1 PINEWOOD AVENUE, RINGWOOD EAST",-37.825371,145.254968,2020,10,4.0,2.0,6,3135,211031267,House,30.81638,1.01659,0.77318,2.5325,1.77644,3.72167,,,1200.0
"1 PIONEER AVENUE, UPWEY",-37.901125,145.331663,2020,1,3.0,1.0,1,3158,211051284,House,43.27387,1.07987,0.5458500000000001,0.75803,0.52638,,,,425.0
"1 PRUDEN COURT, STRATFORD",-37.9684408,147.0885013,2020,9,4.0,3.0,4,3862,205051101,House,230.41923,1.00097,0.7304400000000001,12.71751,1.0737,12.3626,1.45054,,450.0
"1 RACECOURSE ROAD, MARYSVILLE",-37.5078932002,145.7412371002,2020,9,3.0,2.0,1,3779,204011054,House,99.43334,3.2069,1.06477,36.96665,42.85186,42.553830000000005,0.86591,,370.0
"1 RAILWAY AVENUE, YACKANDANDAH",-36.310306,146.840641,2020,8,4.0,1.0,3,3749,204031075,House,297.32847,10.58579,0.8198200000000001,,29.52912,0.86441,0.21858,,370.0
"1 RAILWAY AVENUE,, YACKANDANDAH",-36.3099756002,146.8435739002,2020,8,4.0,1.0,3,3749,204031075,House,297.70144,10.24946,1.19276,,29.19279,0.40962,0.12206,,370.0
"1 READ STREET, COLERAINE",-37.597815,141.696046,2020,12,2.0,1.0,2,3315,217011423,House,344.38494000000003,0.6467999999999999,0.85057,42.31437,0.88178,1.61053,13.57522,,160.0
"1 REEF COURT, ASPENDALE GARDENS",-38.017263,145.119666,2020,1,4.0,3.0,2,3195,208031183,House,46.29497,0.71753,0.65651,,,,,,750.0
"1 REEF COURT, ASPENDALE GARDENS",-38.017263,145.119666,2020,2,4.0,3.0,2,3195,208031183,House,46.29497,0.71753,0.65651,,,,,,750.0
"1 REEF CT, ASPENDALE GARDENS",-38.017263,145.119666,2020,1,4.0,3.0,2,3195,208031183,House,46.29497,0.71753,0.65651,,,,,,750.0
"1 RHODES COURT, GLENGARRY",-38.1298029002,146.5697865002,2020,8,3.0,2.0,1,3854,205041098,House,169.61103,9.41689,0.35504,,1.07327,,,,330.0
"1 ROADKNIGHT LANE, TORQUAY",-38.3419249,144.2374759,2020,4,3.0,2.0,1,3228,203031053,House,104.64116,3.51014,3.81611,10.51649,,,10.17719,8.34132,495.0
"1 ROADKNIGHT LANE, TORQUAY",-38.3419249,144.2374759,2020,5,3.0,2.0,1,3228,203031053,House,104.64116,3.51014,3.81611,10.51649,,,10.17719,8.34132,495.0
"1 ROBERT COURT, EASTWOOD",-37.8125143,147.6433974,2020,5,3.0,2.0,2,3875,205021081,House,284.69956,2.1188,2.03038,5.22041,4.81425,5.93363,3.76381,,390.0
"1 ROBINSONS ROAD, SEAFORD",-38.106845,145.131406,2020,2,3.0,1.0,1,3198,214011375,House,50.5393,0.49071,0.35725,4.07074,0.93794,,3.41806,,380.0
"1 ROCKE STREET, IVANHOE",-37.772591,145.039593,2020,11,4.0,1.0,1,3079,209011200,House,10.83556,0.44131,0.16919,,0.36968,0.14534,,,530.0
"1 ROCKINGHAM CLOSE, KEW",-37.811682,145.01843,2020,3,5.0,3.0,2,3101,207011522,House,5.49418,0.65216,2.01934,1.4049200000000002,,1.2834,,2.85127,995.0
"1 RORY COURT, WERRIBEE",-37.88944001,144.63937001,2020,3,3.0,2.0,2,3030,213051468,House,37.19571,2.85664,0.69243,,19.91229,,,,340.0
"1 RORY COURT, WERRIBEE",-37.88944001,144.63937001,2020,4,3.0,2.0,2,3030,213051468,House,37.19571,2.85664,0.69243,,19.91229,,,,340.0
"1 RORY COURT, WERRIBEE, WERRIBEE",-37.88944001,144.63937001,2020,4,3.0,2.0,2,3030,213051468,House,37.19571,2.85664,0.69243,,19.91229,,,,360.0
"1 ROSA AVENUE, SPRINGVALE",-37.958791,145.162751,2020,3,3.0,1.0,1,3171,212041317,House,35.38232,1.97111,0.96533,1.29612,0.33565,,1.43003,,390.0
"1 ROSE STREET, PASCOE VALE",-37.716409,144.943251,2020,1,2.0,1.0,1,3044,210031538,House,12.30829,0.43925,0.78547,0.5721799999999999,,,,,380.0
"1 ROSS PINCOTT DRIVE, MOOROOLBARK",-37.77496001,145.32054001,2020,3,4.0,2.0,0,3138,211051281,House,38.22304,3.51648,0.20294,0.63776,1.60052,,2.33983,,495.0
"1 ROWAN PL, BAYSWATER",-37.8438096,145.2602932,2020,9,3.0,2.0,1,3153,211011251,House,33.86324,1.27297,0.09451,0.62372,1.09486,,,0.76427,400.0
"1 ROWAN PLACE, BAYSWATER",-37.8438096,145.2602932,2020,9,3.0,2.0,1,3153,211011251,House,33.86324,1.27297,0.09451,0.62372,1.09486,,,0.76427,400.0
"1 RUBEN DRIVE, SYDENHAM",-37.704007,144.759594,2020,6,3.0,1.0,1,3037,213011339,House,28.15444,0.68772,1.37042,1.2708499999999998,3.91143,,,,340.0
"1 SADDLEBACK RIDGE, CHIRNSIDE PARK",-37.7580116,145.3294911,2020,1,4.0,3.0,4,3116,211051275,House,38.7652,2.66486,2.83716,3.22207,,,,,600.0
"1 SADDLEBACK RIDGE, CHIRNSIDE PARK",-37.7580116,145.3294911,2020,3,4.0,3.0,4,3116,211051275,House,38.7652,2.66486,2.83716,3.22207,,,,,600.0
"1 SADDLEBACK RIDGE, CHIRNSIDE PARK",-37.7580116,145.3294911,2020,4,4.0,3.0,4,3116,211051275,House,38.7652,2.66486,2.83716,3.22207,,,,,600.0
"1 SADLER COURT, ALLANSFORD",-38.386904,142.608386,2020,6,2.0,1.0,1,3277,217041480,House,246.59973,1.00814,1.75419,13.554,1.08138,14.28268,1.64264,,290.0
"1 SANTA MONICA DRIVE, KEILOR LODGE",-37.69953,144.805146,2020,11,3.0,2.0,2,3038,213011340,House,22.72227,1.44789,2.34458,0.10232,3.3820300000000003,,,,400.0
"1 SARGES MEWS, LILYDALE",-37.7602001,145.33951001,2020,6,2.0,2.0,1,3140,211051278,House,40.55975,1.78985,1.52523,0.42242,0.93714,,0.95497,,370.0
"1 SEASONS DRIVE, BOTANIC RIDGE",-38.1483107002,145.2896002002,2020,1,4.0,2.0,2,3977,212031303,House,59.65958,5.98978,0.45131,3.50467,6.8775,,,,360.0
"1 SEDGWICK COURT, LYNBROOK",-38.0576755,145.2599004,2020,7,3.0,2.0,2,3975,212031306,House,44.20676,1.38319,1.07857,,3.65984,,,,430.0
"1 SHIERS STREET, ALPHINGTON",-37.774749,145.030124,2020,12,4.0,1.0,2,3078,206021110,House,9.96228,0.71423,1.34779,,0.6607000000000001,,,,650.0
"1 SINCLAIR STREET, BEAUFORT",-37.42877,143.378773,2020,6,3.0,1.0,1,3373,201031014,House,161.4155,0.78089,1.83494,1.86215,0.4446299999999999,0.59684,0.65775,,310.0
"1 SLIGO ST, ALFREDTON",-37.5513001,143.80903001,2020,3,4.0,2.0,2,3350,201011001,House,119.29013,2.51989,1.79281,,,,,,400.0
"1 SLIGO STREET, ALFREDTON",-37.561532002,143.7993349002,2020,3,4.0,2.0,2,3350,201011001,House,121.56073,2.11712,1.45949,,,,,,400.0
"1 SMITH STREET, KENSINGTON",-37.791094,144.930654,2020,3,2.0,1.0,0,3031,206041121,House,4.59539,0.63546,0.8304199999999999,0.72194,0.56491,,,,600.0
"1 SOUTHDOWNE CLOSE, SPRINGVALE",-37.952907,145.157109,2020,8,3.0,1.0,1,3171,212041317,House,28.56801,0.97092,0.59165,0.7646000000000001,0.72568,,1.2647,,1629.0
"1 STATION STREET, KEW EAST",-37.799287,145.054401,2020,3,4.0,3.0,2,3102,207011154,House,10.11579,1.16127,0.74698,1.3359100000000002,,,,1.45615,740.0
"1 STEWART STREET, NEWINGTON",-37.564246,143.833196,2020,3,3.0,1.0,2,3350,201011002,House,117.33845,0.95094,0.35473,0.50129,4.09816,1.89498,2.63043,,340.0
"1 STIRLING ST, COBDEN",-38.3220604002,143.0786727002,2020,11,3.0,2.0,2,3266,217031475,House,199.99014000000005,0.33279,0.68974,1.89634,1.51671,32.86448,1.13173,,360.0
"1 STIRLING STREET, COBDEN",-38.322668,143.080656,2020,11,3.0,2.0,2,3266,217031475,House,200.01867,0.44767,0.8505199999999999,2.14413,1.7645,33.112269999999995,1.29251,,360.0
"1 STIRLING, COBDEN",-38.322511,143.0806777,2020,7,3.0,2.0,2,3266,217031475,House,200.00113,0.4652099999999999,0.86807,2.12658,1.74695,33.09472,1.31006,,360.0
"1 SWAN STREET, WODONGA",-36.137239,146.884182,2020,4,3.0,1.0,1,3690,204031492,House,313.89359,0.1907299999999999,1.48553,1.33757,2.779,1.85173,2.21989,,310.0
"1 SWAN STREET, WODONGA",-36.137239,146.884182,2020,8,3.0,1.0,1,3690,204031492,House,313.89359,0.1907299999999999,1.48553,1.33757,2.779,1.85173,2.21989,,310.0
"1 SWINDON CRESCENT, KEILOR DOWNS",-37.71745001,144.81128001,2020,2,3.0,2.0,2,3038,213011332,House,23.42988,0.76658,0.18018,0.2308899999999999,,,,,400.0
"1 TAMBO DRIVE, WARRAGUL",-37.87551001,147.8274001,2020,7,4.0,2.0,2,3820,205021084,House,311.16,4.46345,3.57663,25.27259,,,24.27107,,420.0
"1 TAMBO DRIVE, WARRAGUL",-37.87551001,147.8274001,2020,8,4.0,2.0,2,3820,205021084,House,311.16,4.46345,3.57663,25.27259,,,24.27107,,420.0
"1 TATURA ROAD, RUSHWORTH",-36.586154,145.017886,2020,4,2.0,1.0,1,3612,216011410,House,170.97610999999998,6.698390000000001,0.83074,25.33135,0.3907,0.35184,0.72362,,200.0
"1 TERRELL CLOSE, ENDEAVOUR HILLS",-37.975853,145.24725,2020,4,4.0,2.0,2,3802,212021454,House,34.39029,0.94359,0.4382799999999999,1.80911,,,,2.4295,440.0
"1 TETTENHALL RDGE, BELMONT",-38.193302,144.326538,2020,2,4.0,2.0,2,3216,203021037,House,86.44627,0.75877,1.079,1.199,,,,,500.0
"1 TETTENHALL RIDGE, BELMONT",-38.193302,144.326538,2020,2,4.0,2.0,2,3216,203021037,House,86.44627,0.75877,1.079,1.199,,,,,500.0
"1 TOM ROBERTS CRES, YALLAMBIE",-37.728124,145.090543,2020,12,3.0,2.0,2,3085,209011203,House,18.3199,1.86694,1.45301,2.2491,2.69387,,,,500.0
"1 TOM ROBERTS CRES, YALLAMBIE, YALLAMBIE",-37.728124,145.090543,2020,12,3.0,2.0,3,3085,209011203,House,18.3199,1.86694,1.45301,2.2491,2.69387,,,,500.0
"1 TREVOR COURT, HERNE HILL",-38.133181,144.330517,2020,11,3.0,2.0,1,3218,203021040,House,76.1927,0.39948,0.4652799999999999,0.69852,,,,,450.0
"1 TRINITY WAY, ASCOT",-36.6979693002,144.3273343002,2020,10,3.0,2.0,2,3551,202011025,House,159.89208,2.36815,2.32556,6.26902,2.53591,,,,360.0
"1 TRISTAN DRIVE, SEBASTOPOL",-37.5853192,143.8395306,2020,2,3.0,2.0,2,3356,201011484,House,117.70613,1.2314,1.12947,1.2743,,,,,320.0
"1 TUKKI COURT, PORTLAND",-38.356407,141.591893,2020,4,5.0,2.0,4,3305,217011422,House,361.65159,1.75144,0.27884,0.6988,4.58144,4.27391,2.64019,,550.0
"1 VENTURA COURT, KEILOR LODGE",-37.69963,144.800238,2020,8,3.0,1.0,1,3038,213011340,House,23.20389,0.39612,2.8262,1.4245,2.76803,,,,350.0
"1 VERONA STREET, BELGRAVE SOUTH",-37.927676,145.357994,2020,1,4.0,2.0,4,3160,211051274,House,48.28625,0.94903,0.65704,3.92628,3.25933,,3.77591,,600.0
"1 VISTA ROAD, HAMPTON",-37.9292202002,144.9963181002,2020,2,3.0,2.0,2,3188,208011172,House,15.05463,1.43954,0.97695,1.46768,2.22126,1.12059,,,990.0
"1 VISTA ROAD, HAMPTON",-37.9292202002,144.9963181002,2020,3,3.0,2.0,2,3188,208011172,House,15.05463,1.43954,0.97695,1.46768,2.22126,1.12059,,,990.0
"1 VISTA ROAD, HAMPTON",-37.9292202002,144.9963181002,2020,6,3.0,2.0,2,3188,208011172,House,15.05463,1.43954,0.97695,1.46768,2.22126,1.12059,,,990.0
"1 VISTA ROAD, HAMPTON",-37.9292202002,144.9963181002,2020,7,3.0,2.0,2,3188,208011172,House,15.05463,1.43954,0.97695,1.46768,2.22126,1.12059,,,990.0
"1 WAKEFIELD COURT, CRANBOURNE NORTH",-38.077964,145.271013,2020,3,3.0,2.0,1,3977,212031560,House,46.645410000000005,0.7147899999999999,0.45768,0.7737200000000001,,,,,355.0
"1 WAKEFIELD COURT, CRANBOURNE NORTH",-38.077964,145.271013,2020,4,3.0,2.0,1,3977,212031560,House,46.645410000000005,0.7147899999999999,0.45768,0.7737200000000001,,,,,355.0
"1 WAKEFIELD COURT, CRANBOURNE NORTH",-38.077964,145.271013,2020,12,3.0,2.0,1,3977,212031560,House,46.645410000000005,0.7147899999999999,0.45768,0.7737200000000001,,,,,315.0
"1 WALDEN COURT, BUNDOORA",-37.699715,145.068071,2020,12,3.0,1.0,2,3083,209011196,House,17.82082,0.92191,0.68992,1.47022,,,,0.4703299999999999,315.0
"1 WARRANWAH DRIVE, KENNINGTON",-36.7807107002,144.3111687002,2020,1,4.0,3.0,4,3550,202011020,House,154.50777,3.72091,1.45389,0.65946,,,,,550.0
"1 WATERMAN PLACE, FRANKSTON",-38.154513,145.123274,2020,1,3.0,2.0,2,3199,214011371,House,55.91463,0.27512,0.8666900000000001,1.15984,1.7403499999999998,0.92775,2.49457,1.99045,470.0
"1 WATTLETREE DRIVE, TAYLORS HILL",-37.718424,144.760117,2020,2,3.0,2.0,2,3037,213041360,House,29.22925,,0.43769,1.24334,,,,,365.0
"1 WEIGELA COURT, FRANKSTON",-38.145211,145.168243,2020,9,3.0,1.0,1,3199,214011372,House,54.01856,0.43157,0.55287,0.94588,,,,1.13379,320.0
"1 WENDY STREET, PIONEER BAY",-38.38041079,145.5489706,2020,5,3.0,1.0,2,3984,205031093,House,98.9181,8.88691,8.9732,35.21402,9.97039,37.3855,14.94804,,320.0
"1 WENDY STREET, PIONEER BAY",-38.38041079,145.5489706,2020,9,3.0,1.0,2,3984,205031093,House,98.9181,8.88691,8.9732,35.21402,9.97039,37.3855,14.94804,,320.0
"1 WESTERN AVENUE, HEPBURN SPRINGS",-37.31966,144.135179,2020,4,2.0,2.0,0,3461,201021011,House,115.7491,1.2825799999999998,1.86028,4.586390000000001,4.03077,2.73103,3.05932,,450.0
"1 WESTERN AVENUE, HEPBURN SPRINGS",-37.31966,144.135179,2020,5,2.0,2.0,0,3461,201021011,House,115.7491,1.2825799999999998,1.86028,4.586390000000001,4.03077,2.73103,3.05932,,450.0
"1 WHEELER PLACE, GEELONG",-38.150216,144.369538,2020,3,2.0,1.0,1,3220,203021039,House,75.06805,0.37615,1.06833,0.77495,1.65667,0.8720800000000001,1.50412,,280.0
"1 WHIDBURN PLACE, SEBASTOPOL",-37.59383001,143.82822001,2020,12,3.0,2.0,1,3356,201011484,House,119.63844,1.0584,2.5200500000000003,1.56618,,,,,330.0
"1 WHITEHAVEN CRESCENT, MULGRAVE",-37.927212,145.174931,2020,3,3.0,3.0,1,3170,212051325,House,30.26813,3.31496,0.25323,1.40776,,,,,440.0
"1 WHITEHAVEN CRESCENT, MULGRAVE",-37.927212,145.174931,2020,7,3.0,3.0,1,3170,212051325,House,30.26813,3.31496,0.25323,1.40776,,,,,540.0
"1 WICKS STREET, YINNAR",-38.322759,146.328494,2020,6,3.0,2.0,2,3869,205041094,House,161.13158,2.28969,0.25142,6.9284,,,9.28664,,370.0
"1 WICKS STREET, YINNAR, YINNAR",-38.322759,146.328494,2020,6,3.0,2.0,2,3869,205041094,House,161.13158,2.28969,0.25142,6.9284,,,9.28664,,340.0
"1 WILLOW DRIVE, HAMPTON PARK",-38.02285,145.260177,2020,12,3.0,1.0,2,3976,212031562,House,42.21256,3.3510500000000003,2.24934,2.60837,,,,1.99846,350.0
"1 WILLS STREET, SUNBURY",-37.578954,144.711831,2020,4,3.0,1.0,1,3429,210041540,House,39.47071,1.13901,1.09482,,1.88683,,,,330.0
"1 WINDSOR CRESCENT, BUNDOORA",-37.699798,145.065603,2020,1,4.0,2.0,2,3083,209011196,House,17.4934,0.65453,0.76597,1.15439,,,,0.6952699999999999,450.0
"1 WOODS STREET, YARRAVILLE",-37.813917,144.891678,2020,11,3.0,2.0,1,3013,213031352,House,7.77037,0.27457,0.94058,3.26982,0.29857,,0.36894,,690.0
"1 WRIGHT COURT, MILL PARK",-37.662762,145.059156,2020,5,4.0,2.0,2,3082,209041220,House,22.36391,,0.5395700000000001,0.5973099999999999,,,,,425.0
"1 WRIGHT CT, MILL PARK",-37.662813,145.059048,2020,5,4.0,2.0,2,3082,209041220,House,22.35763,,0.5332899999999999,0.6303200000000001,,,,,425.0
"1 YERRAWA DRIVE, WATSONIA",-37.712247,145.092157,2020,12,3.0,1.0,3,3087,209011204,House,20.440330000000003,0.5363,2.55396,2.7941700000000003,1.1719000000000002,,,,480.0
"1 YIRRILIL WAY, STRATHFIELDSAYE",-36.80753001,144.37029001,2020,1,4.0,2.0,2,3551,202011024,House,148.75777,2.55842,1.93965,7.94129,,,,,510.0
"1-11/279 WYNDHAM STREET, SHEPPARTON",-36.379443,145.400004,2020,5,1.0,1.0,0,3630,216031416,Apartment,180.70817,1.79496,1.63542,1.63417,,2.31499,,,200.0
"1-11/279 WYNDHAM STREET, SHEPPARTON",-36.379443,145.400004,2020,10,1.0,1.0,0,3630,216031416,Apartment,180.70817,1.79496,1.63542,1.63417,,2.31499,,,200.0
"1-2 / 49 KOONAWARRA STREET, CLAYTON NORTH",-37.91073001,145.12436001,2020,7,1.0,1.0,0,3168,212051567,House,22.17803,2.6573,0.6007100000000001,2.8678000000000003,,,,,250.0
"1-29 BULLA ROAD, BULLA",-37.64111001,144.81317001,2020,3,6.0,2.0,0,3428,210051246,House,27.05303,4.71699,1.67619,9.89072,,6.56179,,,495.0
"1-3 MCCARTHY ROAD, MONBULK",-37.860472002,145.401469002,2020,2,2.0,1.0,3,3793,211051282,House,56.30664,6.967689999999999,5.75128,,,,7.59073,,320.0
"1.04/398 GLENFERRIE ROAD, KOOYONG",-37.843637,145.031901,2020,9,2.0,1.0,1,3144,208041194,Apartment,10.15275,0.1614,1.75244,1.73961,0.57247,,1.4164100000000002,,500.0
"1.4/7 WHITE STREET, OAKLEIGH EAST",-37.91188001,145.11953001,2020,4,5.0,1.0,0,3166,212051326,House,21.01313,2.92385,2.23352,1.87089,2.359,3.76905,3.72097,,250.0
"1/1 ADELAIDE STREET, FLORA HILL",-36.7842879,144.2883395,2020,2,2.0,1.0,1,3550,202011021,Apartment,152.00909,1.42618,1.37151,1.99066,,,,,290.0
"1/1 ADELAIDE STREET, FLORA HILL",-36.7842879,144.2883395,2020,7,2.0,1.0,1,3550,202011021,Apartment,152.00909,1.42618,1.37151,1.99066,,,,,290.0
"1/1 ASHMORE AVENUE, MORDIALLOC",-38.0012459,145.0845794,2020,4,2.0,1.0,1,3195,208031193,Apartment,34.75933,1.02569,0.78313,1.95915,0.8067300000000001,0.83945,0.36778,1.61766,435.0
"1/1 ASHWOOD COURT, MILDURA",-34.194605,142.136449,2020,2,3.0,2.0,1,3500,215021470,House,542.17094,0.8012400000000001,2.85281,1.48547,,,,,285.0
"1/1 CAMERON ROAD, ESSENDON",-37.7462005,144.9267534,2020,11,4.0,3.0,4,3040,206031502,House,9.28531,1.21407,1.37509,1.4446199999999998,0.6639400000000001,,2.11358,,930.0
"1/1 DERRECK AVENUE, BULLEEN",-37.7657805,145.090857,2020,9,3.0,2.0,2,3105,207021156,House,15.19071,1.00149,0.20598,2.91391,,,,0.18046,650.0
"1/1 DERRECK AVENUE, BULLEEN",-37.7657805,145.090857,2020,10,3.0,2.0,2,3105,207021156,House,15.19071,1.00149,0.20598,2.91391,,,,0.18046,650.0
"1/1 FOOT STREET, FRANKSTON",-38.1544689,145.1320285,2020,10,2.0,2.0,1,3199,214011371,House,54.55553,0.72877,1.03359,0.7220599999999999,1.15416,0.8421900000000001,2.5902800000000004,2.04104,315.0
"1/1 HAINES ST, CHELTENHAM",-37.9669847002,145.061207002,2020,10,3.0,2.0,2,3192,208031188,House,28.88434,3.06971,1.22338,4.03565,2.80573,,1.74683,2.18667,750.0
"1/1 HAINES STREET, CHELTENHAM",-37.96791001,145.06067001,2020,9,3.0,2.0,2,3192,208031188,House,28.99224,3.17761,1.33128,4.14355,2.91363,,1.85473,2.29457,750.0
"1/1 HAINES STREET, CHELTENHAM",-37.96791001,145.06067001,2020,10,3.0,2.0,2,3192,208031188,House,28.99224,3.17761,1.33128,4.14355,2.91363,,1.85473,2.29457,750.0
"1/1 HERRING STREET, HASTINGS",-38.3096974,145.1954181,2020,11,3.0,1.0,2,3915,214021379,House,74.52314,0.57371,0.87181,1.91738,1.24022,,1.13525,,370.0
"1/1 HODGSON STREET, GEELONG WEST",-38.13238,144.347938,2020,11,3.0,2.0,1,3218,203021040,House,76.13105999999999,1.01865,0.74058,1.5850799999999998,,,,,425.0
"1/1 INDUSTRY LANE, COBURG",-37.7369442,144.9699153,2020,12,1.0,1.0,1,3058,206011497,Apartment,9.16043,0.32714,0.49449,0.63142,,,,,370.0
"1/1 JOFFRE STREET, BROADMEADOWS",-37.6858988,144.9294417,2020,3,1.0,1.0,1,3047,210051242,Apartment,16.38477,1.1038,0.2306,0.68256,1.16681,,1.96551,2.16647,300.0
"1/1 JOFFRE STREET, BROADMEADOWS",-37.6858988,144.9294417,2020,6,1.0,1.0,1,3047,210051242,Apartment,16.38477,1.1038,0.2306,0.68256,1.16681,,1.96551,2.16647,300.0
"1/1 KATTA COURT, ASHWOOD",-37.870462,145.1028148,2020,8,3.0,3.0,2,3147,212051319,House,18.67442,0.84737,1.5648,1.03489,,,,,625.0
"1/1 KATTA COURT, ASHWOOD",-37.870462,145.1028148,2020,10,3.0,3.0,2,3147,212051319,House,18.67442,0.84737,1.5648,1.03489,,,,,625.0
"1/1 LANGEWAN ROAD, LANGWARRIN",-38.16071001,145.20778001,2020,9,3.0,1.0,2,3910,214011374,House,55.70461,1.99284,1.72883,3.3143800000000003,5.135050000000001,,,,370.0
"1/1 MABEL STREET, IVANHOE",-37.7628466,145.0292582,2020,7,2.0,1.0,1,3079,209011200,House,11.728879999999998,1.19063,0.5337999999999999,,2.42803,2.02573,,,450.0
"1/1 MASTERS STREET, CAULFIELD",-37.8869282,145.0248995,2020,12,2.0,1.0,1,3162,208021178,Apartment,13.09241,1.23005,0.23003,0.58845,,1.0835899999999998,0.924,,495.0
"1/1 OLYMPIC STREET, BUNDOORA",-37.7009056,145.0611547,2020,2,3.0,2.0,1,3083,209011196,House,17.10068,0.7639,1.1203299999999998,1.02955,,,,1.02325,500.0
"1/1 PEEL STREET, COLLINGWOOD",-37.8050584,144.9837832,2020,2,1.0,1.0,1,3066,206071141,Apartment,2.3790500000000003,,,0.5524199999999999,,0.55351,,,410.0
"1/1 REGIS CLOSE, WERRIBEE",-37.8935469,144.6350151,2020,3,2.0,1.0,2,3030,213051468,House,37.32599,1.90893,1.15278,,18.94984,,,,300.0
"1/1 SUMMERS STREET, DEER PARK",-37.7724326,144.7685685,2020,1,2.0,1.0,1,3023,213011569,House,26.20774,0.7833600000000001,0.39397,3.12032,0.8899600000000001,,,,280.0
"1/1 TRAINOR COURT, NOBLE PARK",-37.956445,145.1710795,2020,1,2.0,1.0,1,3174,212041459,House,31.48221,0.80655,1.99905,2.08995,1.63461,,,,335.0
"1/1-2 VERDAL COURT, GROVEDALE",-38.197766,144.332057,2020,10,2.0,1.0,1,3216,203021487,Apartment,87.18311,1.10073,1.11995,2.2552,4.40263,,,,330.0
"1/1/HERRING STREET, HASTINGS",-38.3097007,145.1954181,2020,11,3.0,1.0,2,3915,214021379,House,74.52314,0.57371,0.87181,1.91738,1.24022,,1.13525,,370.0
"1/10 ASHBY COURT, ALTONA MEADOWS",-37.878463,144.771272,2020,9,2.0,1.0,1,3028,213021342,Apartment,24.56155,1.28798,2.03861,,,,,,310.0
"1/10 BANCHORY, ESSENDON",-37.749851,144.907913,2020,5,4.0,2.0,1,3040,206031501,House,9.62818,1.6216700000000002,1.09992,1.35058,,,,,600.0
"1/10 BANCHORY, ESSENDON",-37.749851,144.907913,2020,8,4.0,2.0,1,3040,206031501,House,9.62818,1.6216700000000002,1.09992,1.35058,,,,,600.0
"1/10 BIRDSEY STREET, THOMSON",-38.1672152002,144.3762319002,2020,3,2.0,1.0,2,3219,203021039,House,82.2736,0.66053,0.3967,1.35874,2.88894,2.42898,3.90821,,300.0
"1/10 BRUCE STREET, BRIGHTON EAST",-37.90257001,145.02194001,2020,2,4.0,3.0,2,3187,208011170,House,14.79793,1.28359,1.10253,2.62137,,,,,950.0
"1/10 CALLANDER RD, PASCOE VALE",-37.7185658,144.9305858,2020,2,2.0,1.0,1,3044,210031538,House,12.54273,0.60262,0.8077300000000001,0.7358899999999999,,,,,475.0
"1/10 CALLANDER ROAD, PASCOE VALE",-37.718327,144.930543,2020,2,2.0,1.0,1,3044,210031538,House,12.55006,0.60995,0.8150599999999999,0.74321,,,,,475.0
"1/10 DAVISON STREET, MITCHAM",-37.828127,145.20762,2020,3,3.0,2.0,2,3132,211041270,House,28.24527,1.08251,0.32802,3.61106,1.5106400000000002,,,,530.0
"1/10 DAVISON STREET, MITCHAM",-37.828127,145.20762,2020,4,3.0,2.0,2,3132,211041270,House,28.24527,1.08251,0.32802,3.61106,1.5106400000000002,,,,530.0
"1/10 DEVON STREET, LAKE WENDOUREE",-37.551553,143.846357,2020,2,3.0,2.0,1,3350,201011002,House,116.51611,1.29436,1.05818,1.27385,3.6744,0.92316,2.65537,,495.0
"1/10 GUBBAH COURT, ASHWOOD",-37.871531,145.103296,2020,11,4.0,3.0,3,3147,212051319,House,18.6699,1.0001,1.54262,1.1876099999999998,,,,,725.0
"1/10 JOHNSON AVE, CARRUM",-38.07589001,145.12166001,2020,1,3.0,2.0,2,3197,208031185,House,48.76293,2.23473,0.8081799999999999,,0.40246,,,,600.0
"1/10 JOHNSON AVENUE, CARRUM",-38.075881,145.121666,2020,1,3.0,2.0,2,3197,208031185,House,48.76362,2.23543,0.80887,,0.4031499999999999,,,,600.0
"1/10 JOHNSON AVENUE, CARRUM",-38.075881,145.121666,2020,2,3.0,2.0,2,3197,208031185,House,48.76362,2.23543,0.80887,,0.4031499999999999,,,,600.0
"1/10 LIEGE AVENUE, NOBLE PARK",-37.96824,145.191415,2020,2,1.0,1.0,1,3174,212041459,Apartment,32.68011,0.52561,0.23569,1.3199,1.62956,,,,245.0
"1/10 LLEWELLYN PLACE, EUMEMMERRING",-38.000912,145.24535,2020,1,1.0,1.0,1,3177,212021295,Apartment,37.92646,0.31867,1.02041,2.3643,,,2.23587,,330.0
"1/10 MARRIOTT STREET, ST KILDA",-37.863607,144.988088,2020,10,1.0,1.0,1,3182,206051513,Apartment,7.37099,0.65198,0.99541,1.1068900000000002,,,,,250.0
"1/10 MILL RD, OAKLEIGH",-37.9013851,145.0885906,2020,9,3.0,2.0,2,3166,212051326,House,18.53095,3.2735,0.24809,2.74054,0.13221,1.20117,0.8188200000000001,,520.0
"1/10 MILL ROAD, OAKLEIGH",-37.901383,145.08853,2020,9,3.0,2.0,2,3166,212051326,House,18.52565,3.2788000000000004,0.2428,2.7458400000000003,0.13751,1.19587,0.81352,,520.0
"1/10 ORIONDO WAY, MARSHALL",-38.195678,144.3542663,2020,2,3.0,2.0,2,3216,203021485,House,89.44163,0.47416,,5.349939999999999,,,,,440.0
"1/10 POET ROAD, BENTLEIGH EAST",-37.909982,145.074121,2020,4,3.0,2.0,2,3165,208021426,House,20.57259,2.41967,1.30373,1.4308599999999998,,2.63366,,,675.0
"1/10 SALTLEY STREET, SOUTH KINGSVILLE",-37.8271258,144.8680429,2020,5,3.0,2.0,1,3015,213021344,House,11.33658,0.3178399999999999,1.15574,4.00024,2.01648,,3.4113800000000003,,550.0
"1/10 WATTLE GROVE, MCKINNON",-37.909477,145.035892,2020,10,2.0,1.0,1,3204,208021174,Apartment,16.93972,,1.95303,2.40181,0.39591,,1.59685,,410.0
"1/10 WATTLEBIRD DRIVE, BANDIANA",-36.1406652,146.9164764,2020,7,4.0,2.0,2,3691,204031491,House,316.20266,0.31815,2.77392,6.394609999999999,8.53673,,,,410.0
"1/10 WILLIAM STREET, KEILOR PARK",-37.721513,144.856309,2020,11,2.0,1.0,1,3042,210011228,Apartment,18.02349,0.35599,0.44944,5.4182,,,,,375.0
"1/10-12 GEELONG ROAD, TORQUAY",-38.3365448,144.3175233,2020,11,3.0,1.0,1,3228,203031053,House,103.46823,0.41018,2.02298,2.4131,,,2.26968,2.7901100000000003,375.0
"1/100 KELVINSIDE ROAD, NOBLE PARK",-37.958732,145.17291,2020,1,3.0,2.0,3,3174,212041459,Apartment,31.77773,0.92273,2.29457,1.73973,1.28439,,,,380.0
"1/100 KELVINSIDE ROAD, NOBLE PARK",-37.958732,145.17291,2020,2,3.0,2.0,3,3174,212041459,Apartment,31.77773,0.92273,2.29457,1.73973,1.28439,,,,380.0
"1/103 BARKLY STREET, ST KILDA",-37.863801,144.981578,2020,3,2.0,1.0,1,3182,206051514,Apartment,7.13094,0.8489099999999999,0.86925,1.24376,0.73377,,,,525.0
"1/103 DENDY STREET, BRIGHTON",-37.920377,145.003618,2020,3,3.0,2.0,1,3186,208011169,House,14.49472,1.0540999999999998,0.83031,0.53437,1.1543800000000002,1.69969,2.42436,,730.0
"1/103 LOWER DANDENONG RD, MENTONE",-37.98212001,145.07402001,2020,8,3.0,1.0,2,3194,208031190,House,26.25003,0.74265,0.6306,1.43019,0.96808,,1.31847,0.42318,470.0
"1/103 SPRINGFIELD DRIVE, NARRE WARREN",-38.017611,145.293693,2020,3,3.0,2.0,2,3805,212021456,House,41.42821,0.31811,1.30422,1.91403,1.74002,,,2.05026,360.0
"1/104 MONASH STREET, SUNSHINE",-37.788701,144.834732,2020,12,2.0,1.0,1,3020,213011336,House,13.37365,0.60023,0.16882,0.82714,0.23263,,1.63261,,375.0
"1/105 COCHRANE STREET, BRIGHTON",-37.895695,144.999116,2020,1,3.0,1.0,2,3186,208011169,House,11.010459999999998,0.44021,0.44492,0.37468,0.56935,2.32772,1.88945,,640.0
"1/105 GOULBURN RD, ECHUCA",-36.129226,144.765791,2020,5,3.0,2.0,2,3564,216011406,House,213.28053,3.61457,1.03333,2.8618,1.59156,2.88503,1.28559,,360.0
"1/105 GOULBURN ROAD, ECHUCA",-36.129384,144.765743,2020,5,3.0,2.0,2,3564,216011406,House,213.27931,3.61579,1.03456,2.86057,1.59033,2.8838000000000004,1.28436,,360.0
"1/105 JENKINS STREET, NORTHCOTE",-37.765552,145.013346,2020,6,2.0,1.0,1,3070,206021499,Apartment,8.9586,0.61222,1.83484,1.47855,1.78321,,1.3433,,525.0
"1/106 BARRY STREET, RESERVOIR",-37.708636,144.998422,2020,9,2.0,2.0,1,3073,209021526,House,14.04283,1.0513800000000002,1.68143,2.55693,2.3398000000000003,,1.6593699999999998,,380.0
"1/107 ISABELLA STREET, GEELONG WEST",-38.132331,144.3404,2020,10,1.0,1.0,1,3218,203021040,Apartment,75.83126,0.75571,0.71102,1.03211,,,,,260.0
"1/108 BLACKSHAWS ROAD, SOUTH KINGSVILLE",-37.833693,144.873783,2020,6,2.0,1.0,1,3015,213021344,House,12.17306,0.6088899999999999,0.8952100000000001,2.7509200000000003,2.28688,,2.14662,,360.0
"1/1080 STUD ROAD, ROWVILLE",-37.917916,145.234318,2020,9,3.0,1.0,2,3178,211011256,House,34.33696,0.96908,0.94296,0.94604,,,,,430.0
"1/1080 STUD ROAD, ROWVILLE",-37.917916,145.234318,2020,10,3.0,1.0,2,3178,211011256,House,34.33696,0.96908,0.94296,0.94604,,,,,430.0
"1/1080 STUD ROAD, ROWVILLE",-37.917916,145.234318,2020,11,3.0,1.0,2,3178,211011256,House,34.33696,0.96908,0.94296,0.94604,,,,,430.0
"1/109 MARY STREET, RICHMOND",-37.823133,145.001725,2020,10,1.0,1.0,1,3121,206071517,Apartment,5.03579,0.96365,0.88212,1.00892,0.82798,,,,260.0
"1/11 ANDREWS STREET, HEIDELBERG",-37.750376,145.069598,2020,4,2.0,1.0,1,3084,209011198,Apartment,15.15897,1.32284,0.60714,1.1911500000000002,1.12766,1.76629,1.16197,,350.0
"1/11 CAPEL AVENUE, CAPEL SOUND",-38.3648678,144.8772513,2020,5,2.0,1.0,1,3940,214021384,House,93.1921,1.05075,1.52248,1.21751,,0.97126,1.6893699999999998,,300.0
"1/11 COBHAM ROAD, MITCHAM",-37.806069,145.1938191,2020,6,2.0,1.0,1,3132,211041270,House,24.21692,1.1845,0.8927999999999999,0.69309,2.00318,,,,430.0
"1/11 ESTER STREET, GREENSBOROUGH",-37.704969,145.098172,2020,1,2.0,1.0,1,3088,209011197,House,21.38498,0.2379399999999999,0.43466,0.91766,1.68282,,0.3248399999999999,,405.0
"1/11 JESSOP STREET, GREENSBOROUGH",-37.702784,145.097847,2020,2,3.0,2.0,1,3088,209011197,House,21.44623,0.56624,0.53242,1.24596,1.43437,,0.3861,,530.0
"1/11 LOWER GORDON STREET, KORUMBURRA",-38.431906,145.829319,2020,1,2.0,1.0,1,3950,205031089,House,120.40645,0.92032,0.72497,2.89891,0.59875,0.36738,0.622,,260.0
"1/11 MARTIN, APOLLO BAY",-38.75415001,143.66557001,2020,6,2.0,1.0,1,3233,217031476,House,200.33966,14.85861,37.97571,18.82134,42.43894,0.17859,0.96775,,280.0
"1/11 OSWAY STREET, BROADMEADOWS",-37.692098,144.91734,2020,12,3.0,1.0,1,3047,210051242,House,15.10967,1.08434,1.19693,1.87206,1.70992,,2.02045,2.2214,500.0
"1/11 PASSFIELD STREET, BRUNSWICK WEST",-37.767978,144.940369,2020,3,1.0,1.0,1,3055,206011107,Apartment,6.83152,0.12966,0.59424,1.4013699999999998,,,,,260.0
"1/11 PAYNE PLACE, SOUTH MORANG",-37.651622,145.093772,2020,2,3.0,2.0,1,3752,209041436,House,24.80691,,0.55883,3.89514,4.105300000000001,,,,400.0
"1/11 RENOWN STREET, BURWOOD",-37.85263001,145.12293001,2020,1,4.0,3.0,1,3125,207031165,House,17.07686,1.18395,1.4991,1.17371,,2.85773,2.38511,,680.0
"1/11 SPRINGFIELD DRIVE, MILDURA",-34.2146567,142.148931,2020,10,3.0,2.0,2,3500,215021470,House,539.3020600000001,0.5603899999999999,2.84286,1.47023,,,,,400.0
"1/11 STAFFORD STREET, HERNE HILL",-38.1374772,144.3228597,2020,11,3.0,1.0,1,3218,203021040,House,77.71288,0.33176,1.43678,2.27197,,,,,350.0
"1/11 TOWARD STREET, MURRUMBEENA",-37.89252,145.069518,2020,12,1.0,1.0,1,3163,208021181,Apartment,16.11907,0.8127300000000001,1.23926,1.89238,0.64962,,0.4122699999999999,,220.0
"1/11 WRIGHT STREET, KEW EAST",-37.798148,145.054873,2020,7,3.0,2.0,2,3102,207011154,House,10.149209999999998,1.19442,0.78013,1.46396,,,,1.4892999999999998,525.0
"1/11 WRIGHT STREET, KEW EAST",-37.798148,145.054873,2020,9,3.0,2.0,2,3102,207011154,House,10.149209999999998,1.19442,0.78013,1.46396,,,,1.4892999999999998,525.0
"1/110 BRADSHAW STREET, ESSENDON",-37.73928833,144.89573669,2020,2,3.0,1.0,1,3040,206031501,House,11.02266,1.22841,0.8084199999999999,1.22948,,,,,560.0
"1/110 BRADSHAW STREET, ESSENDON",-37.73928833,144.89573669,2020,7,3.0,1.0,1,3040,206031501,House,11.02266,1.22841,0.8084199999999999,1.22948,,,,,550.0
"1/110 ECHUCA ROAD, MOOROOPNA",-36.3842712,145.3547968,2020,3,2.0,1.0,1,3629,216031415,House,182.89831,1.26552,1.0961800000000002,0.6103500000000001,2.15095,,1.72256,,210.0
"1/110 ECHUCA ROAD, MOOROOPNA",-36.3842712,145.3547968,2020,4,2.0,1.0,1,3629,216031415,House,182.89831,1.26552,1.0961800000000002,0.6103500000000001,2.15095,,1.72256,,210.0
"1/110 ST HELENA ROAD, BRIAR HILL",-37.700199,145.116948,2020,3,3.0,2.0,2,3088,209011202,House,24.09285,1.13611,1.81959,2.58721,2.76024,,,,470.0
"1/112 POATH ROAD, HUGHESDALE",-37.895496,145.077036,2020,11,2.0,1.0,2,3166,208021180,Apartment,18.86528,,1.46646,0.8199,,,,,375.0
"1/113 BRIDGE STREET, BENDIGO",-36.748611,144.286537,2020,9,2.0,1.0,1,3550,202011018,House,152.41869,0.42669,0.42569,1.23804,2.71978,0.49695,3.00433,1.89403,400.0
"1/113 BRIDGE STREET, BENDIGO",-36.748611,144.286537,2020,10,2.0,1.0,1,3550,202011018,House,152.41869,0.42669,0.42569,1.23804,2.71978,0.49695,3.00433,1.89403,400.0
"1/113 KELVINSIDE ROAD, NOBLE PARK",-37.9552,145.171222,2020,5,1.0,1.0,1,3174,212041459,Apartment,31.54856,0.8728899999999999,2.06539,2.1563000000000003,1.70096,,,,295.0
"1/113 NEPEAN HIGHWAY, ASPENDALE",-38.024825,145.099596,2020,7,3.0,1.0,1,3195,208031189,House,48.82253,1.26801,1.49619,1.55208,0.6044299999999999,,,,470.0
"1/113 NEPEAN HIGHWAY, ASPENDALE",-38.024825,145.099596,2020,8,3.0,1.0,1,3195,208031189,House,48.82253,1.26801,1.49619,1.55208,0.6044299999999999,,,,470.0
"1/113 SURREY ROAD, BLACKBURN NORTH",-37.809993,145.158113,2020,1,2.0,1.0,1,3130,207031161,Apartment,21.18546,0.91712,0.7415499999999999,0.83917,1.71085,,,0.82623,370.0
"1/113 WESTBURY STREET, BALACLAVA",-37.867537,144.995529,2020,7,2.0,1.0,1,3183,206051134,Apartment,8.43692,0.8148,0.96331,0.2822699999999999,0.65851,,0.92281,,560.0
"1/114 BONEO ROAD, CAPEL SOUND",-38.3702001,144.88875001,2020,2,2.0,1.0,1,3940,214021384,House,92.80211,1.23078,0.8673099999999999,0.4752099999999999,,1.67423,0.0837099999999999,,1299.0
"1/114 BONEO ROAD, CAPEL SOUND",-38.3702001,144.88875001,2020,9,2.0,1.0,1,3940,214021384,House,92.80211,1.23078,0.8673099999999999,0.4752099999999999,,1.67423,0.0837099999999999,,289.0
"1/114 KELVINSIDE ROAD, NOBLE PARK",-37.957839,145.172161,2020,2,2.0,1.0,1,3174,212041459,House,31.34859,0.67292,1.86542,1.85812,1.40278,,,,275.0
"1/114 KELVINSIDE ROAD, NOBLE PARK",-37.957839,145.172161,2020,12,2.0,1.0,1,3174,212041459,House,31.34859,0.67292,1.86542,1.85812,1.40278,,,,275.0
"1/114 STEPHEN STREET, YARRAVILLE",-37.81711,144.894058,2020,2,2.0,2.0,1,3013,213031352,House,7.80253,0.43686,0.5679500000000001,2.84225,0.45406,,0.26288,,570.0
"1/115 COULSTOCK STREET, WARRNAMBOOL",-38.3818001,142.49505001,2020,10,2.0,1.0,1,3280,217041479,House,257.52598,0.41607,1.69445,1.02402,4.79195,2.66073,,,340.0
"1/115 MERTON STREET, ALTONA MEADOWS",-37.874989,144.777415,2020,7,2.0,1.0,2,3028,213021342,Apartment,23.6595,1.0946600000000002,0.8999199999999999,,,,,,350.0
"1/115 MERTON STREET, ALTONA MEADOWS",-37.874989,144.777415,2020,9,2.0,1.0,2,3028,213021342,Apartment,23.6595,1.0946600000000002,0.8999199999999999,,,,,,350.0
"1/115 SPRINGFIELD, BLACKBURN NORTH",-37.8109018002,145.156663002,2020,10,3.0,1.0,1,3130,207031161,House,21.39508,0.7073200000000001,0.7144400000000001,0.62937,1.59085,,,0.6164299999999999,400.0
"1/115 WATERDALE ROAD, IVANHOE",-37.767316,145.043183,2020,2,1.0,1.0,1,3079,209011200,Apartment,11.5413,0.61871,0.0799,,0.97293,0.57062,,,270.0
"1/117-119 BALLARAT ROAD, FOOTSCRAY",-37.7932603,144.8954523,2020,1,1.0,1.0,0,3011,213031348,Apartment,7.78538,0.2615099999999999,1.3020999999999998,0.19668,1.39392,1.10915,1.94875,,260.0
"1/117-119 BALLARAT ROAD, FOOTSCRAY",-37.7932603,144.8954523,2020,6,1.0,1.0,0,3011,213031348,Apartment,7.78538,0.2615099999999999,1.3020999999999998,0.19668,1.39392,1.10915,1.94875,,285.0
"1/117-119 BALLARAT ROAD, FOOTSCRAY",-37.7932603,144.8954523,2020,9,1.0,1.0,0,3011,213031348,Apartment,7.78538,0.2615099999999999,1.3020999999999998,0.19668,1.39392,1.10915,1.94875,,265.0
"1/1183 NEPEAN HIGHWAY, HIGHETT",-37.95352,145.049979,2020,4,3.0,2.0,2,3190,208031188,House,22.14198,0.89449,2.02132,2.14102,0.9000199999999999,,1.7383499999999998,1.14077,450.0
"1/119 BROWN STREET, HEIDELBERG",-37.752006,145.063095,2020,7,2.0,1.0,1,3084,209011198,House,15.30735,0.78313,0.69555,1.30449,0.66606,0.99078,1.25038,,395.0
"1/119 RENNIE STREET, COBURG",-37.7514095,144.976389,2020,10,2.0,1.0,2,3058,206011497,House,6.92,0.34887,0.71824,0.6584099999999999,,,,,410.0
"1/119 RENNIE STREET, COBURG",-37.7514095,144.976389,2020,11,2.0,1.0,2,3058,206011497,House,6.92,0.34887,0.71824,0.6584099999999999,,,,,410.0
"1/119 RENNIE STREET, COBURG",-37.7514095,144.976389,2020,12,2.0,1.0,2,3058,206011497,House,6.92,0.34887,0.71824,0.6584099999999999,,,,,410.0
"1/12 BROADMEADOWS ROAD, TULLAMARINE",-37.707177,144.879021,2020,5,3.0,2.0,2,3043,210051250,House,16.17718,0.99119,0.5578099999999999,,,,,,500.0
"1/12 BULLEN STREET, DONCASTER EAST",-37.79007,145.149715,2020,2,3.0,2.0,1,3109,207021425,House,20.8299,0.55038,0.51185,1.74985,,,1.0376,2.45919,580.0
"1/12 CHURCH STREET, NERRINA",-37.544199,143.892398,2020,12,3.0,1.0,1,3350,201011482,House,114.50497,1.89565,0.29492,1.80155,4.369350000000001,,,,280.0
"1/12 CONISTON AVENUE, AIRPORT WEST",-37.732335,144.882586,2020,5,2.0,1.0,1,3042,210011226,Apartment,14.26833,1.90972,0.47389,0.53365,,,,3.49862,375.0
"1/12 CONISTON AVENUE, AIRPORT WEST",-37.732335,144.882586,2020,8,2.0,1.0,1,3042,210011226,Apartment,14.26833,1.90972,0.47389,0.53365,,,,3.49862,375.0
"1/12 EBDEN AVENUE, BLACK ROCK",-37.976324,145.017566,2020,12,2.0,1.0,1,3193,208011173,House,20.88193,1.38059,0.55213,2.32433,3.51911,2.35812,0.90715,,480.0
"1/12 ESSEX STREET, PASCOE VALE",-37.726958,144.947808,2020,8,3.0,2.0,0,3044,210031538,House,11.34729,0.70275,0.93624,1.31721,,,,,470.0
"1/12 GOTHA STREET, HEIDELBERG HEIGHTS",-37.75118,145.048647,2020,7,3.0,1.0,1,3081,209011199,House,13.68389,0.87503,0.6369900000000001,1.04222,,,0.56711,,1716.0
"1/12 HOTHAM STREET, TEMPLESTOWE LOWER",-37.771919,145.110626,2020,6,3.0,2.0,1,3107,207021160,House,15.59842,2.00189,0.80569,0.82069,,,,,480.0
"1/12 LORNA STREET, BACCHUS MARSH",-37.6663821002,144.4346076002,2020,1,3.0,2.0,2,3340,213041353,House,58.15198,1.6568,0.99179,2.57754,2.87008,1.68505,1.3144,,380.0
"1/12 MADELEINE ROAD, CLAYTON",-37.915266,145.120158,2020,3,3.0,1.0,1,3168,212051568,House,21.46116,1.15403,1.1786,0.80084,1.19839,0.84385,0.65664,,520.0
"1/12 MORRIS ST, MCCRAE",-38.36124001,144.92162001,2020,10,4.0,2.0,2,3938,214021384,House,89.14499,1.65757,2.29594,2.30258,,5.03705,5.22729,,580.0
"1/12 MORRIS STREET, MCCRAE",-38.36124001,144.92162001,2020,10,4.0,2.0,2,3938,214021384,House,89.14499,1.65757,2.29594,2.30258,,5.03705,5.22729,,580.0
"1/12 MUNDARING DRIVE, CRANBOURNE",-38.10783001,145.28106001,2020,2,2.0,1.0,1,3977,212031300,House,53.6845,3.07096,0.6591699999999999,0.8071200000000001,1.13523,,0.973,0.12618,400.0
"1/12 MUNDARING DRIVE, CRANBOURNE",-38.10783001,145.28106001,2020,9,2.0,1.0,1,3977,212031300,House,53.6845,3.07096,0.6591699999999999,0.8071200000000001,1.13523,,0.973,0.12618,400.0
"1/12 MUNDARING DRIVE, CRANBOURNE",-38.10783001,145.28106001,2020,12,2.0,1.0,1,3977,212031300,House,53.6845,3.07096,0.6591699999999999,0.8071200000000001,1.13523,,0.973,0.12618,400.0
"1/12 PALL MALL, BENDIGO",-36.759586,144.279028,2020,9,1.0,1.0,0,3550,202011018,Apartment,150.81586,0.89708,0.22847,0.37041,1.11704,1.77731,1.4015,0.2912,295.0
"1/12 VICTORIA STREET, SEBASTOPOL",-37.598542,143.83933,2020,1,2.0,1.0,1,3356,201011484,House,119.2617,0.6920599999999999,0.93474,1.09619,,,,,230.0
"1/12 VILNIUS WAY, TRUGANINA",-37.844043,144.722769,2020,12,3.0,2.0,1,3029,213051588,House,25.20846,,3.40551,1.7881300000000002,,,,,350.0
"1/121 LITTLE DODDS STREET, GOLDEN POINT",-37.57137001,143.87208001,2020,7,1.0,1.0,1,3451,201011483,Apartment,115.2591,0.73719,0.51578,1.13691,,,,,210.0
"1/123 PARRAMATTA ROAD, WERRIBEE",-37.882529,144.652294,2020,8,2.0,1.0,1,3030,213051467,House,33.39119,0.79822,1.26859,2.08367,,,,,310.0
"1/124 MOUNTAINVIEW ROAD, BRIAR HILL",-37.70777,145.118891,2020,5,2.0,1.0,1,3088,209011202,House,22.88095,0.8556699999999999,0.6077,1.37532,1.5483399999999998,,,,340.0
"1/125 HIGH ST, PRAHRAN",-37.8515324,144.9909735,2020,7,3.0,2.0,2,3181,206061136,Apartment,6.530279999999999,,0.64142,0.0242,0.5329299999999999,,1.3212000000000002,,1540.0
"1/1268 GLENHUNTLY ROAD, CARNEGIE",-37.890248,145.047645,2020,8,3.0,2.0,2,3163,208021176,House,15.59837,1.2568800000000002,0.45112,,1.61085,,,,560.0
"1/1268 GLENHUNTLY ROAD, CARNEGIE",-37.890248,145.047645,2020,10,3.0,2.0,2,3163,208021176,House,15.59837,1.2568800000000002,0.45112,,1.61085,,,,560.0
"1/127 FORDHOLM ROAD, HAMPTON PARK",-38.0338199,145.254365,2020,6,3.0,1.0,2,3976,212031562,House,41.77827,1.65491,0.58778,0.54975,,,,1.49992,360.0
"1/127 FORDHOLM ROAD, HAMPTON PARK",-38.0338199,145.254365,2020,9,3.0,1.0,2,3976,212031562,House,41.77827,1.65491,0.58778,0.54975,,,,1.49992,360.0
"1/127 LOWER DANDENONG ROAD, MENTONE",-37.9835001,145.08548001,2020,6,2.0,1.0,2,3194,208031190,Apartment,33.080040000000004,1.00493,0.65808,2.37916,1.89157,,2.24196,0.8656900000000001,1564.0
"1/13 ASHLEY COURT, GROVEDALE",-38.20886,144.325564,2020,6,2.0,1.0,1,3216,203021487,House,87.1965,0.8189299999999999,0.75903,0.28248,2.552,,,,330.0
"1/13 BANYULE ROAD, ROSANNA",-37.742893,145.073799,2020,3,3.0,2.0,2,3084,209011198,House,15.82316,0.82708,0.4001,1.494,1.06593,2.87142,1.82617,,430.0
"1/13 BLUFF AVENUE, ELWOOD",-37.882841,144.979083,2020,6,2.0,1.0,0,3184,206051129,Apartment,9.31013,0.79401,0.42068,0.60637,,,0.63914,,560.0
"1/13 BLUFF AVENUE, ELWOOD",-37.882841,144.979083,2020,7,2.0,1.0,0,3184,206051129,Apartment,9.31013,0.79401,0.42068,0.60637,,,0.63914,,560.0
"1/13 CERBERUS ROAD, BAXTER",-38.195334,145.147599,2020,6,2.0,1.0,1,3911,214021385,House,60.16609,0.2875,3.33668,5.44024,1.41456,,,,340.0
"1/13 CRESWICK STREET, HAWTHORN",-37.816897,145.016621,2020,7,2.0,1.0,1,3122,207011519,Apartment,5.437939999999999,0.15662,0.83825,,1.61949,,,,1738.0
"1/13 FERGUSON COURT, FERNTREE GULLY",-37.882487,145.266342,2020,1,3.0,1.0,1,3156,211011448,Apartment,37.42577,2.26567,0.97252,3.25316,4.2894,5.40544,,1.084,400.0
"1/13 FERGUSON COURT, FERNTREE GULLY",-37.882487,145.266342,2020,9,3.0,1.0,1,3156,211011448,Apartment,37.42577,2.26567,0.97252,3.25316,4.2894,5.40544,,1.084,430.0
"1/13 FERGUSON COURT, FERNTREE GULLY",-37.882487,145.266342,2020,11,3.0,1.0,1,3156,211011448,Apartment,37.42577,2.26567,0.97252,3.25316,4.2894,5.40544,,1.084,430.0
"1/13 NORMANBY STREET, HUGHESDALE",-37.901163,145.083895,2020,10,2.0,1.0,1,3166,208021180,House,18.54601,,1.2348,0.63215,,,,,400.0
"1/13 ROBERTS RD, AIRPORT WEST",-37.7264553002,144.8832766002,2020,11,3.0,2.0,1,3042,210011226,House,14.88641,1.11054,0.3467699999999999,0.84415,,,,2.66222,520.0
"1/131 ELLESMERE PARADE, ROSANNA",-37.732269,145.066699,2020,3,3.0,3.0,2,3084,209011198,House,16.468709999999998,2.21522,0.70439,3.34315,1.31387,3.3206100000000003,3.39562,,635.0
"1/135 BEENAK ROAD, YELLINGBO",-37.849889,145.542683,2020,2,3.0,2.0,1,3139,211051286,House,64.66225,7.93916,6.29185,21.17245,,,18.983400000000003,,500.0
"1/135 ROSELLA AVENUE, WERRIBEE",-37.879957,144.66987,2020,3,3.0,1.0,1,3030,213051467,House,31.20251,2.23299,1.6359,1.89953,,,,,1477.0
"1/135 WEST FYANS STREET, NEWTOWN",-38.1590741,144.3390158,2020,4,2.0,1.0,1,3220,203021046,Apartment,79.11205,0.18072,0.8235,1.30996,,,,,370.0
"1/139 ROKEWOOD CRESCENT, MEADOW HEIGHTS",-37.654075,144.916216,2020,6,3.0,1.0,1,3048,210051247,House,20.1216,0.78077,0.79127,,,,,,380.0
"1/139 ROKEWOOD CRESCENT, MEADOW HEIGHTS",-37.654075,144.916216,2020,7,3.0,1.0,1,3048,210051247,House,20.1216,0.78077,0.79127,,,,,,380.0
"1/14 ABECKETT STREET, PRAHRAN",-37.84935001,145.00988001,2020,9,2.0,1.0,1,3181,206061136,Apartment,8.02238,,0.88688,2.1420100000000004,2.11773,,0.92019,,850.0
"1/14 BETTINA STREET, CLAYTON",-37.91898,145.136706,2020,7,2.0,1.0,1,3168,212051567,Apartment,24.17599,2.47908,1.97284,1.79241,,,,,375.0
"1/14 CLIFTON ROAD, HAWTHORN EAST",-37.844352,145.051277,2020,8,2.0,1.0,1,3123,207011152,Apartment,10.8547,0.63251,1.05489,0.75844,3.3880100000000004,,,,475.0
"1/14 CURDIES RIVER ROAD, TIMBOON",-38.471098,142.961824,2020,4,2.0,1.0,1,3268,217031475,Apartment,232.52533,0.87212,16.780669999999997,31.50941,2.4833000000000003,2.95594,1.85374,,220.0
"1/14 CURDIES RIVER ROAD, TIMBOON",-38.471098,142.961824,2020,12,2.0,1.0,1,3268,217031475,Apartment,232.52533,0.87212,16.780669999999997,31.50941,2.4833000000000003,2.95594,1.85374,,220.0
"1/14 ERINDALE AVENUE, ELSTERNWICK",-37.879089,144.995154,2020,5,2.0,1.0,1,3185,206051134,House,9.60892,2.77829,2.9268,1.72195,0.9663,,2.0071600000000003,,320.0
"1/14 MURRAY STREET, CLAYTON",-37.918512,145.122881,2020,6,2.0,1.0,1,3168,212051568,Apartment,23.38612,0.34723,0.91478,0.53703,0.93458,0.5800299999999999,0.3928299999999999,,410.0
"1/14 MURRAY STREET, CLAYTON",-37.918512,145.122881,2020,8,2.0,1.0,1,3168,212051568,Apartment,23.38612,0.34723,0.91478,0.53703,0.93458,0.5800299999999999,0.3928299999999999,,410.0
"1/14 PLEASANT ROAD, THOMASTOWN",-37.6771104002,145.0115623002,2020,8,3.0,2.0,2,3074,209041223,House,17.00852,,1.02686,1.17476,0.59863,,0.6599400000000001,,550.0
"1/14 RESEARCH-WARRANDYTE ROAD, RESEARCH",-37.70577001,145.18008001,2020,6,3.0,2.0,2,3095,209031214,House,27.84848,8.22137,0.67871,1.4053399999999998,,,,,550.0
"1/14 ROSE STREET, BRAYBROOK",-37.784374,144.852266,2020,9,3.0,2.0,1,3019,213031347,House,12.34897,0.62717,1.22591,0.7774500000000001,3.3767600000000004,,2.65022,,450.0
"1/14 SYNNOTT STREET, HAMLYN HEIGHTS",-38.125534,144.336335,2020,7,3.0,1.0,1,3215,203021040,House,74.99251,1.48108,0.75781,0.36444,,,,,340.0
"1/14 TEMPLESTOWE ROAD, BULLEEN",-37.75982001,145.08434001,2020,12,2.0,2.0,1,3105,207021156,House,14.70164,0.9829,1.27182,2.42483,,,,1.2463,475.0
"1/14 THE BOULEVARD, HAWTHORN",-37.82811,145.041502,2020,10,2.0,1.0,1,3122,207011520,Apartment,8.726299999999998,0.17622,1.05185,1.05929,1.92921,,1.53038,,340.0
"1/14 WAVE AVE, MOUNT WAVERLEY",-37.8859163002,145.1260236002,2020,5,3.0,1.0,1,3149,212051324,House,21.40508,1.31688,0.70516,2.44916,,3.16883,0.75291,5.92759,480.0
"1/14 WAVE AVENUE, MOUNT WAVERLEY",-37.886649,145.126197,2020,5,3.0,1.0,1,3149,212051324,House,21.51692,1.23183,0.78985,2.52079,,3.24046,0.8245399999999999,5.99922,480.0
"1/14-16 ROSANNA ROAD, HEIDELBERG",-37.755559,145.070222,2020,8,3.0,2.0,2,3084,209011198,House,14.2798,0.51567,0.35074,0.50935,0.99232,1.31704,0.2828,,550.0
"1/140 MIDDLEBOROUGH ROAD, BLACKBURN SOUTH",-37.844076,145.134025,2020,12,2.0,1.0,2,3130,207031162,House,23.80875,1.5870499999999998,0.43274,2.45047,,,,,370.0
"1/140 WARRIGAL ROAD, CAMBERWELL",-37.840252,145.097235,2020,3,4.0,3.0,2,3124,207011149,House,13.63225,0.7163099999999999,1.89332,3.12779,3.18417,,4.09914,,880.0
"1/142 FRANCIS STREET, BELMONT",-38.1831753,144.3472686,2020,7,2.0,1.0,2,3216,203021037,House,88.64254,0.5229400000000001,1.01878,2.43685,,,,,365.0
"1/145 VICTORIA AVENUE, ALBERT PARK",-37.8471769002,144.9486306002,2020,7,2.0,1.0,0,3206,206051128,House,5.890359999999999,0.55908,0.7032,0.49391,2.1599,,3.89522,,620.0
"1/147 LAWRENCE STREET, WODONGA",-36.1251983,146.8917906,2020,7,3.0,2.0,3,3690,204031492,House,312.67653,0.53953,0.8305499999999999,0.9071,1.54102,2.09248,0.6900299999999999,,500.0
"1/147 PROSPECT HILL ROAD, CANTERBURY",-37.82987976,145.07504272,2020,11,2.0,1.0,1,3126,207011155,Apartment,11.008959999999998,1.2974100000000002,0.51646,1.2799200000000002,1.69652,,,,430.0
"1/15 ABBOTT STREET, BENDIGO",-36.7614281,144.2888561,2020,2,3.0,2.0,1,3550,202011018,House,152.57367000000002,0.9336,1.31778,1.11634,0.89378,2.40188,2.74243,1.39877,450.0
"1/15 ABBOTT STREET, BENDIGO",-36.7614281,144.2888561,2020,10,3.0,2.0,1,3550,202011018,House,152.57367000000002,0.9336,1.31778,1.11634,0.89378,2.40188,2.74243,1.39877,430.0
"1/15 BLANCHE ST, WAHGUNYAH",-36.01084255,146.3953653,2020,7,2.0,1.0,1,3687,204021065,House,288.57766,,0.6039500000000001,10.36695,0.82041,9.58476,9.45091,,250.0
"1/15 BLANCHE STREET, WAHGUNYAH",-36.010994,146.395337,2020,7,2.0,1.0,1,3687,204021065,House,288.57766,,0.6039500000000001,10.36695,0.82041,9.58476,9.45091,,250.0
"1/15 BLANCHE STREET, WAHGUNYAH",-36.010994,146.395337,2020,8,2.0,1.0,1,3687,204021065,House,288.57766,,0.6039500000000001,10.36695,0.82041,9.58476,9.45091,,250.0
"1/15 DION ROAD, GLEN WAVERLEY",-37.892678,145.167041,2020,9,3.0,1.0,1,3150,212051321,House,24.51846,0.90914,0.7406900000000001,1.23063,,,1.35617,,440.0
"1/15 EVANS STREET, CHADSTONE",-37.883077,145.098135,2020,1,3.0,1.0,1,3148,212051319,House,17.489939999999997,2.00684,1.06927,0.90236,,,,,445.0
"1/15 GREENHAM CRESCENT, MOUNT WAVERLEY",-37.88689001,145.13334001,2020,12,4.0,3.0,1,3149,212051324,House,20.90498,1.74893,1.40461,2.15833,,2.878,1.24865,5.4275,600.0
"1/15 HARTINGTON STREET, GLENROY",-37.700251,144.916124,2020,7,2.0,1.0,1,3046,210031535,House,14.08266,0.9879,1.26692,1.33849,,,,,375.0
"1/15 HARTINGTON STREET, GLENROY",-37.700251,144.916124,2020,9,2.0,1.0,1,3046,210031535,House,14.08266,0.9879,1.26692,1.33849,,,,,375.0
"1/15 JURGA COURT, ALTONA",-37.862082,144.846454,2020,4,1.0,1.0,1,3018,213021341,Apartment,16.98649,0.38332,1.20399,3.51556,1.88039,2.72482,,,220.0
"1/15 POWLETT STREET, HEIDELBERG",-37.753599,145.058328,2020,3,2.0,1.0,1,3084,209011198,Apartment,15.3557,0.83148,1.10802,1.35283,0.7143999999999999,0.37612,1.33422,,410.0
"1/15 ROBERTS STREET, GLEN WAVERLEY",-37.890792002,145.1661066002,2020,3,3.0,2.0,1,3150,212051321,House,24.20226,0.6799700000000001,1.05682,1.49324,,,1.32193,,550.0
"1/15 STUDLEY ST, MULGRAVE",-37.932207,145.16279,2020,10,3.0,1.0,1,3170,212051325,House,30.525740000000003,3.28374,0.59229,0.8107300000000001,,,,,350.0
"1/15 STUDLEY STREET, MULGRAVE",-37.932207,145.16279,2020,10,3.0,1.0,1,3170,212051325,House,30.525740000000003,3.28374,0.59229,0.8107300000000001,,,,,350.0
"1/15 WELLINGTON ROAD, BOX HILL",-37.815757,145.117089,2020,11,2.0,2.0,2,3128,207031163,House,18.89586,1.09583,0.81623,1.4858399999999998,0.47701,0.26511,1.45034,1.52239,400.0
"1/150A GLADSTONE STREET, QUARRY HILL",-36.771832,144.275438,2020,11,2.0,2.0,1,3550,202011021,House,150.37783,0.41418,0.5971000000000001,2.67868,,,,,300.0
"1/151 GRAND BOULEVARD, MONTMORENCY",-37.720594,145.13378,2020,5,1.0,1.0,1,3094,209011202,House,23.34333,1.70095,0.6702400000000001,3.84192,1.91576,,,,290.0
"1/154 FRANKSTON DANDENONG ROAD, SEAFORD",-38.127361,145.135172,2020,7,3.0,2.0,1,3198,214011375,House,52.37991,2.15281,1.99831,7.80001,1.64069,,7.14733,,425.0
"1/155 PHILLIPSON STREET, WANGARATTA",-36.343379,146.30708,2020,8,2.0,1.0,1,3677,204021066,Apartment,242.5058,2.1763000000000003,0.51054,0.15537,3.54284,1.7373599999999998,2.78519,,215.0
"1/155 VICTORIA AVENUE, ALBERT PARK",-37.84664001,144.94963001,2020,10,2.0,2.0,1,3206,206051128,Apartment,5.85112,0.5198400000000001,0.66396,0.45468,2.12364,,3.85599,,1000.0
"1/155 VICTORIA AVENUE, ALBERT PARK",-37.84664001,144.94963001,2020,12,2.0,2.0,1,3206,206051128,Apartment,5.85112,0.5198400000000001,0.66396,0.45468,2.12364,,3.85599,,1000.0
"1/1553 POINT NEPEAN ROAD, CAPEL SOUND",-38.36371001,144.88244001,2020,4,3.0,2.0,1,3940,214021384,House,92.3903,1.658,1.43586,0.96387,,0.57851,1.43573,,490.0
"1/1553 POINT NEPEAN ROAD, CAPEL SOUND",-38.36371001,144.88244001,2020,5,3.0,2.0,1,3940,214021384,House,92.3903,1.658,1.43586,0.96387,,0.57851,1.43573,,490.0
"1/157-159 ST LEONARDS ROAD, ASCOT VALE",-37.773309,144.909432,2020,12,2.0,1.0,1,3032,206031113,Apartment,7.65202,0.36911,0.17196,,1.57973,,,,300.0
"1/159 BLACKBURN ROAD, MOUNT WAVERLEY",-37.8755529002,145.1477744002,2020,2,3.0,1.0,1,3149,212051322,Apartment,23.46481,3.0539,0.8371900000000001,1.41021,0.35144,,,2.01442,460.0
"1/159 WIDFORD ST, BROADMEADOWS",-37.692231,144.925377,2020,5,2.0,1.0,1,3047,210051242,House,15.382700000000002,0.10172,0.5352100000000001,1.47502,1.55628,,2.35498,2.55594,365.0
"1/159 WIDFORD STREET, BROADMEADOWS",-37.692231,144.925377,2020,5,2.0,1.0,1,3047,210051242,House,15.382700000000002,0.10172,0.5352100000000001,1.47502,1.55628,,2.35498,2.55594,365.0
"1/16 LA ROCHELLE BOULEVARD, POINT COOK",-37.8961872,144.7442654,2020,3,2.0,2.0,1,3030,213051580,House,27.53485,,1.27418,0.33266,,,,,390.0
"1/16 LA ROCHELLE BOULEVARD, POINT COOK",-37.8961872,144.7442654,2020,4,2.0,2.0,1,3030,213051580,House,27.53485,,1.27418,0.33266,,,,,390.0
"1/16 PARKSIDE DRIVE, SHEPPARTON",-36.358077,145.390773,2020,10,3.0,2.0,2,3630,216031416,House,184.29175,0.40888,1.64848,0.29467,,2.11838,,,340.0
"1/16 PARKSIDE DRIVE, SHEPPARTON",-36.358077,145.390773,2020,12,3.0,2.0,2,3630,216031416,House,184.29175,0.40888,1.64848,0.29467,,2.11838,,,340.0
"1/16 ROACH DRIVE, ALTONA MEADOWS",-37.884597,144.783552,2020,3,3.0,1.0,2,3028,213021342,House,25.24652,0.12653,0.47324,,,,,,380.0
"1/161 LAWRENCE STREET, WODONGA",-36.1250238,146.8904705,2020,7,2.0,2.0,1,3690,204031492,House,312.55631,0.4193199999999999,0.83156,0.97546,1.42081,1.97227,0.5698200000000001,,290.0
"1/162 GILLIES STREET, FAIRFIELD",-37.771433,145.017848,2020,10,1.0,1.0,1,3078,206021110,Apartment,8.62335,1.17562,1.00304,,1.23334,,,,1217.0
"1/164 ARNOLD STREET, BENDIGO",-36.7477721,144.2799944,2020,9,2.0,1.0,1,3550,202011018,House,152.60398,0.7566499999999999,1.21269,1.31216,2.90773,0.71478,3.18962,2.08199,500.0
"1/164 ARNOLD STREET, BENDIGO",-36.7477721,144.2799944,2020,10,2.0,1.0,1,3550,202011018,House,152.60398,0.7566499999999999,1.21269,1.31216,2.90773,0.71478,3.18962,2.08199,500.0
"1/164 HODGINS ROAD, HASTINGS",-38.299803,145.1763,2020,11,3.0,1.0,2,3915,214021379,House,74.30478,0.6902200000000001,0.58023,2.3601,1.77729,,1.60914,,360.0
"1/164 LIGHTWOOD ROAD, NOBLE PARK",-37.964753,145.17258,2020,1,3.0,1.0,1,3174,212041460,House,34.03748,0.13657,0.77818,,2.2682800000000003,,,,390.0
"1/166 CANADIAN BAY ROAD, MOUNT ELIZA",-38.187042,145.09146,2020,9,2.0,1.0,1,3930,214021381,House,61.524260000000005,0.19122,1.20244,0.34698,6.339810000000001,,,,360.0
"1/166 HOLDEN STREET, FITZROY NORTH",-37.780183,144.986898,2020,2,2.0,1.0,1,3068,206071143,House,4.9501,0.99964,0.5102300000000001,1.01521,0.68029,,,,570.0
"1/167 MELROSE DRIVE, TULLAMARINE",-37.703546,144.882595,2020,6,2.0,1.0,1,3043,210051250,House,15.97937,0.65536,0.39808,,,,,,440.0
"1/167 MELROSE DRIVE, TULLAMARINE",-37.703546,144.882595,2020,7,2.0,1.0,1,3043,210051250,House,15.97937,0.65536,0.39808,,,,,,440.0
"1/16A ARLINGTON STREET, RINGWOOD",-37.8193169,145.2251803,2020,3,2.0,1.0,1,3134,211031266,House,27.32694,0.86864,1.10126,1.2845799999999998,0.68121,,0.89924,1.23842,440.0
"1/16A ARLINGTON STREET, RINGWOOD",-37.8193169,145.2251803,2020,6,2.0,1.0,1,3134,211031266,House,27.32694,0.86864,1.10126,1.2845799999999998,0.68121,,0.89924,1.23842,440.0
"1/17 ALFRED GROVE, EMERALD",-37.920248,145.464631,2020,6,2.0,1.0,1,3782,212011289,House,59.305690000000006,0.53711,3.15764,1.04167,3.40016,,2.60087,,350.0
"1/17 BRAMWELL CLOSE, ENDEAVOUR HILLS",-37.99160385,145.26370239,2020,3,2.0,1.0,1,3802,212021454,House,37.70939,0.22555,0.88736,5.128220000000001,,,,3.17075,330.0
"1/17 CASSOWARY AVENUE, WERRIBEE",-37.879559,144.665687,2020,10,3.0,1.0,1,3030,213051467,House,32.09715,1.43965,0.84257,2.08324,,,,,320.0
"1/17 DALE AVE, PASCOE VALE",-37.73366,144.93929,2020,1,3.0,2.0,2,3044,210031538,House,10.2587,0.97076,0.47701,2.51166,,,,,580.0
"1/17 DALE AVENUE, PASCOE VALE",-37.733635,144.939097,2020,1,3.0,2.0,2,3044,210031538,House,10.25553,0.97393,0.48018,2.51483,,,,,580.0
"1/17 FIDGE COURT, JACANA",-37.68988001,144.91113001,2020,8,3.0,2.0,1,3047,210051242,House,15.47469,1.08605,0.41219,1.1683599999999998,1.7008800000000002,,1.47232,1.67328,1738.0
"1/17 FIDGE COURT, JACANA",-37.68988001,144.91113001,2020,9,3.0,2.0,1,3047,210051242,House,15.47469,1.08605,0.41219,1.1683599999999998,1.7008800000000002,,1.47232,1.67328,400.0
"1/17 HOLLOWAY STREET, ORMOND",-37.901725,145.046804,2020,7,2.0,1.0,1,3204,208021182,House,16.889919999999996,1.05726,1.2763399999999998,,1.1018,,1.85389,,410.0
"1/17 KENT STREET, MORNINGTON",-38.227272,145.041105,2020,3,3.0,2.0,2,3931,214021592,House,73.41695,0.1397,0.88599,0.48674,,,1.45324,,500.0
"1/17 LEWIS COURT, SEBASTOPOL",-37.600489,143.843314,2020,6,3.0,1.0,1,3356,201011484,House,119.79702,0.5674600000000001,0.72036,1.63151,,,,,235.0
"1/17 MIRRIAM AVENUE, CAPEL SOUND",-38.364477,144.880055,2020,1,4.0,2.0,2,3940,214021384,House,92.96263,1.36076,1.29301,0.98804,,0.77159,1.45989,,585.0
"1/17 MUNRO STREET, ASCOT VALE",-37.775992,144.913755,2020,12,2.0,1.0,1,3032,206031113,Apartment,7.275939999999999,0.6718200000000001,0.47763,,0.8962899999999999,,,,300.0
"1/17 TOOLAMBOOL ROAD, CARNEGIE",-37.886653,145.053925,2020,2,2.0,1.0,1,3163,208021176,Apartment,15.89688,1.36442,0.59078,,0.55598,,,,480.0
