,address,latitude,longitude,nbed,nbath,ncar,price,type,historical_dates,postcode,year,month,suburb,weekly_rent,residence_type
0,"14 PITMAN STREET, CHEWTON",-37.083013,144.266589,4.0,1.0,1,$260_pw,House,March 2008,3451,2008,3,CHEWTON,260,House
1,"52 FRYERS ROAD, CHEWTON",-37.087738,144.257555,3.0,1.0,2,$350_pw,House,April 2008,3451,2008,4,CHEWTON,350,House
2,"52 FRYERS ROAD, CHEWTON",-37.087738,144.257555,3.0,1.0,2,$340,House,March 2008,3451,2008,3,CHEWTON,340,House
3,"6 BAKER STREET, CHEWTON",-37.081637,144.26061,2.0,1.0,0,$200_pw,House,July 2008,3451,2008,7,CHEWTON,200,House
4,"7 ERNEST STREET, CHILDERS",-25.234804,152.281555,3.0,1.0,1,$280_pw,House,December 2008,3824,2008,12,CHILDERS,280,House
5,"17 HINKLER STREET, CHILDERS",-38.2970543,146.1086067,3.0,1.0,1,$250_pw,House,September 2008,3824,2008,9,CHILDERS,250,House
6,"21 CHURCHILL STREET, CHILDERS",-25.23595,152.283737,3.0,1.0,0,$240_pw,House,July 2008,3824,2008,7,CHILDERS,240,House
7,"5 ERNEST STREET, CHILDERS",-25.235014,152.281525,3.0,1.0,2,$250_pw,House,July 2008,3824,2008,7,CHILDERS,250,House
8,"25 CHURCHILL STREET, CHILDERS",-25.235884,152.283615,3.0,1.0,0,$250_pw,House,June 2008,3824,2008,6,CHILDERS,250,House
9,"11 WELL LINE STREET, CHILDERS",-25.240752,152.287155,4.0,2.0,2,$300_pw,House,June 2008,3824,2008,6,CHILDERS,300,House
10,"18 ELIZABETH STREET, CHILDERS",-25.237978,152.282166,4.0,1.0,2,$270_pw,House,June 2008,3824,2008,6,CHILDERS,270,House
11,"4192 CHILDERS ROAD, CHILDERS",-25.168562,152.222626,3.0,2.0,1,$250_pw,House,June 2008,3824,2008,6,CHILDERS,250,House
12,"6 QUEEN STREET, CHILDERS",-25.239212,152.27549,3.0,1.0,2,$250_pw,House,May 2008,3824,2008,5,CHILDERS,250,House
13,"717 CHILTERN VALLEY ROAD, CHILTERN VALLEY",-36.141879,146.546172,3.0,2.0,0,$300_pw,House,November 2008,3683,2008,11,VALLEY,300,House
14,"2/20 NICKLESS STREET, CHILTERN",-36.154038,146.602977,2.0,1.0,2,$180,Rental_residential,April 2008,3683,2008,4,CHILTERN,180,Other
15,"12 PARK STREET, CHILTERN",-36.148489,146.609016,3.0,1.0,0,$185_pw,House,November 2008,3683,2008,11,CHILTERN,185,House
16,"5 PARK STREET, CHILTERN",-36.149064,146.608326,3.0,1.0,2,$220_pw,House,November 2008,3683,2008,11,CHILTERN,220,House
17,"5 PARK STREET, CHILTERN",-36.149064,146.608326,3.0,1.0,2,$250_pw,House,November 2008,3683,2008,11,CHILTERN,250,House
18,"5 EDWARD ROAD, CHIRNSIDE PARK",-37.75641,145.316065,3.0,1.0,1,$260,House,May 2008,3116,2008,5,PARK,260,House
19,"5 ALLY TERRACE, CHIRNSIDE PARK",-37.756717,145.294892,4.0,2.0,2,$410_pw,House,January 2008,3116,2008,1,PARK,410,House
20,"5 ALLY TERRACE, CHIRNSIDE PARK",-37.756717,145.294892,4.0,2.0,2,$425,House,January 2008,3116,2008,1,PARK,425,House
21,"19 CHUM CREEK ROAD, CHUM CREEK",-37.646878,145.49704,3.0,2.0,2,$320_per_week,House,May 2008,3777,2008,5,CREEK,320,House
22,"19 CHUM CREEK ROAD, CHUM CREEK",-37.646878,145.49704,3.0,2.0,2,$320_per_week,House,April 2008,3777,2008,4,CREEK,320,House
23,"48 MCDONALD WAY, CHURCHILL",-38.312359,146.412762,3.0,1.0,1,$160,Rental_residential,February 2008,3842,2008,2,CHURCHILL,160,Other
24,"28 NUGENT COURT, CLARENDON",-37.713035,143.979763,5.0,3.0,4,$450_pw,Rental_residential,March 2008,3352,2008,3,CLARENDON,450,Other
25,"20 CRAWFORD ROAD, CLARINDA",-37.929396,145.101594,2.0,1.0,1,$240_pw,House,March 2008,3169,2008,3,CLARINDA,240,House
26,"8/31-33 FIRST STREET, CLAYTON SOUTH",-37.933051,145.134866,2.0,1.0,1,$175,none,April 2008,3169,2008,4,SOUTH,175,Other
27,"3/31 SPRINGS ROAD, CLAYTON SOUTH",-37.930285,145.109556,2.0,1.0,1,$250,none,July 2008,3169,2008,7,SOUTH,250,Other
28,"10 EVERGREEN BOULEVARD, CLAYTON SOUTH",-37.93957,145.137404,3.0,2.0,2,$470,House,September 2008,3169,2008,9,SOUTH,470,House
29,"10 EVERGREEN BOULEVARD, CLAYTON SOUTH",-37.93957,145.137404,3.0,2.0,2,$470,House,August 2008,3169,2008,8,SOUTH,470,House
30,"1 MELOSA AVENUE, CLAYTON SOUTH",-37.937284,145.114101,3.0,1.0,2,$250,House,April 2008,3169,2008,4,SOUTH,250,House
31,"1/6 ATLANTIC STREET, CLAYTON",-37.918015,145.128456,1.0,1.0,1,$370,House,February 2008,3168,2008,2,CLAYTON,370,House
32,"35 RENVER ROAD, CLAYTON",-37.919951,145.142791,3.0,1.0,1,$300,House,October 2008,3168,2008,10,CLAYTON,300,House
33,"35 RENVER ROAD, CLAYTON",-37.919951,145.142791,3.0,1.0,1,$300,House,September 2008,3168,2008,9,CLAYTON,300,House
34,"2/14 ATLANTIC STREET, CLAYTON",-37.918107,145.129229,2.0,1.0,2,$260,Rental_residential,February 2008,3168,2008,2,CLAYTON,260,Other
35,"42 STOCKDALE AVENUE, CLAYTON",-37.910502,145.126035,4.0,2.0,1,$140_p.w.,House,September 2008,3168,2008,9,CLAYTON,140,House
36,"2B HOURIGAN AVENUE, CLAYTON",-37.917265,145.121913,3.0,2.0,2,$400_Weekly,Townhouse,December 2008,3168,2008,12,CLAYTON,400,House
37,"105 KANOOKA GROVE, CLAYTON",-37.926131,145.125044,3.0,1.0,1,$350_Weekly,House,November 2008,3168,2008,11,CLAYTON,350,House
38,"16 BRUSHBOX COURT, CLAYTON",-37.92314,145.129478,2.0,1.0,2,$380_per_week,Townhouse,September 2008,3168,2008,9,CLAYTON,380,House
39,"16 BRUSHBOX COURT, CLAYTON",-37.92314,145.129478,2.0,1.0,2,$400_per_week,Townhouse,September 2008,3168,2008,9,CLAYTON,400,House
40,"3 ALBERT ROAD, CLEMATIS",-37.929421,145.421,2.0,1.0,0,$240,House,July 2008,3782,2008,7,CLEMATIS,240,House
41,"3 ALBERT ROAD, CLEMATIS",-37.929421,145.421,2.0,1.0,0,$240_per_week,House,April 2008,3782,2008,4,CLEMATIS,240,House
42,"2/1980 WELLINGTON ROAD, CLEMATIS",-37.933762,145.412077,3.0,2.0,2,$270_per_week,House,June 2008,3782,2008,6,CLEMATIS,270,House
43,"2/1980 WELLINGTON ROAD, CLEMATIS",-37.933762,145.412077,3.0,2.0,2,$270,House,May 2008,3782,2008,5,CLEMATIS,270,House
44,"120 BELLBIRD ROAD, CLIFTON CREEK",-37.728296,147.691371,4.0,1.0,3,$265_Weekly,House,September 2008,3875,2008,9,CREEK,265,House
45,"6/32 THE ESPLANADE, CLIFTON HILL",-37.787185,145.005992,2.0,1.0,1,$300,Rental_residential,July 2008,3068,2008,7,HILL,300,Other
46,"8/32 DWYER STREET, CLIFTON HILL",-37.787239,145.002994,1.0,1.0,1,$250_pw,none,August 2008,3068,2008,8,HILL,250,Other
47,"137 RAMSDEN STREET, CLIFTON HILL",-37.791122,145.000617,4.0,2.0,2,$350_pw,Rental_residential,August 2008,3068,2008,8,HILL,350,Other
48,"18/14 THE ESPLANADE, CLIFTON HILL",-37.788057,145.005844,1.0,1.0,1,$210_pw,Rental_residential,April 2008,3068,2008,4,HILL,210,Other
49,"18/14 THE ESPLANADE, CLIFTON HILL",-37.788057,145.005844,1.0,1.0,1,$230,Rental_residential,March 2008,3068,2008,3,HILL,230,Other
50,"205 SPENSLEY STREET, CLIFTON HILL",-37.786573,145.004419,2.0,1.0,1,$420_pw,House,April 2008,3068,2008,4,HILL,420,House
51,"2/34 GROOM STREET, CLIFTON HILL",-37.794845,144.997723,2.0,1.0,1,$550_pw,none,August 2008,3068,2008,8,HILL,550,Other
52,"128 NOONE STREET, CLIFTON HILL",-37.793818,144.996434,2.0,1.0,0,$355,none,January 2008,3068,2008,1,HILL,355,Other
53,"7/57 CAROLINE STREET, CLIFTON HILL",-37.789892,144.998232,2.0,1.0,1,$290_pw,Rental_residential,October 2008,3068,2008,10,HILL,290,Other
54,"16 COUNCIL STREET, CLIFTON HILL",-37.792331,144.986235,2.0,2.0,0,$550_pw,none,March 2008,3068,2008,3,HILL,550,Other
55,"15 COUNCIL STREET, CLIFTON HILL",-37.792726,144.986822,3.0,2.0,2,$580_pw,House,February 2008,3068,2008,2,HILL,580,House
56,"9 O'GRADY STREET, CLIFTON HILL",-37.787643,144.997929,2.0,1.0,2,$450_pw,House,July 2008,3068,2008,7,HILL,450,House
57,"152 GOLD STREET, CLIFTON HILL",-37.792994,144.990414,2.0,1.0,1,$440_pw,Rental_residential,October 2008,3068,2008,10,HILL,440,Other
58,"403 WELLINGTON STREET, CLIFTON HILL",-37.792408,144.988295,2.0,1.0,1,$360_pw,none,July 2008,3068,2008,7,HILL,360,Other
59,"10 ANDERSON STREET, CLIFTON HILL",-37.792946,144.993254,2.0,1.0,1,$390,Available Now,May 2008,3068,2008,5,HILL,390,Other
60,"29 RAMSDEN STREET, CLIFTON HILL",-37.790559,144.996079,5.0,2.0,0,$600_pw,none,January 2008,3068,2008,1,HILL,600,Other
61,"17 GROOM STREET, CLIFTON HILL",-37.794443,144.998222,2.0,1.0,1,$430_per_week,none,November 2008,3068,2008,11,HILL,430,Other
62,"17 GROOM STREET, CLIFTON HILL",-37.794443,144.998222,2.0,1.0,1,$450_per_week,none,October 2008,3068,2008,10,HILL,450,Other
63,"18/57 CAROLINE STREET, CLIFTON HILL",-37.79021072,145.0009613,1.0,1.0,1,$210_pw,Rental_residential,September 2008,3068,2008,9,HILL,210,Other
64,"5/60 FENWICK STREET, CLIFTON HILL",-37.786721,144.999896,2.0,1.0,1,$300_pw,Rental_residential,October 2008,3068,2008,10,HILL,300,Other
65,"10 GOONDIWINDI AVENUE, CLIFTON SPRINGS",-38.158904,144.557156,4.0,2.0,2,$240,House,July 2008,3222,2008,7,SPRINGS,240,House
66,"4 STEVEN STREET, CLONBINANE",-37.299715,145.067375,3.0,2.0,2,$265_p.w.,House,November 2008,3658,2008,11,CLONBINANE,265,House
67,"28 VICTORIA COURT, COBUNGRA",-37.091318,147.444334,4.0,2.0,0,$350_per_week,House,October 2008,3898,2008,10,COBUNGRA,350,House
68,"28 VICTORIA COURT, COBUNGRA",-37.091318,147.444334,4.0,2.0,0,$350,House,July 2008,3898,2008,7,COBUNGRA,350,House
69,"3/41 ARTHUR STREET, COBURG NORTH",-37.723567,144.980436,2.0,1.0,1,$230_pw,Rental_residential,February 2008,3058,2008,2,NORTH,230,Other
70,"2 BELGRAVE STREET, COBURG",-37.742793,144.974864,3.0,1.0,1,$370_pw,none,October 2008,3058,2008,10,COBURG,370,Other
71,"138 SYDNEY ROAD, COBURG",-37.751617,144.965032,2.0,1.0,2,$242_pw,House,May 2008,3058,2008,5,COBURG,242,House
72,"19 SAUNDERS STREET, COBURG",-37.752043,144.950572,3.0,1.0,1,$450_pw,House,July 2008,3058,2008,7,COBURG,450,House
73,"177 URQUHART STREET, COBURG",-37.741016,144.975769,3.0,2.0,1,$450,House,July 2008,3058,2008,7,COBURG,450,House
74,"10/95 HARDING STREET, COBURG",-37.745848,144.975359,2.0,1.0,1,$250_per_week,none,August 2008,3058,2008,8,COBURG,250,Other
75,"53 NICHOLSON STREET, COBURG",-37.753605,144.975761,2.0,1.0,1,$265_pw,none,March 2008,3058,2008,3,COBURG,265,Other
76,"3/5 INDUSTRY LANE, COBURG",-37.74493,144.96469,2.0,1.0,1,$350_pw,Rental_residential,October 2008,3058,2008,10,COBURG,350,Other
77,"3/5 INDUSTRY LANE, COBURG",-37.74493,144.96469,2.0,1.0,1,$350_pw,Rental_residential,September 2008,3058,2008,9,COBURG,350,Other
78,"8 PARKLANE MEWS, COBURG",-37.7406984,144.976022,3.0,2.0,1,$450,none,July 2008,3058,2008,7,COBURG,450,Other
79,"9A MILLER STREET, COBURG",-37.750111,144.969125,3.0,1.0,0,$330_Weekly,House,October 2008,3058,2008,10,COBURG,330,House
80,"9A MILLER STREET, COBURG",-37.750111,144.969125,3.0,1.0,0,$330_Weekly,House,September 2008,3058,2008,9,COBURG,330,House
81,"4/36 THE GROVE, COBURG",-37.751916,144.969914,2.0,1.0,1,$310_Weekly,Townhouse,June 2008,3058,2008,6,COBURG,310,House
82,"39 FISCHER STREET, COBURG",-37.733824,144.953878,3.0,1.0,1,$600_per_week,House,July 2008,3058,2008,7,COBURG,600,House
83,"39 FISCHER STREET, COBURG",-37.733824,144.953878,3.0,1.0,1,$600_per_week,House,June 2008,3058,2008,6,COBURG,600,House
84,"3 WOIWURUNG CRESCENT, COBURG",-37.735815,144.974882,3.0,2.0,1,$450_pw,Available Now,March 2008,3058,2008,3,COBURG,450,Other
85,"3/33 SHAFTSBURY STREET, COBURG",-37.751325,144.953636,3.0,1.0,1,$330_Weekly,none,August 2008,3058,2008,8,COBURG,330,Other
86,"3/33 SHAFTSBURY STREET, COBURG",-37.751325,144.953636,3.0,1.0,1,$330_Weekly,none,July 2008,3058,2008,7,COBURG,330,Other
87,"2/33 SHAFTSBURY STREET, COBURG",-37.751325,144.953636,3.0,1.0,1,$300_Weekly,none,June 2008,3058,2008,6,COBURG,300,Other
88,"2/33 SHAFTSBURY STREET, COBURG",-37.751325,144.953636,3.0,1.0,1,$300_Weekly,none,May 2008,3058,2008,5,COBURG,300,Other
89,"34 VINCENT STREET, COBURG",-37.741064,144.956685,2.0,1.0,1,$290_pw,House,February 2008,3058,2008,2,COBURG,290,House
90,"34 VINCENT STREET, COBURG",-37.741064,144.956685,2.0,1.0,1,$290_pw,House,January 2008,3058,2008,1,COBURG,290,House
91,"69A MORELAND ROAD, COBURG",-37.756399,144.97422,3.0,1.0,1,$330,none,May 2008,3058,2008,5,COBURG,330,Other
93,"116 SHAFTSBURY STREET, COBURG",-37.745402,144.95584,3.0,1.0,1,$320,House,September 2008,3058,2008,9,COBURG,320,House
94,"116 SHAFTSBURY STREET, COBURG",-37.745402,144.95584,3.0,1.0,1,$320,House,August 2008,3058,2008,8,COBURG,320,House
95,"116 SHAFTSBURY ST, COBURG",-37.745402,144.95584,3.0,1.0,1,$300,House,September 2008,3058,2008,9,COBURG,300,House
96,"116 SHAFTSBURY ST, COBURG",-37.745402,144.95584,3.0,1.0,1,$300_pw,House,August 2008,3058,2008,8,COBURG,300,House
97,"158 SYDNEY ROAD, COBURG",-37.750943,144.965142,3.0,1.0,0,$500,none,July 2008,3058,2008,7,COBURG,500,Other
99,"78 SOUDAN STREET, COBURG",-37.738555,144.949719,2.0,1.0,3,$270_pw,House,May 2008,3058,2008,5,COBURG,270,House
100,"3/11 METHVEN STREET, COBURG",-37.746901,144.963811,2.0,1.0,1,$350_Weekly,none,October 2008,3058,2008,10,COBURG,350,Other
101,"3/11 METHVEN STREET, COBURG",-37.746901,144.963811,2.0,1.0,1,$350_Weekly,none,May 2008,3058,2008,5,COBURG,350,Other
102,"3/11 METHVEN STREET, COBURG",-37.746901,144.963811,2.0,1.0,1,$350,none,April 2008,3058,2008,4,COBURG,350,Other
103,"1/1 INDUSTRY LANE, COBURG",-37.7369442,144.9699153,1.0,1.0,1,$330_per_week,none,October 2008,3058,2008,10,COBURG,330,Other
104,"6/70 MUNRO STREET, COBURG",-37.744296,144.960126,1.0,1.0,0,$180_pw,Rental_residential,April 2008,3058,2008,4,COBURG,180,Other
105,"2/27 GLADSTONE STREET, COBURG",-37.74468,144.976117,2.0,1.0,1,$260_pw,Rental_residential,September 2008,3058,2008,9,COBURG,260,Other
106,"2/27 GLADSTONE STREET, COBURG",-37.74468,144.976117,2.0,1.0,1,$260_pw,Rental_residential,August 2008,3058,2008,8,COBURG,260,Other
107,"3/170 GORDON STREET, COBURG",-37.742134,144.94979,2.0,1.0,1,$350,none,June 2008,3058,2008,6,COBURG,350,Other
108,"3/22 CHAMBERS STREET, COBURG",-37.747267,144.96884,2.0,1.0,1,$320_pw,none,November 2008,3058,2008,11,COBURG,320,Other
109,"1 HAVEN COURT, COCKATOO",-37.948073,145.496363,2.0,1.0,2,$260_per_week,House,August 2008,3781,2008,8,COCKATOO,260,House
110,"22 GLEN ROAD, COCKATOO",-37.937274,145.486381,2.0,1.0,0,$245_per_week,House,June 2008,3781,2008,6,COCKATOO,245,House
111,"22 GLEN ROAD, COCKATOO",-37.937274,145.486381,2.0,1.0,0,$245_per_week,House,May 2008,3781,2008,5,COCKATOO,245,House
112,"80 RAINY HILL ROAD, COCKATOO",-37.91618,145.516997,3.0,1.0,0,$450_per_week,Rental_residential,July 2008,3781,2008,7,COCKATOO,450,Other
113,"80 RAINY HILL ROAD, COCKATOO",-37.91618,145.516997,3.0,1.0,0,$450,Rental_residential,June 2008,3781,2008,6,COCKATOO,450,Other
114,"67 MURRAY STREET, COLAC EAST",-38.337093,143.598979,2.0,1.0,0,$190_pw,none,September 2008,3250,2008,9,EAST,190,Other
115,"1 READ STREET, COLERAINE",-37.597815,141.696046,2.0,1.0,2,$135,House,June 2008,3315,2008,6,COLERAINE,135,House
116,"89 PILLEAU STREET, COLERAINE",-37.600684,141.689622,2.0,1.0,1,$130,House,June 2008,3315,2008,6,COLERAINE,130,House
117,"2 READ STREET, COLERAINE",-37.597912,141.696447,2.0,1.0,0,$120,House,June 2008,3315,2008,6,COLERAINE,120,House
118,"22/15-25 OXFORD STREET, COLLINGWOOD",-37.80752,144.983944,2.0,1.0,2,$420,Rental_residential,July 2008,3066,2008,7,COLLINGWOOD,420,Other
119,"11/115 OXFORD STREET, COLLINGWOOD",-37.802615,144.984783,3.0,2.0,2,$980,none,February 2008,3066,2008,2,COLLINGWOOD,980,Other
120,"5/15-17 BENDIGO STREET, COLLINGWOOD",-37.796087,144.992632,1.0,1.0,1,$180_pw,Rental_residential,March 2008,3066,2008,3,COLLINGWOOD,180,Other
121,"504/45 VICTORIA PARADE, COLLINGWOOD",-37.808835,144.984151,1.0,1.0,0,$195,none,June 2008,3066,2008,6,COLLINGWOOD,195,Other
122,"46 MATER STREET, COLLINGWOOD",-37.795431,144.987464,3.0,1.0,0,$390_pw,House,April 2008,3066,2008,4,COLLINGWOOD,390,House
123,"7/30 MATER STREET, COLLINGWOOD",-37.795384,144.98684,2.0,2.0,1,$440_pw,none,April 2008,3066,2008,4,COLLINGWOOD,440,Other
124,"6/30 MATER STREET, COLLINGWOOD",-37.795384,144.98684,2.0,2.0,1,$450_pw,Available Now,April 2008,3066,2008,4,COLLINGWOOD,450,Other
125,"24/18-22 STANLEY STREET, COLLINGWOOD",-37.801967,144.984817,2.0,1.0,1,$415,none,November 2008,3066,2008,11,COLLINGWOOD,415,Other
127,"15/99 OXFORD STREET, COLLINGWOOD",-37.80752,144.983944,1.0,1.0,1,$340_pw,Unit,July 2008,3066,2008,7,COLLINGWOOD,340,Apartment
128,"5/343 WELLINGTON STREET, COLLINGWOOD",-37.79486,144.987879,2.0,2.0,1,$450_pw,none,April 2008,3066,2008,4,COLLINGWOOD,450,Other
130,"191 LANDSBOROUGH ROAD, CONCONGELLA",-37.054246,142.825795,3.0,1.0,1,$145,House,July 2008,3381,2008,7,CONCONGELLA,145,House
131,"3 BOWLAND CLOSE, CONGUPNA",-36.3129,145.417008,5.0,2.0,4,$380_pw,Rental_residential,May 2008,3633,2008,5,CONGUPNA,380,Other
132,"3 BOWLAND CLOSE, CONGUPNA",-36.3129,145.417008,5.0,2.0,4,$395,Rental_residential,May 2008,3633,2008,5,CONGUPNA,395,Other
133,"46 VERNEY NORTH ROAD, CONGUPNA",-36.315988,145.415988,4.0,2.0,4,$620_pw,House,April 2008,3633,2008,4,CONGUPNA,620,House
134,"70 TANK CORNER ROAD, CONGUPNA",-36.30165,145.43311,3.0,1.0,1,$160_pw,none,April 2008,3633,2008,4,CONGUPNA,160,Other
135,"70 TANK CORNER ROAD, CONGUPNA",-36.30165,145.43311,3.0,1.0,1,$160_pw,none,March 2008,3633,2008,3,CONGUPNA,160,Other
136,"3593 KATAMATITE ROAD, CONGUPNA",-36.300179,145.434519,4.0,1.0,2,$250_pw,none,November 2008,3633,2008,11,CONGUPNA,250,Other
137,"520 GOULBURN VALLEY HIGHWAY, CONGUPNA",-36.297923,145.431809,5.0,2.0,1,$400_pw,House,December 2008,3633,2008,12,CONGUPNA,400,House
138,"5 WALLACE STREET, CONGUPNA",-36.303144,145.434469,3.0,2.0,2,$335,House,August 2008,3633,2008,8,CONGUPNA,335,House
139,"5 WALLACE STREET, CONGUPNA",-36.303144,145.434469,3.0,2.0,2,$335_pw,House,July 2008,3633,2008,7,CONGUPNA,335,House
140,"3 BOWLAND CRT, CONGUPNA",-36.3129,145.417008,4.0,2.0,2,$380,House,June 2008,3633,2008,6,CONGUPNA,380,House
141,"5 WALLACE ST, CONGUPNA",-36.303144,145.434469,3.0,2.0,2,$335_p.w.,House,August 2008,3633,2008,8,CONGUPNA,335,House
142,"5 WALLACE ST, CONGUPNA",-36.303144,145.434469,3.0,2.0,2,$335,House,July 2008,3633,2008,7,CONGUPNA,335,House
143,"195 TANK CORNER EAST ROAD, CONGUPNA",-36.323779,145.483627,2.0,1.0,1,$140,House,July 2008,3633,2008,7,CONGUPNA,140,House
144,"90 ZEERUST ROAD, CONGUPNA",-36.276359,145.428864,2.0,1.0,1,$165,House,June 2008,3633,2008,6,CONGUPNA,165,House
145,"9A WESTMERE CRESCENT, COOLAROO",-37.664659,144.93586,1.0,1.0,1,$205_per_week,Unit,November 2008,3048,2008,11,COOLAROO,205,Apartment
146,"13 CHILDERS CRESCENT, COOLAROO",-37.661619,144.929052,3.0,1.0,2,$265_Weekly,House,June 2008,3048,2008,6,COOLAROO,265,House
147,"53 LAMBIE STREET, COOMA",-36.237334,149.115858,2.0,1.0,0,$150_p.w.,House,December 2008,3616,2008,12,COOMA,150,House
148,"30 COORIEJONG ROAD, COORIEMUNGLE",-38.524182,143.051845,4.0,1.0,2,$220_pw,none,July 2008,3268,2008,7,COORIEMUNGLE,220,Other
149,"30 COORIEJONG RD, COORIEMUNGLE",-38.524182,143.051845,4.0,1.0,2,$220,House,July 2008,3268,2008,7,COORIEMUNGLE,220,House
150,"680 NINE MILE ROAD, CORA LYNN",-38.142492,145.606024,3.0,1.0,0,$400_per_week,none,November 2008,3814,2008,11,LYNN,400,Other
151,"680 NINE MILE ROAD, CORA LYNN",-38.142492,145.606024,3.0,1.0,0,$400_per_week,none,October 2008,3814,2008,10,LYNN,400,Other
152,"170 LINEENS ROAD, CORAGULAC",-38.26738169,143.49958124,4.0,2.0,2,$175,none,June 2008,3249,2008,6,CORAGULAC,175,Other
153,"60 BAGGOTTS ROAD, CORAGULAC",-38.263802,143.539448,4.0,2.0,3,$175_pw,none,September 2008,3249,2008,9,CORAGULAC,175,Other
154,"20 WRIGHT STREET, CORINELLA",-38.413258,145.426706,1.0,1.0,2,$120,none,February 2008,3984,2008,2,CORINELLA,120,Other
155,"6 KILBURN STREET, CORINELLA",-38.415896,145.434962,2.0,1.0,1,$190,none,March 2008,3984,2008,3,CORINELLA,190,Other
156,"108 SMYTHE STREET, CORINELLA",-38.411359,145.425565,3.0,1.0,2,$180,none,June 2008,3984,2008,6,CORINELLA,180,Other
157,"6 ARMALITE COURT, CORIO",-38.069292,144.351343,3.0,1.0,2,$225,Rental_residential,July 2008,3214,2008,7,CORIO,225,Other
158,"4 CHESHIRE STREET, CORIO",-38.073003,144.353327,3.0,1.0,4,$270,none,April 2008,3214,2008,4,CORIO,270,Other
159,"37 CUTTY SARK ROAD, CORONET BAY",-38.438772,145.442029,3.0,1.0,2,$220,House,July 2008,3984,2008,7,BAY,220,House
160,"29 SEMAPHORE STREET, CORONET BAY",-38.435814,145.442975,2.0,2.0,2,$180,House,May 2008,3984,2008,5,BAY,180,House
161,"521 CORANGAMITE LAKE ROAD, COROROOKE",-38.289201,143.522132,3.0,1.0,1,$135_per_week,none,June 2008,3254,2008,6,COROROOKE,135,Other
162,"215 CORANGAMITE LAKE ROAD, COROROOKE",-38.311384,143.526141,3.0,1.0,0,$160,none,July 2008,3254,2008,7,COROROOKE,160,Other
163,"30A HILDEBRAND ROAD, COTTLES BRIDGE",-37.600136,145.219167,3.0,2.0,0,$360,none,February 2008,3099,2008,2,BRIDGE,360,Other
165,"1/4 GRANDVIEW GROVE, COWES",-38.45692444,145.23738098,3.0,2.0,1,$220,none,May 2008,3922,2008,5,COWES,220,Other
166,"1/4 GRANDVIEW GROVE, COWES",-38.45692444,145.23738098,3.0,2.0,1,$220,none,April 2008,3922,2008,4,COWES,220,Other
167,"6 LARKWOOD LANE, CRAIGIEBURN",-37.607651,144.919158,3.0,1.0,1,$280_p.w.,House,October 2008,3064,2008,10,CRAIGIEBURN,280,House
168,"30 MISSION HILLS WAY, CRAIGIEBURN",-37.604302,144.914174,3.0,3.0,1,$295_pw,House,January 2008,3064,2008,1,CRAIGIEBURN,295,House
169,"12 BAINBRIDGE CLOSE, CRAIGIEBURN",-37.600407,144.936607,4.0,2.0,1,$300_p.w.,House,July 2008,3064,2008,7,CRAIGIEBURN,300,House
170,"12 BAINBRIDGE CLOSE, CRAIGIEBURN",-37.600407,144.936607,4.0,2.0,1,$300_pw,House,June 2008,3064,2008,6,CRAIGIEBURN,300,House
171,"12 BAINBRIDGE CLOSE, CRAIGIEBURN",-37.600407,144.936607,4.0,2.0,1,$300_pw,House,May 2008,3064,2008,5,CRAIGIEBURN,300,House
172,"46 BRENTWOOD DRIVE, CRANBOURNE NORTH",-38.080288,145.286315,3.0,2.0,2,$270_per_week,House,November 2008,3977,2008,11,NORTH,270,House
173,"46 BRENTWOOD DRIVE, CRANBOURNE NORTH",-38.080288,145.286315,3.0,2.0,2,$270,House,July 2008,3977,2008,7,NORTH,270,House
174,"13 YORKSHIRE DRIVE, CRANBOURNE NORTH",-38.073027,145.294741,4.0,2.0,2,$380_per_week,House,June 2008,3977,2008,6,NORTH,380,House
175,"13 HAMILTON DRIVE, CRANBOURNE NORTH",-38.078731,145.295119,3.0,2.0,1,$280_per_week,House,November 2008,3977,2008,11,NORTH,280,House
176,"5 MCMILLAN COURT, CRANBOURNE NORTH",-38.07646,145.265519,3.0,1.0,2,$240_-_$1040_pw,House,August 2008,3977,2008,8,NORTH,1040,House
177,"5 MCMILLAN COURT, CRANBOURNE NORTH",-38.07646,145.265519,3.0,1.0,2,$240_-_$1040_pw,House,July 2008,3977,2008,7,NORTH,1040,House
178,"10 NERRENA RISE, CRANBOURNE WEST",-38.096508,145.259518,3.0,2.0,2,$300_per_week,House,December 2008,3977,2008,12,WEST,300,House
179,"5 BLAINROE CRESCENT, CRANBOURNE",-38.121289,145.252817,4.0,2.0,2,$350_per_week,House,November 2008,3977,2008,11,CRANBOURNE,350,House
180,"3 HARRY STREET, CRANBOURNE",-38.10985,145.276055,3.0,1.0,1,$190,Rental_residential,February 2008,3977,2008,2,CRANBOURNE,190,Other
181,"10 DUNBAR AVENUE, CRANBOURNE",-38.10358,145.276191,3.0,1.0,1,$245_pw,House,October 2008,3977,2008,10,CRANBOURNE,245,House
182,"3 SULLIVAN TERRACE, BURNSIDE",-37.742238,144.748869,3.0,2.0,1,$275,Available Now,October 2008,3023,2008,10,BURNSIDE,275,Other
183,"8/11-15 REDHILL AVENUE, BURWOOD EAST",-37.853801,145.156447,3.0,1.0,2,$350_p.w.,Townhouse,June 2008,3151,2008,6,EAST,350,House
184,"8/11-15 REDHILL AVENUE, BURWOOD EAST",-37.853801,145.156447,3.0,1.0,2,$300_p.w.,Townhouse,June 2008,3151,2008,6,EAST,300,House
185,"2 AMAROO COURT, BURWOOD EAST",-37.853407,145.142189,4.0,1.0,1,$380_per_week,Rental_residential,November 2008,3151,2008,11,EAST,380,Other
186,"2 AMAROO COURT, BURWOOD EAST",-37.853407,145.142189,4.0,1.0,1,$320_per_week,Rental_residential,November 2008,3151,2008,11,EAST,320,Other
187,"2 AMAROO COURT, BURWOOD EAST",-37.853407,145.142189,4.0,1.0,1,$380_per_week,Rental_residential,October 2008,3151,2008,10,EAST,380,Other
188,"394 BLACKBURN ROAD, BURWOOD EAST",-37.858416,145.150713,3.0,1.0,2,$280_pw,House,January 2008,3151,2008,1,EAST,280,House
189,"6 TAYLOR AVENUE, BURWOOD EAST",-37.853964,145.132969,4.0,1.0,3,$400_pw,House,March 2008,3151,2008,3,EAST,400,House
190,"6 LINDISFARNE DRIVE, BURWOOD EAST",-37.85791,145.148328,3.0,1.0,1,$395_pw,Available Now,June 2008,3151,2008,6,EAST,395,Other
191,"5 STATESMAN AVENUE, BURWOOD EAST",-37.850343,145.149631,3.0,1.0,1,$350_p.w.,House,January 2008,3151,2008,1,EAST,350,House
192,"55 NEWHAVEN ROAD, BURWOOD EAST",-37.859198,145.1569,3.0,1.0,1,$350,Rental_residential,November 2008,3151,2008,11,EAST,350,Other
193,"55 NEWHAVEN ROAD, BURWOOD EAST",-37.859198,145.1569,3.0,1.0,1,$375,Rental_residential,August 2008,3151,2008,8,EAST,375,Other
194,"4 MALLAWA COURT, BURWOOD EAST",-37.858204,145.142978,3.0,1.0,1,$350,Rental_residential,June 2008,3151,2008,6,EAST,350,Other
195,"68A ROSLYN STREET, BURWOOD",-37.845154,145.103348,1.0,1.0,1,$145,none,May 2008,3125,2008,5,BURWOOD,145,Other
196,"2/13 CROMWELL STREET, BURWOOD",-37.851928,145.105213,2.0,1.0,2,$320_per_week,none,April 2008,3125,2008,4,BURWOOD,320,Other
197,"1/2 FINCH STREET, BURWOOD",-37.851738,145.12391,3.0,2.0,2,$490,Townhouse,July 2008,3125,2008,7,BURWOOD,490,House
198,"3/2 FINCH STREET, BURWOOD",-37.851738,145.12391,3.0,2.0,2,$500_pw,Townhouse,July 2008,3125,2008,7,BURWOOD,500,House
199,"17 STEPHENS STREET, BURWOOD",-37.856717,145.108984,2.0,1.0,2,$350_pw,House,August 2008,3125,2008,8,BURWOOD,350,House
200,"19 KILDARE STREET, BURWOOD",-37.844842,145.108572,3.0,2.0,2,$370,House,April 2008,3125,2008,4,BURWOOD,370,House
201,"2/14 WORRALL STREET, BURWOOD",-37.848597,145.13041,3.0,2.0,1,$360,none,October 2008,3125,2008,10,BURWOOD,360,Other
202,"2/14 WORRALL STREET, BURWOOD",-37.848597,145.13041,3.0,2.0,1,$370,none,September 2008,3125,2008,9,BURWOOD,370,Other
203,"2/14 WORRALL STREET, BURWOOD",-37.848597,145.13041,3.0,2.0,1,$360,none,February 2008,3125,2008,2,BURWOOD,360,Other
204,"17 LEOPOLD STREET, BURWOOD",-37.859097,145.096193,4.0,2.0,2,$300_pw,House,January 2008,3125,2008,1,BURWOOD,300,House
205,"5B DICKIES ROAD, CABARITA",-34.19621,142.076813,3.0,1.0,1,$180,House,November 2008,3505,2008,11,CABARITA,180,House
206,"5B DICKIES ROAD, CABARITA",-34.19621,142.076813,3.0,1.0,1,$180,House,October 2008,3505,2008,10,CABARITA,180,House
207,"492 SEVENTEENTH STREET, CABARITA",-34.203536,142.091017,4.0,2.0,2,$380_pw,House,October 2008,3505,2008,10,CABARITA,380,House
208,"27 FLORA AVENUE, CABARITA",-34.205321,142.088995,3.0,1.0,0,$220_per_week,House,September 2008,3505,2008,9,CABARITA,220,House
209,"BLOCK 39E SEVENTEETH STREET, CABARITA",-34.1958243,142.0817865,3.0,2.0,4,$400,House,February 2008,3505,2008,2,CABARITA,400,House
210,"BLOCK 39E SEVENTEETH STREET, CABARITA",-34.1958243,142.0817865,3.0,2.0,4,$400,House,January 2008,3505,2008,1,CABARITA,400,House
211,"84 DYAR AVENUE, CABARITA",-34.2127396,142.0894394,4.0,2.0,2,$600_per_week,House,February 2008,3505,2008,2,CABARITA,600,House
212,"84 DYAR AVENUE, CABARITA",-34.2127396,142.0894394,4.0,2.0,2,$600_per_week,House,January 2008,3505,2008,1,CABARITA,600,House
213,"57G SUNDAY ROAD, CALLIGNEE",-38.317243,146.581826,3.0,2.0,2,$320_per_week,House,February 2008,3844,2008,2,CALLIGNEE,320,House
214,"57G SUNDAY ROAD, CALLIGNEE",-38.317243,146.581826,3.0,2.0,2,$330_per_week,House,January 2008,3844,2008,1,CALLIGNEE,330,House
215,"57G SUNDAY ROAD, CALLIGNEE",-38.317243,146.581826,3.0,2.0,2,$320,House,January 2008,3844,2008,1,CALLIGNEE,320,House
216,"1/2 CALLANISH ROAD, CAMBERWELL",-37.846033,145.08801,2.0,1.0,1,$330,Rental_residential,February 2008,3124,2008,2,CAMBERWELL,330,Other
217,"4/28 CORNELL STREET, CAMBERWELL",-37.839757,145.091428,2.0,1.0,1,$290_pw,none,March 2008,3124,2008,3,CAMBERWELL,290,Other
218,"197 HIGHFIELD ROAD, CAMBERWELL",-37.843222,145.083078,2.0,1.0,2,$500_per_week,Rental_residential,February 2008,3124,2008,2,CAMBERWELL,500,Other
219,"252 HIGHFIELD ROAD, CAMBERWELL",-37.848314,145.082571,3.0,2.0,3,$680_per_week,House,December 2008,3124,2008,12,CAMBERWELL,680,House
220,"10 WEBSTER STREET, CAMBERWELL",-37.83682,145.094539,5.0,3.0,2,$620_pw,House,October 2008,3124,2008,10,CAMBERWELL,620,House
221,"7/18 GLENCAIRN AVENUE, CAMBERWELL",-37.846753,145.081316,2.0,1.0,2,$285_pw,Rental_residential,April 2008,3124,2008,4,CAMBERWELL,285,Other
222,"20 LODGE ROAD, CAMBERWELL",-37.84601,145.078903,4.0,2.0,2,$487_per_week,House,November 2008,3124,2008,11,CAMBERWELL,487,House
223,"1/22 ALLAMBEE AVENUE, CAMBERWELL",-37.834967,145.073156,2.0,1.0,1,$375_pw,Rental_residential,April 2008,3124,2008,4,CAMBERWELL,375,Other
224,"15 DAVIS AVENUE, CAMBERWELL",-37.843138,145.056522,4.0,2.0,2,$500_pw,none,May 2008,3124,2008,5,CAMBERWELL,500,Other
225,"15 DAVIS AVENUE, CAMBERWELL",-37.843138,145.056522,4.0,2.0,2,$500_pw,none,February 2008,3124,2008,2,CAMBERWELL,500,Other
226,"1066 TOORAK ROAD, CAMBERWELL",-37.847868,145.071786,3.0,2.0,2,$500,House,May 2008,3124,2008,5,CAMBERWELL,500,House
227,"1066 TOORAK ROAD, CAMBERWELL",-37.847868,145.071786,3.0,2.0,2,$550,House,April 2008,3124,2008,4,CAMBERWELL,550,House
228,"16/700 RIVERSDALE ROAD, CAMBERWELL",-37.83425,145.074497,3.0,1.0,1,$430_pw,House,May 2008,3124,2008,5,CAMBERWELL,430,House
229,"1/31 HIGH ROAD, CAMBERWELL",-37.842785,145.057707,3.0,2.0,2,$600_pw,House,October 2008,3124,2008,10,CAMBERWELL,600,House
230,"13 BUTLER STREET, CAMBERWELL",-37.832815,145.060656,3.0,1.0,0,$430_pw,House,May 2008,3124,2008,5,CAMBERWELL,430,House
231,"3/6 SMITH ROAD, CAMBERWELL",-37.845619,145.069718,3.0,1.0,2,$350,Villa,January 2008,3124,2008,1,CAMBERWELL,350,House
232,"3/6 SMITH ROAD, CAMBERWELL",-37.845619,145.069718,3.0,1.0,2,$340,Villa,January 2008,3124,2008,1,CAMBERWELL,340,House
235,"3/6 LAXDALE ROAD, CAMBERWELL",-37.846975,145.087315,2.0,1.0,1,$320_per_week,House,October 2008,3124,2008,10,CAMBERWELL,320,House
236,"5/184 WATTLE VALLEY ROAD, CAMBERWELL",-37.844727,145.080322,2.0,1.0,1,$425_pw,none,October 2008,3124,2008,10,CAMBERWELL,425,Other
237,"904/422 COLLINS STREET, MELBOURNE",-37.817137,144.96012,1.0,1.0,0,$300,Available Now,February 2008,3000,2008,2,MELBOURNE,300,Other
238,"6/410 QUEEN STREET, MELBOURNE",-37.809096,144.958276,3.0,2.0,1,$550,none,September 2008,3000,2008,9,MELBOURNE,550,Other
239,"6/410 QUEEN STREET, MELBOURNE",-37.809096,144.958276,3.0,2.0,1,$550,none,July 2008,3000,2008,7,MELBOURNE,550,Other
240,"124/546 FLINDERS STREET, MELBOURNE",-37.820521,144.956143,1.0,1.0,0,$210_p.w.,none,September 2008,3000,2008,9,MELBOURNE,210,Other
241,"124/546 FLINDERS STREET, MELBOURNE",-37.820521,144.956143,1.0,1.0,0,$210,none,August 2008,3000,2008,8,MELBOURNE,210,Other
242,"305/441 LONSDALE STREET, MELBOURNE",-37.813267,144.959325,1.0,1.0,0,$350,none,January 2008,3000,2008,1,MELBOURNE,350,Other
243,"705/422 COLLINS STREET, MELBOURNE",-37.817217,144.96034,2.0,1.0,0,$400_pw,Available Now,August 2008,3000,2008,8,MELBOURNE,400,Other
244,"250 ELIZABETH STREET, MELBOURNE",-37.81278992,144.96253967,1.0,1.0,1,$540_pw,Available Now,February 2008,3000,2008,2,MELBOURNE,540,Other
245,"200 SPENCER STREET, MELBOURNE",-37.81613541,144.95289612,2.0,2.0,1,$350_pw,none,September 2008,3000,2008,9,MELBOURNE,350,Other
246,"200 SPENCER STREET, MELBOURNE",-37.81613541,144.95289612,2.0,2.0,1,$650_-_$750,none,July 2008,3000,2008,7,MELBOURNE,750,Other
247,"200 SPENCER STREET, MELBOURNE",-37.81613541,144.95289612,2.0,2.0,1,$700,none,July 2008,3000,2008,7,MELBOURNE,700,Other
248,"200 SPENCER STREET, MELBOURNE",-37.81613541,144.95289612,2.0,2.0,1,$600,none,July 2008,3000,2008,7,MELBOURNE,600,Other
249,"200 SPENCER STREET, MELBOURNE",-37.81613541,144.95289612,2.0,2.0,1,$400,none,July 2008,3000,2008,7,MELBOURNE,400,Other
250,"200 SPENCER STREET, MELBOURNE",-37.81613541,144.95289612,2.0,2.0,1,$450,none,June 2008,3000,2008,6,MELBOURNE,450,Other
251,"200 SPENCER STREET, MELBOURNE",-37.81613541,144.95289612,2.0,2.0,1,$350_pw,none,March 2008,3000,2008,3,MELBOURNE,350,Other
252,"200 SPENCER STREET, MELBOURNE",-37.81613541,144.95289612,2.0,2.0,1,$350_pw,none,February 2008,3000,2008,2,MELBOURNE,350,Other
253,"812/29-31 MARKET STREET, MELBOURNE",-37.818652,144.960479,2.0,2.0,0,$475,Available Now,June 2008,3000,2008,6,MELBOURNE,475,Other
254,"912/87 FRANKLIN STREET, MELBOURNE",-37.808028,144.961681,1.0,1.0,1,$365_pw,Available Now,January 2008,3000,2008,1,MELBOURNE,365,Other
255,"29 RICHARD ROAD, MELTON SOUTH",-37.695188,144.572118,4.0,1.0,1,$205_per_week,House,April 2008,3338,2008,4,SOUTH,205,House
256,"3 WENTWORTH ROAD, MELTON SOUTH",-37.713127,144.568503,3.0,1.0,5,$195_per_week,House,August 2008,3338,2008,8,SOUTH,195,House
257,"3 WENTWORTH ROAD, MELTON SOUTH",-37.713127,144.568503,3.0,1.0,5,$200_per_week,House,August 2008,3338,2008,8,SOUTH,200,House
258,"16 CLOWES STREET, MELTON SOUTH",-37.708535,144.579191,3.0,1.0,2,$220_per_week,House,November 2008,3338,2008,11,SOUTH,220,House
259,"1 STATON CRESCENT, MELTON WEST",-37.681347,144.541885,4.0,2.0,4,$275_p.w.,House,September 2008,3337,2008,9,WEST,275,House
260,"9 WESTMILL VISTA, MELTON",-37.686721,144.555458,2.0,1.0,1,$205,House,August 2008,3337,2008,8,MELTON,205,House
261,"9 WESTMILL VISTA, MELTON",-37.686721,144.555458,2.0,1.0,1,$215_pw,House,July 2008,3337,2008,7,MELTON,215,House
262,"129 CENTENARY AVENUE, MELTON",-37.674872,144.584175,3.0,1.0,2,$195_p.w.,House,May 2008,3337,2008,5,MELTON,195,House
263,"149 CENTENARY AVENUE, MELTON",-37.674546,144.581464,3.0,1.0,2,$200_per_week,none,October 2008,3337,2008,10,MELTON,200,Other
264,"29 MILVERTON STREET, MELTON",-37.676509,144.578759,3.0,2.0,2,$210,House,July 2008,3337,2008,7,MELTON,210,House
265,"27 MARINA DRIVE, MELTON",-37.677741,144.582131,3.0,1.0,1,$220,House,January 2008,3337,2008,1,MELTON,220,House
266,"15 ROSINA DRIVE, MELTON",-37.686315,144.568745,3.0,2.0,1,$250_per_week,House,November 2008,3337,2008,11,MELTON,250,House
267,"14 DRAKE COURT, MELTON",-37.676687,144.585227,3.0,1.0,2,$210,Rental_residential,February 2008,3337,2008,2,MELTON,210,Other
268,"43 HENRY STREET, MELTON",-37.686111,144.58076,3.0,1.0,1,$220_pw,House,March 2008,3337,2008,3,MELTON,220,House
269,"43 HENRY STREET, MELTON",-37.686111,144.58076,3.0,1.0,1,$220_pw,House,February 2008,3337,2008,2,MELTON,220,House
270,"56 BARRIES ROAD, MELTON",-37.688408,144.575932,3.0,2.0,1,$190_per_week,House,December 2008,3337,2008,12,MELTON,190,House
271,"56 BARRIES ROAD, MELTON",-37.688408,144.575932,3.0,2.0,1,$185_per_week,House,March 2008,3337,2008,3,MELTON,185,House
272,"4 OLDERSHAW ROAD, MELTON",-37.680758,144.576772,3.0,1.0,2,$220_per_week,House,September 2008,3337,2008,9,MELTON,220,House
273,"4 OLDERSHAW ROAD, MELTON",-37.680758,144.576772,3.0,1.0,2,$220_per_week,House,August 2008,3337,2008,8,MELTON,220,House
274,"32 CHRISTOPHER CRESCENT, MELTON",-37.685577,144.573168,3.0,1.0,1,$195_pw,House,January 2008,3337,2008,1,MELTON,195,House
275,"33 CENTENARY AVE, MELTON",-37.675966,144.593164,3.0,1.0,0,$200_per_week,House,June 2008,3337,2008,6,MELTON,200,House
276,"3/99 VISTA DRIVE, MELTON",-37.683223,144.572317,2.0,1.0,1,$210_per_week,Available Now,November 2008,3337,2008,11,MELTON,210,Other
277,"1/3A KINLOCH ROAD, MELTON",-37.68931961,144.56895447,2.0,1.0,1,$210_per_week,House,November 2008,3337,2008,11,MELTON,210,House
278,"8 FALCON DRIVE, MELTON",-37.674332,144.575417,3.0,1.0,3,$200,none,November 2008,3337,2008,11,MELTON,200,Other
279,"8 FALCON DRIVE, MELTON",-37.674332,144.575417,3.0,1.0,3,$210_pw,none,October 2008,3337,2008,10,MELTON,210,Other
280,"53 LORIMER STREET, MELTON",-37.688972,144.574322,3.0,1.0,1,$205_per_week,none,December 2008,3337,2008,12,MELTON,205,Other
281,"138 COBURNS ROAD, MELTON",-37.686374,144.568108,3.0,1.0,2,$180_per_week,House,January 2008,3337,2008,1,MELTON,180,House
282,"5 MUSK COURT, MELTON",-37.686746,144.580501,3.0,1.0,1,$200_per_week,House,August 2008,3337,2008,8,MELTON,200,House
283,"5 MUSK COURT, MELTON",-37.686746,144.580501,3.0,1.0,1,$200_per_week,House,July 2008,3337,2008,7,MELTON,200,House
284,"53A ALBENCA STREET, MENTONE",-37.976736,145.074509,2.0,1.0,2,$305,House,June 2008,3194,2008,6,MENTONE,305,House
285,"14/70 BEACH ROAD, MENTONE",-37.988562,145.059898,2.0,1.0,1,$280_pw,Available Now,December 2008,3194,2008,12,MENTONE,280,Other
286,"2/15 COOLABAH STREET, MENTONE",-37.981715,145.084629,3.0,2.0,2,$450_per_week,Townhouse,November 2008,3194,2008,11,MENTONE,450,House
287,"2/15 COOLABAH STREET, MENTONE",-37.981715,145.084629,3.0,2.0,2,$430_per_week,Townhouse,November 2008,3194,2008,11,MENTONE,430,House
288,"2/15 COOLABAH STREET, MENTONE",-37.981715,145.084629,3.0,2.0,2,$430_per_week,Townhouse,October 2008,3194,2008,10,MENTONE,430,House
289,"2/15 COOLABAH STREET, MENTONE",-37.981715,145.084629,3.0,2.0,2,$450_per_week,Townhouse,September 2008,3194,2008,9,MENTONE,450,House
290,"2/15 COOLABAH STREET, MENTONE",-37.981715,145.084629,3.0,2.0,2,$450,Townhouse,May 2008,3194,2008,5,MENTONE,450,House
291,"3/11 STAWELL STREET, MENTONE",-37.984982,145.069636,1.0,1.0,1,$185,none,May 2008,3194,2008,5,MENTONE,185,Other
292,"3/11 STAWELL STREET, MENTONE",-37.984982,145.069636,1.0,1.0,1,$185,none,April 2008,3194,2008,4,MENTONE,185,Other
293,"1/8 COMMERCIAL ROAD, MENTONE",-37.985667,145.06577,2.0,1.0,1,$395_pw,Unit,August 2008,3194,2008,8,MENTONE,395,Apartment
294,"1/8 COMMERCIAL ROAD, MENTONE",-37.985667,145.06577,2.0,1.0,1,$395_pw,Unit,April 2008,3194,2008,4,MENTONE,395,Apartment
295,"1/8 COMMERCIAL ROAD, MENTONE",-37.985667,145.06577,2.0,1.0,1,$385_pw,Unit,April 2008,3194,2008,4,MENTONE,385,Apartment
296,"1/21 FLORENCE STREET, MENTONE",-37.982228,145.061056,2.0,1.0,1,$280,Rental_residential,March 2008,3194,2008,3,MENTONE,280,Other
297,"15 / 7 ANDERSON COURT, MENTONE",-37.978762,145.060202,1.0,1.0,1,$200_per_week,none,November 2008,3194,2008,11,MENTONE,200,Other
298,"6 / 8 COMMERCIAL ROAD, MENTONE",-37.985738,145.065634,2.0,1.0,1,$325_pw,none,August 2008,3194,2008,8,MENTONE,325,Other
299,"6 / 8 COMMERCIAL ROAD, MENTONE",-37.985738,145.065634,2.0,1.0,1,$330_pw,none,July 2008,3194,2008,7,MENTONE,330,Other
300,"6 / 8 COMMERCIAL ROAD, MENTONE",-37.985738,145.065634,2.0,1.0,1,$300,none,July 2008,3194,2008,7,MENTONE,300,Other
301,"10/12 COLLINS STREET, MENTONE",-37.979114,145.054773,2.0,1.0,1,$260_pw,Rental_residential,September 2008,3194,2008,9,MENTONE,260,Other
302,"2/9 COLLINS STREET, MENTONE",-37.978979,145.053695,2.0,1.0,2,$265_pw,Rental_residential,May 2008,3194,2008,5,MENTONE,265,Other
303,"3/22 PATTY STREET, MENTONE",-37.977312,145.056972,2.0,1.0,1,$330_pw,Rental_residential,June 2008,3194,2008,6,MENTONE,330,Other
304,"2/22 LATROBE STREET, MENTONE",-37.973998,145.057083,1.0,1.0,1,$200_pw,House,April 2008,3194,2008,4,MENTONE,200,House
305,"2/22 LATROBE STREET, MENTONE",-37.973998,145.057083,1.0,1.0,1,$200,House,March 2008,3194,2008,3,MENTONE,200,House
306,"15/6 ANDERSON COURT, MENTONE",-37.978794,145.060429,1.0,1.0,1,$210,Rental_residential,June 2008,3194,2008,6,MENTONE,210,Other
307,"15/6 ANDERSON COURT, MENTONE",-37.978794,145.060429,1.0,1.0,1,$210,Rental_residential,May 2008,3194,2008,5,MENTONE,210,Other
308,"1/240 BALCOMBE ROAD, MENTONE",-37.980127,145.056648,2.0,1.0,1,$280_per_week,Townhouse,November 2008,3194,2008,11,MENTONE,280,House
309,"5/44 COLLINS STREET, MENTONE",-37.979563,145.058471,3.0,2.0,2,$480_pw,Townhouse,May 2008,3194,2008,5,MENTONE,480,House
310,"22 BLACKHILL ROAD, MENZIES CREEK",-37.9117,145.392251,3.0,1.0,0,$280_per_week,House,October 2008,3159,2008,10,CREEK,280,House
311,"216 SHEOAK AVENUE, MERBEIN SOUTH",-34.243444,142.063989,3.0,1.0,2,$150_per_week,House,July 2008,3505,2008,7,SOUTH,150,House
312,"6 MEAD STREET, MERBEIN",-34.169556,142.068293,2.0,1.0,0,$155,House,April 2008,3505,2008,4,MERBEIN,155,House
313,"4590 MIDLAND HIGHWAY, MEREDITH",-37.832882,144.060659,4.0,1.0,1,$200_p.w.,none,May 2008,3333,2008,5,MEREDITH,200,Other
314,"18 MERCER STREET, MEREDITH",-37.841765,144.075338,2.0,1.0,2,$185,House,February 2008,3333,2008,2,MEREDITH,185,House
315,"51 BOUNDARY ROAD, MEREDITH",-37.826186,144.044756,3.0,1.0,1,$180_p.w.,House,September 2008,3333,2008,9,MEREDITH,180,House
316,"16 ROWANVAL TERRACE, MERNDA",-37.608498,145.081355,3.0,2.0,2,$330,House,March 2008,3754,2008,3,MERNDA,330,House
317,"6 SPRINGFIELD ROAD, MERRICKS",-38.393277,145.083693,3.0,2.0,2,$360_pw,House,July 2008,3916,2008,7,MERRICKS,360,House
318,"15 PEARCE STREET, MERRIGUM",-36.374759,145.133333,3.0,1.0,1,$150_per_week,none,May 2008,3618,2008,5,MERRIGUM,150,Other
319,"17 REDESDALE ROAD, METCALFE EAST",-37.1960209,144.4630717,3.0,1.0,0,$210_pw,none,September 2008,3444,2008,9,EAST,210,Other
320,"419 GOLDFIELDS ROAD, METCALFE",-37.11595,144.4436115,2.0,1.0,0,$220,none,May 2008,3448,2008,5,METCALFE,220,Other
321,"17 REDESDALE ROAD, METCALFE",-37.097945,144.422635,3.0,1.0,0,$210_pw,none,July 2008,3448,2008,7,METCALFE,210,Other
322,"4 WOOD STREET, METUNG",-37.887147,147.853071,3.0,2.0,1,$215_Weekly,none,February 2008,3904,2008,2,METUNG,215,Other
323,"61 VALLEY ROAD, MIA MIA",-37.007665,144.570889,3.0,2.0,2,$200_per_week,House,August 2008,3444,2008,8,MIA,200,House
324,"61 VALLEY ROAD, MIA MIA",-37.007665,144.570889,3.0,2.0,2,$200,House,July 2008,3444,2008,7,MIA,200,House
325,"8 KNIGHTS ROAD, MIA MIA",-37.021876,144.550674,4.0,2.0,0,$250_per_week,House,December 2008,3444,2008,12,MIA,250,House
326,"8 KNIGHTS ROAD, MIA MIA",-37.021876,144.550674,4.0,2.0,0,$260,House,July 2008,3444,2008,7,MIA,260,House
327,"8 KNIGHTS ROAD, MIA MIA",-37.021876,144.550674,4.0,2.0,0,$260_Weekly,House,May 2008,3444,2008,5,MIA,260,House
328,"8 KNIGHTS ROAD, MIA MIA",-37.021876,144.550674,4.0,2.0,0,$260,House,March 2008,3444,2008,3,MIA,260,House
329,"1 WRIGHT STREET, MIDDLE PARK",-37.846157,144.961197,2.0,2.0,0,$495,none,April 2008,3206,2008,4,PARK,495,Other
330,"1/28 PARK ROAD, MIDDLE PARK",-37.853567,144.965505,1.0,1.0,1,$250_pw,none,November 2008,3206,2008,11,PARK,250,Other
331,"64/189 BEACONSFIELD PARADE, MIDDLE PARK",-37.851526,144.956867,1.0,1.0,1,$350_pw,none,March 2008,3206,2008,3,PARK,350,Other
332,"20 NIMMO STREET, MIDDLE PARK",-37.849433,144.962482,3.0,1.0,0,$500_pw,House,August 2008,3206,2008,8,PARK,500,House
333,"20 NIMMO STREET, MIDDLE PARK",-37.849433,144.962482,3.0,1.0,0,$500,House,July 2008,3206,2008,7,PARK,500,House
334,"112 NEVILLE STREET, MIDDLE PARK",-37.850954,144.962638,3.0,2.0,0,$375,Townhouse,June 2008,3206,2008,6,PARK,375,House
335,"112 NEVILLE STREET, MIDDLE PARK",-37.850954,144.962638,3.0,2.0,0,$375,Townhouse,May 2008,3206,2008,5,PARK,375,House
336,"141 RICHARDSON STREET, MIDDLE PARK",-37.847393,144.958163,3.0,1.0,3,$770,House,March 2008,3206,2008,3,PARK,770,House
337,"70 HAMBLETON STREET, MIDDLE PARK",-37.846848,144.959062,3.0,2.0,0,$750_pw,Rental_residential,November 2008,3206,2008,11,PARK,750,Other
338,"250 RICHARDSON STREET, MIDDLE PARK",-37.849735,144.961712,2.0,1.0,0,$600_pw,House,March 2008,3206,2008,3,PARK,600,House
339,"147 NEVILLE STREET, MIDDLE PARK",-37.85161,144.964631,2.0,2.0,1,$525,none,May 2008,3206,2008,5,PARK,525,Other
340,"147 NEVILLE STREET, MIDDLE PARK",-37.85161,144.964631,2.0,2.0,1,$650_pw,none,May 2008,3206,2008,5,PARK,650,Other
341,"147 NEVILLE STREET, MIDDLE PARK",-37.85161,144.964631,2.0,2.0,1,$600,none,May 2008,3206,2008,5,PARK,600,Other
342,"120 NEVILLE STREET, MIDDLE PARK",-37.850954,144.962638,3.0,2.0,0,$390,House,July 2008,3206,2008,7,PARK,390,House
343,"8/61 CANTERBURY ROAD, MIDDLE PARK",-37.847396,144.962504,2.0,1.0,0,$270,none,February 2008,3206,2008,2,PARK,270,Other
344,"12/52 CANTERBURY ROAD, MIDDLE PARK",-37.846601,144.961844,1.0,1.0,1,$250_pw,none,April 2008,3206,2008,4,PARK,250,Other
345,"6/307 RICHARDSON STREET, MIDDLE PARK",-37.852239,144.966849,1.0,1.0,1,$380_per_week,Rental_residential,May 2008,3206,2008,5,PARK,380,Other
346,"4/143 CANTERBURY ROAD, MIDDLE PARK",-37.852192,144.967816,1.0,1.0,1,$240_pw,Rental_residential,July 2008,3206,2008,7,PARK,240,Other
347,"10/187 BEACONSFIELD PARADE, MIDDLE PARK",-37.851255,144.956318,1.0,1.0,1,$320_pw,none,March 2008,3206,2008,3,PARK,320,Other
348,"10/187 BEACONSFIELD PARADE, MIDDLE PARK",-37.851255,144.956318,1.0,1.0,1,$300,none,March 2008,3206,2008,3,PARK,300,Other
349,"81 ERSKINE STREET, MIDDLE PARK",-37.848049,144.960667,3.0,1.0,0,$725_per_week,House,July 2008,3206,2008,7,PARK,725,House
350,"78A CANTERBURY ROAD, MIDDLE PARK",-37.848363,144.96343,1.0,1.0,1,$470_pw,House,February 2008,3206,2008,2,PARK,470,House
351,"78A CANTERBURY ROAD, MIDDLE PARK",-37.848363,144.96343,1.0,1.0,1,$450_Mid,House,February 2008,3206,2008,2,PARK,450,House
352,"4/72 PATTERSON STREET, MIDDLE PARK",-37.85546112,144.96662903,1.0,1.0,1,$250_per_week,Rental_residential,September 2008,3206,2008,9,PARK,250,Other
353,"12 ERSKINE STREET, MIDDLE PARK",-37.847212,144.958544,2.0,1.0,1,$650_pw,none,May 2008,3206,2008,5,PARK,650,Other
354,"33/189 BEACONSFIELD PARADE, MIDDLE PARK",-37.851526,144.956867,2.0,1.0,1,$400,none,March 2008,3206,2008,3,PARK,400,Other
355,"3/288 RICHARDSON STREET, MIDDLE PARK",-37.851153,144.964492,3.0,2.0,0,$670,none,June 2008,3206,2008,6,PARK,670,Other
356,"98 HAROLD STREET, MIDDLE PARK",-37.851294,144.958635,2.0,1.0,0,$560_per_week,House,September 2008,3206,2008,9,PARK,560,House
357,"61 ERSKINE STREET, MIDDLE PARK",-37.847285,144.9592,2.0,1.0,0,$475,none,May 2008,3206,2008,5,PARK,475,Other
358,"230 RICHARDSON STREET, MIDDLE PARK",-37.848858,144.960031,2.0,1.0,0,$800_pw,Rental_residential,November 2008,3206,2008,11,PARK,800,Other
359,"5/187 BEACONSFIELD PARADE, MIDDLE PARK",-37.851255,144.956318,1.0,1.0,1,$375_per_week,none,February 2008,3206,2008,2,PARK,375,Other
360,"2 ERSKINE STREET, MIDDLE PARK",-37.84638,144.95695,2.0,2.0,1,$630_pw,Rental_residential,April 2008,3206,2008,4,PARK,630,Other
361,"4 / 200 BEACONSFIELD PARADE, MIDDLE PARK",-37.851917,144.957617,2.0,1.0,1,$400,none,April 2008,3206,2008,4,PARK,400,Other
362,"4 / 200 BEACONSFIELD PARADE, MIDDLE PARK",-37.851917,144.957617,2.0,1.0,1,$400_pw,none,February 2008,3206,2008,2,PARK,400,Other
363,"368 DANKS STREET, MIDDLE PARK",-37.852826,144.961684,2.0,1.0,0,$550_per_week,House,July 2008,3206,2008,7,PARK,550,House
364,"1/7 FACTORY ROAD, MILAWA",-36.432256,146.434293,2.0,1.0,1,$145_per_week,House,December 2008,3678,2008,12,MILAWA,145,House
365,"46 CHARDONNAY DRIVE, MILAWA",-36.445858,146.435489,3.0,2.0,1,$270_per_week,House,July 2008,3678,2008,7,MILAWA,270,House
366,"46 CHARDONNAY DRIVE, MILAWA",-36.445858,146.435489,3.0,2.0,1,$270_per_week,House,June 2008,3678,2008,6,MILAWA,270,House
367,"18 PETRUCCI WAY, MILDURA",-34.173061,142.140946,4.0,2.0,2,$300_pw,House,May 2008,3500,2008,5,MILDURA,300,House
368,"18 PETRUCCI WAY, MILDURA",-34.173061,142.140946,4.0,2.0,2,$310,House,May 2008,3500,2008,5,MILDURA,310,House
369,"1/1 ASHWOOD COURT, MILDURA",-34.194605,142.136449,3.0,2.0,1,$200_per_week,Townhouse,March 2008,3500,2008,3,MILDURA,200,House
370,"14 TARELLA COURT, MILDURA",-34.168144,142.151057,3.0,1.0,4,$210,Rental_residential,February 2008,3500,2008,2,MILDURA,210,Other
371,"2/3 EILEEN STREET, MILDURA",-34.206123,142.138747,2.0,1.0,1,$130_pw,none,May 2008,3500,2008,5,MILDURA,130,Other
372,"2/3 EILEEN STREET, MILDURA",-34.206123,142.138747,2.0,1.0,1,$130,none,January 2008,3500,2008,1,MILDURA,130,Other
373,"68 EAGLESHAM STREET, MILDURA",-34.198158,142.158619,3.0,1.0,2,$200,House,May 2008,3500,2008,5,MILDURA,200,House
374,"825 FOURTEENTH STREET, MILDURA",-34.199116,142.147699,3.0,1.0,2,$185,House,March 2008,3500,2008,3,MILDURA,185,House
375,"12 PANORAMA DRIVE, MILDURA",-34.2007,142.126763,3.0,1.0,2,$190_pw,Rental_residential,December 2008,3500,2008,12,MILDURA,190,Other
376,"12 PANORAMA DRIVE, MILDURA",-34.2007,142.126763,3.0,1.0,2,$190_pw,Rental_residential,July 2008,3500,2008,7,MILDURA,190,Other
377,"5 AIDEN WAY, MILDURA",-34.171733,142.141175,3.0,2.0,2,$240,Available Now,May 2008,3500,2008,5,MILDURA,240,Other
378,"537 WALNUT AVENUE, MILDURA",-34.20245,142.13154,3.0,2.0,2,$265_per_week,Rental_residential,October 2008,3500,2008,10,MILDURA,265,Other
379,"2/168 THIRTEENTH STREET, MILDURA",-34.189094,142.150133,2.0,1.0,1,$190_per_week,Rental_residential,January 2008,3500,2008,1,MILDURA,190,Other
380,"134 ORANGE AVENUE, MILDURA",-34.190324,142.160935,3.0,2.0,2,$160,none,January 2008,3500,2008,1,MILDURA,160,Other
381,"7 WATTLE AVENUE, MILDURA",-34.189466,142.152734,3.0,2.0,2,$225_per_week,Townhouse,March 2008,3500,2008,3,MILDURA,225,House
382,"16/471 SAN MATEO AVENUE, MILDURA",-34.210768,142.141635,2.0,1.0,1,$150_per_week,House,October 2008,3500,2008,10,MILDURA,150,House
383,"3/267 CURETON AVENUE, MILDURA",-34.191174,142.176707,2.0,1.0,1,$180,Townhouse,February 2008,3500,2008,2,MILDURA,180,House
384,"5/189 DEAKIN AVENUE, MILDURA",-34.190251,142.155316,2.0,1.0,1,$155_per_week,House,April 2008,3500,2008,4,MILDURA,155,House
385,"5/189 DEAKIN AVENUE, MILDURA",-34.190251,142.155316,2.0,1.0,1,$155_per_week,House,March 2008,3500,2008,3,MILDURA,155,House
386,"4/225 WOODHAM AVENUE, MILDURA",-34.193944,142.153472,2.0,1.0,1,$140,House,September 2008,3500,2008,9,MILDURA,140,House
387,"15/257 NINTH STREET, MILDURA",-34.175816,142.147684,3.0,1.0,2,$220,Townhouse,July 2008,3500,2008,7,MILDURA,220,House
388,"4/216 ELEVENTH STREET, MILDURA",-34.191819,142.160455,2.0,1.0,2,$145_Weekly,House,May 2008,3500,2008,5,MILDURA,145,House
389,"4/216 ELEVENTH STREET, MILDURA",-34.191819,142.160455,2.0,1.0,2,$145_Weekly,House,April 2008,3500,2008,4,MILDURA,145,House
390,"1 BATEY CRESCENT, MILDURA",-34.209522,142.145074,3.0,1.0,2,$200,House,November 2008,3500,2008,11,MILDURA,200,House
391,"1 BATEY CRESCENT, MILDURA",-34.209522,142.145074,3.0,1.0,2,$200,House,October 2008,3500,2008,10,MILDURA,200,House
392,"1/256 SEVENTH STREET, MILDURA",-34.173839,142.153326,2.0,1.0,1,$165,House,December 2008,3500,2008,12,MILDURA,165,House
393,"53 MAGNOLIA AVENUE, MILDURA",-34.188759,142.166144,4.0,2.0,2,$175_per_week,House,October 2008,3500,2008,10,MILDURA,175,House
394,"42 SEVENTH STREET, MILDURA",-34.189769,142.171985,3.0,1.0,2,$190_pw,Rental_residential,November 2008,3500,2008,11,MILDURA,190,Other
395,"807 FOURTEENTH STREET, MILDURA",-34.19999724,142.1487525,3.0,2.0,2,$170,House,June 2008,3500,2008,6,MILDURA,170,House
396,"46 SEVENTH STREET, MILDURA",-34.189374,142.171867,4.0,1.0,1,$150_pw,House,July 2008,3500,2008,7,MILDURA,150,House
397,"18 BEASY COURT, MILDURA",-34.191089,142.139956,3.0,1.0,2,$195,none,April 2008,3500,2008,4,MILDURA,195,Other
398,"1/111 ONTARIO AVENUE, MILDURA",-34.178878,142.14975,2.0,1.0,0,$120_pw,Available Now,January 2008,3500,2008,1,MILDURA,120,Other
399,"4/287 CURETON AVENUE, MILDURA",-34.190155,142.175308,1.0,1.0,1,$525_Weekly,Rental_residential,July 2008,3500,2008,7,MILDURA,525,Other
400,"4/287 CURETON AVENUE, MILDURA",-34.190155,142.175308,1.0,1.0,1,$525_Weekly,Rental_residential,March 2008,3500,2008,3,MILDURA,525,Other
401,"1/2 DIAMOND COURT, MILDURA",-34.201843,142.133766,2.0,1.0,2,$180_pw,Rental_residential,November 2008,3500,2008,11,MILDURA,180,Other
402,"1/2 DIAMOND COURT, MILDURA",-34.201843,142.133766,2.0,1.0,2,$180_pw,Rental_residential,August 2008,3500,2008,8,MILDURA,180,Other
403,"1/2 DIAMOND COURT, MILDURA",-34.201843,142.133766,2.0,1.0,2,$180,Rental_residential,January 2008,3500,2008,1,MILDURA,180,Other
404,"91 TWELFTH STREET, MILDURA",-34.194538,142.159402,2.0,1.0,1,$165,Townhouse,July 2008,3500,2008,7,MILDURA,165,House
405,"14 DORRINGTON COURT, MILL PARK",-37.653151,145.042648,3.0,1.0,4,$260_pw,none,April 2008,3082,2008,4,PARK,260,Other
406,"4 BURNETT COURT, MILL PARK",-37.659915,145.062071,3.0,2.0,1,$270_pw,none,February 2008,3082,2008,2,PARK,270,Other
407,"52 BUCKMASTER DRIVE, MILL PARK",-37.668874,145.068685,3.0,2.0,2,$325_Weekly,Rental_residential,August 2008,3082,2008,8,PARK,325,Other
408,"23 CARBON CRESCENT, MILL PARK",-37.66325,145.039753,5.0,2.0,2,$470,none,July 2008,3082,2008,7,PARK,470,Other
409,"13 AZALEA AVENUE, MILL PARK",-37.67321,145.07372,3.0,2.0,1,$280_p.w.,House,August 2008,3082,2008,8,PARK,280,House
410,"13 AZALEA AVENUE, MILL PARK",-37.67321,145.07372,3.0,2.0,1,$280,House,July 2008,3082,2008,7,PARK,280,House
411,"3 KIERNAN CLOSE, MILL PARK",-37.650749,145.062898,3.0,1.0,2,$280,House,July 2008,3082,2008,7,PARK,280,House
412,"28 THE SEEKERS CRESCENT, MILL PARK",-37.652052,145.062383,3.0,2.0,1,$250,Townhouse,March 2008,3082,2008,3,PARK,250,House
413,"72 STOCKDALE WAY, MILL PARK",-37.665451,145.084293,3.0,2.0,2,$320,Rental_residential,February 2008,3082,2008,2,PARK,320,Other
414,"1/28 BUICK CRESCENT, MILL PARK",-37.654569,145.06992,2.0,1.0,1,$240,none,May 2008,3082,2008,5,PARK,240,Other
415,"161 ROYCROFT AVENUE, MILL PARK",-37.673156,145.049061,3.0,2.0,2,$350,none,May 2008,3082,2008,5,PARK,350,Other
416,"104 MILL PARK DRIVE, MILL PARK",-37.675182,145.060426,4.0,2.0,2,$330,House,August 2008,3082,2008,8,PARK,330,House
417,"8 PATRICK STREET, MILLGROVE",-37.747237,145.660372,3.0,2.0,2,$195_pw,Rental_residential,October 2008,3799,2008,10,MILLGROVE,195,Other
418,"9 PAMELA COURT, MILLGROVE",-37.75045,145.660813,2.0,1.0,1,$180_pw,House,September 2008,3799,2008,9,MILLGROVE,180,House
419,"66 WANDANA DRIVE, WANDANA HEIGHTS",-38.177104,144.305372,4.0,2.0,2,$450_pw,House,December 2008,3216,2008,12,HEIGHTS,450,House
420,"47B SUNDERLAND ROAD, WANDANA HEIGHTS",-38.176249,144.30285,3.0,2.0,1,$350,Townhouse,February 2008,3216,2008,2,HEIGHTS,350,House
421,"47B SUNDERLAND ROAD, WANDANA HEIGHTS",-38.176249,144.30285,3.0,2.0,1,$350_pw,Townhouse,January 2008,3216,2008,1,HEIGHTS,350,House
422,"46 SUNDERLAND ROAD, WANDANA HEIGHTS",-38.176322,144.302299,3.0,2.0,2,$500_per_week,Rental_residential,February 2008,3216,2008,2,HEIGHTS,500,Other
423,"543 MORSES CREEK RD, WANDILIGONG",-36.774945,146.982856,3.0,1.0,1,$275_per_week,none,June 2008,3744,2008,6,WANDILIGONG,275,Other
424,"543 MORSES CREEK RD, WANDILIGONG",-36.774945,146.982856,3.0,1.0,1,$275_per_week,none,May 2008,3744,2008,5,WANDILIGONG,275,Other
425,"LOT 2/54 PARKER ROAD, WANDIN EAST",-37.82321,145.450158,3.0,1.0,0,$275_pw,House,December 2008,3139,2008,12,EAST,275,House
426,"LOT 2/54 PARKER ROAD, WANDIN EAST",-37.82321,145.450158,3.0,1.0,0,$270_pw,House,November 2008,3139,2008,11,EAST,270,House
427,"10 MARY STREET, WANDIN",-37.785899,145.431878,3.0,1.0,2,$350_p.w.,House,October 2008,3139,2008,10,WANDIN,350,House
428,"19 DRY CREEK CRESCENT, WANDONG",-37.358954,145.030162,2.0,1.0,2,$210_Weekly,none,September 2008,3758,2008,9,WANDONG,210,Other
429,"233 WANGANDARY ROAD, WANGANDARY",-36.334224,146.269305,4.0,2.0,0,$350_per_week,none,January 2008,3678,2008,1,WANGANDARY,350,Other
430,"2/24 WILLIAMS ROAD, WANGARATTA",-36.346317,146.30334,2.0,1.0,1,$185_p.w,House,June 2008,3677,2008,6,WANGARATTA,185,House
431,"37 GRAHAM AVENUE, WANGARATTA",-36.365578,146.322793,4.0,2.0,2,$320_pw,House,June 2008,3677,2008,6,WANGARATTA,320,House
432,"37 GRAHAM AVENUE, WANGARATTA",-36.365578,146.322793,4.0,2.0,2,$320_pw,House,May 2008,3677,2008,5,WANGARATTA,320,House
433,"4/64 NORTON STREET, WANGARATTA",-36.354379,146.318667,2.0,1.0,1,$145_per_week,Unit,April 2008,3677,2008,4,WANGARATTA,145,Apartment
434,"86 APPIN STREET, WANGARATTA",-36.348911,146.299957,2.0,1.0,1,$180_per_week,House,February 2008,3677,2008,2,WANGARATTA,180,House
435,"1/155 PHILLIPSON STREET, WANGARATTA",-36.343379,146.30708,2.0,1.0,1,$150_per_week,Unit,March 2008,3677,2008,3,WANGARATTA,150,Apartment
436,"2/64 SISELY AVENUE, WANGARATTA",-36.359078,146.30108,3.0,1.0,2,$260_per_week,Townhouse,August 2008,3677,2008,8,WANGARATTA,260,House
437,"1/17 LOGAN DRIVE, WANGARATTA",-36.334911,146.306869,3.0,2.0,1,$260_Weekly,Townhouse,April 2008,3677,2008,4,WANGARATTA,260,House
438,"55A MURPHY STREET, WANGARATTA",-36.355529,146.325929,3.0,1.0,1,$170_per_week,Unit,January 2008,3677,2008,1,WANGARATTA,170,Apartment
439,"3/81 MURDOCH ROAD, WANGARATTA",-36.369955,146.323462,2.0,1.0,1,$120,none,July 2008,3677,2008,7,WANGARATTA,120,Other
440,"43 TEMPLETON STREET, WANGARATTA",-36.35172,146.322094,3.0,1.0,2,$210,Rental_residential,January 2008,3677,2008,1,WANGARATTA,210,Other
441,"6 THOMAS WEDGE DRIVE, WANGARATTA",-36.380181,146.324119,4.0,2.0,2,$225_per_week,House,January 2008,3677,2008,1,WANGARATTA,225,House
442,"74 TONE ROAD, WANGARATTA",-36.366812,146.296627,3.0,2.0,1,$200_pw,House,March 2008,3677,2008,3,WANGARATTA,200,House
443,"23 WILLIAMS ROAD, WANGARATTA",-36.34693,146.30324,3.0,1.0,1,$200,House,March 2008,3677,2008,3,WANGARATTA,200,House
444,"9 MORAN COURT, WANGARATTA",-36.34173,146.306872,4.0,2.0,2,$230_pw,Rental_residential,June 2008,3677,2008,6,WANGARATTA,230,Other
445,"9 SCOTT STREET, WANGARATTA",-36.352052,146.294638,4.0,2.0,2,$245,House,July 2008,3677,2008,7,WANGARATTA,245,House
446,"5/23 GREEN STREET, WANGARATTA",-36.35619,146.313355,2.0,1.0,1,$135_per_week,House,February 2008,3677,2008,2,WANGARATTA,135,House
447,"4 / 17 EVANS STREET, WANGARATTA",-36.348436,146.315421,2.0,1.0,1,$210,none,March 2008,3677,2008,3,WANGARATTA,210,Other
448,"4 / 17 EVANS STREET, WANGARATTA",-36.348436,146.315421,2.0,1.0,1,$190,none,March 2008,3677,2008,3,WANGARATTA,190,Other
449,"8 DOCKER STREET, WANGARATTA",-36.354649,146.322133,3.0,1.0,1,$250,House,July 2008,3677,2008,7,WANGARATTA,250,House
450,"8 DOCKER STREET, WANGARATTA",-36.354649,146.322133,3.0,1.0,1,$250,House,February 2008,3677,2008,2,WANGARATTA,250,House
451,"4/80 ROWAN STREET, WANGARATTA",-36.351402,146.316691,1.0,1.0,1,$135_p.w,none,June 2008,3677,2008,6,WANGARATTA,135,Other
452,"93 SWAN STREET, WANGARATTA",-36.351421,146.31032,3.0,1.0,1,$220_per_week,House,February 2008,3677,2008,2,WANGARATTA,220,House
453,"13 BRODIE STREET, WANGARATTA",-36.350158,146.304463,3.0,1.0,1,$220_per_week,none,November 2008,3677,2008,11,WANGARATTA,220,Other
454,"9 MOORE STREET, WANGARATTA",-36.360414,146.319372,2.0,1.0,4,$225,none,February 2008,3677,2008,2,WANGARATTA,225,Other
455,"26 MURDOCH ROAD, WANGARATTA",-36.364822,146.323771,3.0,1.0,2,$250,none,May 2008,3677,2008,5,WANGARATTA,250,Other
456,"3 WARRAWEE ROAD, WANTIRNA SOUTH",-37.85881,145.244729,4.0,2.0,2,$480_p.w.,House,December 2008,3152,2008,12,SOUTH,480,House
457,"10 KENSINGTON PLACE, WANTIRNA SOUTH",-37.873997,145.232043,4.0,3.0,2,$495_p.w.,House,October 2008,3152,2008,10,SOUTH,495,House
458,"3 APLIN PLACE, WANTIRNA SOUTH",-37.885394,145.22238,4.0,2.0,2,$450,none,November 2008,3152,2008,11,SOUTH,450,Other
459,"3 APLIN PLACE, WANTIRNA SOUTH",-37.885394,145.22238,4.0,2.0,2,$450_Weekly,none,October 2008,3152,2008,10,SOUTH,450,Other
460,"9 HAWKSBURN CRESCENT, WANTIRNA SOUTH",-37.876398,145.234864,4.0,2.0,4,$340,House,February 2008,3152,2008,2,SOUTH,340,House
461,"32/3 ASHLEY STREET, WANTIRNA",-37.845945,145.225851,2.0,2.0,2,$305,Available Now,June 2008,3152,2008,6,WANTIRNA,305,Other
462,"48 BRENTWOOD DRIVE, WANTIRNA",-37.858525,145.238269,4.0,2.0,4,$380_per_week,House,June 2008,3152,2008,6,WANTIRNA,380,House
463,"48 BRENTWOOD DRIVE, WANTIRNA",-37.858525,145.238269,4.0,2.0,4,$380_pw,House,May 2008,3152,2008,5,WANTIRNA,380,House
464,"9 ALDERFORD DRIVE, WANTIRNA",-37.861595,145.238082,3.0,2.0,2,$320_pw,House,February 2008,3152,2008,2,WANTIRNA,320,House
465,"14 ALDERFORD DRIVE, WANTIRNA",-37.861841,145.237655,3.0,1.0,1,$275_pw,House,January 2008,3152,2008,1,WANTIRNA,275,House
466,"3 NOTTINGHAM SQUARE, WANTIRNA",-37.856924,145.233658,3.0,2.0,2,$310,House,September 2008,3152,2008,9,WANTIRNA,310,House
467,"3 NOTTINGHAM SQUARE, WANTIRNA",-37.856924,145.233658,3.0,2.0,2,$310,House,August 2008,3152,2008,8,WANTIRNA,310,House
468,"3 NOTTINGHAM SQUARE, WANTIRNA",-37.856924,145.233658,3.0,2.0,2,$320_pw,House,August 2008,3152,2008,8,WANTIRNA,320,House
469,"3 NOTTINGHAM SQUARE, WANTIRNA",-37.856924,145.233658,3.0,2.0,2,$310,House,July 2008,3152,2008,7,WANTIRNA,310,House
470,"6/765 BORONIA ROAD, WANTIRNA",-37.845756,145.22145,3.0,2.0,2,$350,Townhouse,May 2008,3152,2008,5,WANTIRNA,350,House
471,"43 DAMMANS ROAD, WARBURTON",-37.752295,145.692642,4.0,2.0,1,$275_pw,Rental_residential,January 2008,3799,2008,1,WARBURTON,275,Other
472,"3/72 RUTHERFORD PARADE, WARNEET",-38.222092,145.31018,2.0,1.0,1,$165,Unit,December 2008,3980,2008,12,WARNEET,165,Apartment
473,"3/72 RUTHERFORD PARADE, WARNEET",-38.222092,145.31018,2.0,1.0,1,$165,Unit,November 2008,3980,2008,11,WARNEET,165,Apartment
474,"21 ELIMATTA STREET, WARNEET",-38.223531,145.311837,1.0,1.0,2,$170_per_week,House,August 2008,3980,2008,8,WARNEET,170,House
475,"21 ELIMATTA STREET, WARNEET",-38.223531,145.311837,1.0,1.0,2,$170,House,July 2008,3980,2008,7,WARNEET,170,House
476,"16 RUTHERFORD PARADE, WARNEET",-38.226868,145.307671,3.0,2.0,2,$320_per_week,House,August 2008,3980,2008,8,WARNEET,320,House
477,"16 RUTHERFORD PARADE, WARNEET",-38.226868,145.307671,3.0,2.0,2,$320_per_week,House,July 2008,3980,2008,7,WARNEET,320,House
479,"16 RUTHERFORD PARADE, WARNEET",-38.226868,145.307671,3.0,2.0,2,$320,House,February 2008,3980,2008,2,WARNEET,320,House
480,"28 BRANDY CREEK ROAD, WARRAGUL",-38.150027,145.935957,3.0,1.0,1,$190_per_week,none,January 2008,3820,2008,1,WARRAGUL,190,Other
481,"106 STODDARTS ROAD, WARRAGUL",-38.149078,145.947961,4.0,2.0,2,$270_per_week,House,June 2008,3820,2008,6,WARRAGUL,270,House
482,"4 DALLAS COURT, WARRAGUL",-38.145431,145.949869,3.0,1.0,2,$260_per_week,House,July 2008,3820,2008,7,WARRAGUL,260,House
483,"3/1 WEST END ROAD, WARRANDYTE",-37.745512,145.205428,2.0,1.0,1,$260_pw,Unit,March 2008,3113,2008,3,WARRANDYTE,260,Apartment
484,"26A MULLENS ROAD, WARRANDYTE",-37.740248,145.227356,4.0,2.0,2,$275,House,April 2008,3113,2008,4,WARRANDYTE,275,House
485,"212 WONGA ROAD, WARRANWOOD",-37.777791,145.249886,2.0,1.0,2,$270_per_week,none,November 2008,3134,2008,11,WARRANWOOD,270,Other
486,"14 PENSHURST PLACE, WARRANWOOD",-37.77029,145.253046,4.0,2.0,2,$425_pw,Rental_residential,December 2008,3134,2008,12,WARRANWOOD,425,Other
487,"16 DORRINGTONS ROAD, WARRENHEIP",-37.56885228,143.92650844,4.0,2.0,4,$270,House,June 2008,3352,2008,6,WARRENHEIP,270,House
488,"9555 CRAIGS ROAD, WARRENHEIP",-37.5753822,143.9237313,5.0,2.0,3,$550_pw,none,May 2008,3352,2008,5,WARRENHEIP,550,Other
489,"9555 CRAIGS ROAD, WARRENHEIP",-37.5753822,143.9237313,5.0,2.0,3,$550,none,April 2008,3352,2008,4,WARRENHEIP,550,Other
490,"41 TENNIS COURT ROAD, WARRENHEIP",-37.576546,143.929097,3.0,1.0,2,$220_pw,none,March 2008,3352,2008,3,WARRENHEIP,220,Other
491,"605 CORAGULAC-BEEAC ROAD, WARRION",-38.224328,143.570164,3.0,2.0,2,$185_pw,none,December 2008,3249,2008,12,WARRION,185,Other
492,"19 / 30 HOPETOUN ROAD, WARRNAMBOOL",-38.368316,142.474671,2.0,1.0,1,$125_pw,none,August 2008,3280,2008,8,WARRNAMBOOL,125,Other
493,"4 DERBY STREET, WARRNAMBOOL",-38.385928,142.504141,3.0,1.0,1,$245_pw,House,August 2008,3280,2008,8,WARRNAMBOOL,245,House
494,"11 RONGOA DRIVE, WARRNAMBOOL",-38.361178,142.456885,2.0,1.0,1,$240_Weekly,none,August 2008,3280,2008,8,WARRNAMBOOL,240,Other
495,"1/330 RAGLAN PARADE, WARRNAMBOOL",-38.385742,142.505153,2.0,1.0,2,$230_p.w.,House,March 2008,3280,2008,3,WARRNAMBOOL,230,House
496,"1/5 NELSON STREET, WARRNAMBOOL",-38.378095,142.492039,1.0,1.0,1,$135_p.w.,Rental_residential,January 2008,3280,2008,1,WARRNAMBOOL,135,Other
497,"6 TOWER SQUARE, WARRNAMBOOL",-38.38689875,142.51788926,4.0,2.0,3,$280_Weekly,Rental_residential,July 2008,3280,2008,7,WARRNAMBOOL,280,Other
498,"4 STEVEN STREET, WATERFORD PARK",-37.299715,145.067375,3.0,2.0,2,$265_p.w.,House,October 2008,3658,2008,10,PARK,265,House
499,"56 MEAKIN STREET, WATSONIA NORTH",-37.699953,145.088352,3.0,1.0,2,$320_p.w.,House,May 2008,3087,2008,5,NORTH,320,House
500,"56 MEAKIN STREET, WATSONIA NORTH",-37.699953,145.088352,3.0,1.0,2,$320,House,April 2008,3087,2008,4,NORTH,320,House
501,"110 MCCURDY RD, GHERINGHAP",-38.0791387,144.2131498,3.0,1.0,1,$220,House,June 2008,3331,2008,6,GHERINGHAP,220,House
502,"36 CHURCH STREET, GIRGARRE",-36.394073,144.979398,3.0,1.0,1,$150,House,June 2008,3624,2008,6,GIRGARRE,150,House
503,"19 OLYMPIC STREET, GIRGARRE",-36.394892,144.97916,3.0,1.0,1,$150_per_week,House,November 2008,3624,2008,11,GIRGARRE,150,House
504,"19 OLYMPIC STREET, GIRGARRE",-36.394892,144.97916,3.0,1.0,1,$150,House,April 2008,3624,2008,4,GIRGARRE,150,House
505,"316 MILLETS ROAD, GISBORNE SOUTH",-37.556773,144.646631,4.0,2.0,4,$520_pw,House,May 2008,3437,2008,5,SOUTH,520,House
506,"316 MILLETS ROAD, GISBORNE SOUTH",-37.556773,144.646631,4.0,2.0,4,$520_pw,House,April 2008,3437,2008,4,SOUTH,520,House
507,"55 MILLETTS ROAD, GISBORNE SOUTH",-37.558163,144.652076,4.0,2.0,0,$300_pw,House,September 2008,3437,2008,9,SOUTH,300,House
508,"4/30 PRINCE STREET, GISBORNE",-37.488451,144.587464,2.0,1.0,1,$210_Weekly,House,February 2008,3437,2008,2,GISBORNE,210,House
509,"3/49 BRANTOME STREET, GISBORNE",-37.488782,144.590204,3.0,2.0,2,$270_pw,House,June 2008,3437,2008,6,GISBORNE,270,House
510,"3/49 BRANTOME STREET, GISBORNE",-37.488782,144.590204,3.0,2.0,2,$270,House,May 2008,3437,2008,5,GISBORNE,270,House
511,"19 STATION ROAD, GISBORNE",-37.48233,144.591432,3.0,1.0,3,$250_per_week,Rental_residential,April 2008,3437,2008,4,GISBORNE,250,Other
512,"19 STATION ROAD, GISBORNE",-37.48233,144.591432,3.0,1.0,3,$240_Weekly,Rental_residential,April 2008,3437,2008,4,GISBORNE,240,Other
513,"19 STATION ROAD, GISBORNE",-37.48233,144.591432,3.0,1.0,3,$250_pw,Rental_residential,January 2008,3437,2008,1,GISBORNE,250,Other
514,"2/4 MORROW ROAD, GISBORNE",-37.475589,144.593425,2.0,1.0,1,$240_pw,none,August 2008,3437,2008,8,GISBORNE,240,Other
515,"27 DUNFIELD DRIVE, GLADSTONE PARK",-37.686147,144.895315,3.0,1.0,3,$235,House,February 2008,3043,2008,2,PARK,235,House
516,"15 CLAREDALE AVENUE, GLADSTONE PARK",-37.682146,144.893818,3.0,1.0,2,$270_per_week,House,December 2008,3043,2008,12,PARK,270,House
517,"1/14 GABRIELLE CRESCENT, GLADSTONE PARK",-37.697205,144.896851,3.0,1.0,1,$240_per_week,Rental_residential,November 2008,3043,2008,11,PARK,240,Other
518,"245 CARRICK DRIVE, GLADSTONE PARK",-37.686416,144.898267,4.0,2.0,1,$250_pw,Rental_residential,February 2008,3043,2008,2,PARK,250,Other
519,"44 WOODSTOCK DRIVE, GLADSTONE PARK",-37.690533,144.88461,3.0,1.0,2,$280_Weekly,House,November 2008,3043,2008,11,PARK,280,House
520,"44 WOODSTOCK DRIVE, GLADSTONE PARK",-37.690533,144.88461,3.0,1.0,2,$280_Weekly,House,October 2008,3043,2008,10,PARK,280,House
521,"11 PAYNE STREET, GLADSTONE PARK",-37.686438,144.885373,3.0,1.0,1,$280_Weekly,House,November 2008,3043,2008,11,PARK,280,House
522,"11 PAYNE STREET, GLADSTONE PARK",-37.686438,144.885373,3.0,1.0,1,$280_Weekly,House,October 2008,3043,2008,10,PARK,280,House
523,"11 PAYNE STREET, GLADSTONE PARK",-37.686438,144.885373,3.0,1.0,1,$280,House,May 2008,3043,2008,5,PARK,280,House
524,"0 ELLIS TRACK, GLADYSDALE",-37.823809,145.66613,1.0,1.0,1,$185_pw,House,November 2008,3797,2008,11,GLADYSDALE,185,House
525,"145 PAYNE ROAD, GLEN ALVIE",-38.501749,145.634447,2.0,1.0,4,$195,none,April 2008,3979,2008,4,ALVIE,195,Other
526,"160/115 NEERIM ROAD, GLEN HUNTLY",-37.886764,145.042038,2.0,1.0,0,$380,none,July 2008,3163,2008,7,HUNTLY,380,Other
527,"13/2 ROSEDALE AVENUE, GLEN HUNTLY",-37.890842,145.043169,1.0,1.0,1,$210_pw,none,June 2008,3163,2008,6,HUNTLY,210,Other
528,"2/11 ROTHSCHILD STREET, GLEN HUNTLY",-37.890577,145.03815,2.0,1.0,1,$300_pw,Rental_residential,October 2008,3163,2008,10,HUNTLY,300,Other
529,"167/115 NEERIM ROAD, GLEN HUNTLY",-37.886764,145.042038,2.0,1.0,1,$380_pw,none,May 2008,3163,2008,5,HUNTLY,380,Other
530,"3/127 GRANGE ROAD, GLEN HUNTLY",-37.890564,145.044893,1.0,1.0,1,$240_pw,Rental_residential,August 2008,3163,2008,8,HUNTLY,240,Other
531,"135/115 NEERIM ROAD, GLEN HUNTLY",-37.886939,145.042125,1.0,1.0,1,$320,none,May 2008,3163,2008,5,HUNTLY,320,Other
532,"17 HUNTLY STREET, GLEN HUNTLY",-37.888769,145.042884,3.0,1.0,1,$420_pw,Townhouse,September 2008,3163,2008,9,HUNTLY,420,House
533,"143/115 NEERIM ROAD, GLEN HUNTLY",-37.886764,145.042038,2.0,1.0,1,$380_pw,Rental_residential,May 2008,3163,2008,5,HUNTLY,380,Other
534,"2/1223 GLENHUNTLY ROAD, GLEN HUNTLY",-37.889527,145.044491,3.0,1.0,0,$280,Available Now,December 2008,3163,2008,12,HUNTLY,280,Other
535,"2/1223 GLENHUNTLY ROAD, GLEN HUNTLY",-37.889527,145.044491,3.0,1.0,0,$280,Available Now,November 2008,3163,2008,11,HUNTLY,280,Other
536,"100/115 NEERIM ROAD, GLEN HUNTLY",-37.886764,145.042038,2.0,1.0,1,$360_pw,Unit,January 2008,3163,2008,1,HUNTLY,360,Apartment
537,"3/16 ROYAL AVENUE, GLEN HUNTLY",-37.891358,145.04228,2.0,1.0,1,$267_pw,Available Now,August 2008,3163,2008,8,HUNTLY,267,Other
538,"16/1083-1089 GLEN HUNTLY ROAD, GLEN HUNTLY",-37.888579,145.039075,1.0,1.0,1,$300_pw,none,November 2008,3163,2008,11,HUNTLY,300,Other
539,"8/12 ROSEBERRY GROVE, GLEN HUNTLY",-37.888037,145.039832,2.0,1.0,1,$320_pw,none,July 2008,3163,2008,7,HUNTLY,320,Other
540,"8/12 ROSEBERRY GROVE, GLEN HUNTLY",-37.888037,145.039832,2.0,1.0,1,$320,none,June 2008,3163,2008,6,HUNTLY,320,Other
541,"3/115 NEERIM ROAD, GLEN HUNTLY",-37.886764,145.042038,2.0,1.0,1,$360_pw,Rental_residential,January 2008,3163,2008,1,HUNTLY,360,Other
542,"9/15 ROYAL AVENUE, GLEN HUNTLY",-37.890338,145.042594,2.0,1.0,1,$290_pw,none,May 2008,3163,2008,5,HUNTLY,290,Other
543,"15 AINTREE ROAD, GLEN IRIS",-37.856979,145.043417,1.0,1.0,1,$260_pw,House,April 2008,3146,2008,4,IRIS,260,House
544,"15 AINTREE ROAD, GLEN IRIS",-37.856979,145.043417,1.0,1.0,1,$260_pw,House,March 2008,3146,2008,3,IRIS,260,House
545,"1667-1669 MALVERN ROAD, GLEN IRIS",-37.856271,145.054506,5.0,2.0,6,$695,House,April 2008,3146,2008,4,IRIS,695,House
546,"3/23 GARDINER PARADE, GLEN IRIS",-37.853793,145.063743,2.0,1.0,1,$320,none,March 2008,3146,2008,3,IRIS,320,Other
547,"5/304 TOORONGA ROAD, GLEN IRIS",-37.851826,145.042624,2.0,1.0,1,$355_pw,Available Now,March 2008,3146,2008,3,IRIS,355,Other
548,"5/304 TOORONGA ROAD, GLEN IRIS",-37.851826,145.042624,2.0,1.0,1,$355,Available Now,February 2008,3146,2008,2,IRIS,355,Other
549,"7/1555 HIGH STREET, GLEN IRIS",-37.859815,145.060153,1.0,1.0,1,$230_pw,none,September 2008,3146,2008,9,IRIS,230,Other
550,"6 DUNDAS STREET, GLEN IRIS",-37.853794,145.090385,3.0,2.0,1,$390_pw,none,January 2008,3146,2008,1,IRIS,390,Other
551,"7/304 TOORONGA ROAD, GLEN IRIS",-37.851826,145.042624,2.0,1.0,1,$325_pw,Rental_residential,September 2008,3146,2008,9,IRIS,325,Other
552,"1/21 OSBORNE AVENUE, GLEN IRIS",-37.856233,145.046584,3.0,3.0,1,$480_pw,Townhouse,September 2008,3146,2008,9,IRIS,480,House
553,"3/12 BELMONT AVENUE, GLEN IRIS",-37.857628,145.048333,1.0,1.0,1,$200_pw,Rental_residential,January 2008,3146,2008,1,IRIS,200,Other
554,"2/18 EDGAR STREET, GLEN IRIS",-37.856579,145.04536,2.0,1.0,2,$350_pw,Rental_residential,October 2008,3146,2008,10,IRIS,350,Other
555,"21 RIX STREET, GLEN IRIS",-37.846888,145.051886,2.0,1.0,1,$375,Available Now,June 2008,3146,2008,6,IRIS,375,Other
556,"8/46 SCOTT GROVE, GLEN IRIS",-37.85461426,145.050354,2.0,1.0,1,$315_pw,none,June 2008,3146,2008,6,IRIS,315,Other
557,"4/39 OSBORNE AVENUE, GLEN IRIS",-37.854684,145.046887,1.0,1.0,1,$250_pw,Rental_residential,October 2008,3146,2008,10,IRIS,250,Other
558,"3/1483 HIGH STREET, GLEN IRIS",-37.859516,145.053788,2.0,1.0,1,$500,Available Now,December 2008,3146,2008,12,IRIS,500,Other
559,"4/4 MAVERSTON STREET, GLEN IRIS",-37.851673,145.077802,2.0,1.0,1,$280_per_week,Rental_residential,May 2008,3146,2008,5,IRIS,280,Other
560,"2/35 CARROLL CRESCENT, GLEN IRIS",-37.851071,145.04669,1.0,1.0,1,$240_pw,none,July 2008,3146,2008,7,IRIS,240,Other
561,"15 WEBB STREET, GLEN IRIS",-37.848619,145.067073,3.0,1.0,2,$400_per_week,none,November 2008,3146,2008,11,IRIS,400,Other
562,"15 WEBB STREET, GLEN IRIS",-37.848619,145.067073,3.0,1.0,2,$380_per_week,none,November 2008,3146,2008,11,IRIS,380,Other
563,"15 WEBB STREET, GLEN IRIS",-37.848619,145.067073,3.0,1.0,2,$350_per_week,none,November 2008,3146,2008,11,IRIS,350,Other
564,"1 / 28 QUEENS PARADE, GLEN IRIS",-37.85246,145.092056,3.0,1.0,1,$320_per_week,Unit,May 2008,3146,2008,5,IRIS,320,Apartment
565,"12/37 OSBORNE AVENUE, GLEN IRIS",-37.855063,145.046941,1.0,1.0,1,$200,Rental_residential,February 2008,3146,2008,2,IRIS,200,Other
566,"12/37 OSBORNE AVENUE, GLEN IRIS",-37.855063,145.046941,1.0,1.0,1,$200_pw,Rental_residential,January 2008,3146,2008,1,IRIS,200,Other
567,"9A LITHGOW STREET, GLEN IRIS",-37.850125,145.081979,2.0,1.0,1,$450_pw,House,May 2008,3146,2008,5,IRIS,450,House
568,"9/6 OSBORNE AVENUE, GLEN IRIS",-37.8578,145.046737,2.0,1.0,1,$315_pw,Rental_residential,April 2008,3146,2008,4,IRIS,315,Other
569,"9/6 OSBORNE AVENUE, GLEN IRIS",-37.8578,145.046737,2.0,1.0,1,$315,Rental_residential,March 2008,3146,2008,3,IRIS,315,Other
570,"4/1483 HIGH STREET, GLEN IRIS",-37.859516,145.053788,2.0,1.0,1,$410,none,March 2008,3146,2008,3,IRIS,410,Other
571,"7 TAWONGA COURT, GLEN WAVERLEY",-37.868192,145.152902,3.0,2.0,2,$350_pw,none,May 2008,3150,2008,5,WAVERLEY,350,Other
572,"4/24 TULLOCH GROVE, GLEN WAVERLEY",-37.899307,145.151354,3.0,2.0,2,$480_pw,Townhouse,October 2008,3150,2008,10,WAVERLEY,480,House
573,"13 WOODLEA DRIVE, GLEN WAVERLEY",-37.90147,145.157313,3.0,1.0,1,$320_per_week,House,January 2008,3150,2008,1,WAVERLEY,320,House
574,"13 WOODLEA DRIVE, GLEN WAVERLEY",-37.90147,145.157313,3.0,1.0,1,$330_pw,House,January 2008,3150,2008,1,WAVERLEY,330,House
575,"8/3-7 EVELYN STREET, GLEN WAVERLEY",-37.880037,145.166714,3.0,1.0,1,$350_pw,Rental_residential,April 2008,3150,2008,4,WAVERLEY,350,Other
576,"18 BRIGHTON STREET, GLEN WAVERLEY",-37.872417,145.174158,3.0,1.0,1,$350_pw,House,March 2008,3150,2008,3,WAVERLEY,350,House
577,"1/9 RICHARD STREET, GLEN WAVERLEY",-37.88705,145.16305,3.0,1.0,1,$280_pw,House,June 2008,3150,2008,6,WAVERLEY,280,House
578,"2 CAIRN GROVE, GLEN WAVERLEY",-37.87383,145.184526,4.0,2.0,2,$420_pw,House,July 2008,3150,2008,7,WAVERLEY,420,House
579,"20 CLIFFORD STREET, GLEN WAVERLEY",-37.878054,145.169221,3.0,2.0,1,$450_per_week,House,December 2008,3150,2008,12,WAVERLEY,450,House
580,"20 CLIFFORD STREET, GLEN WAVERLEY",-37.878054,145.169221,3.0,2.0,1,$400_per_week,House,July 2008,3150,2008,7,WAVERLEY,400,House
581,"20 CLIFFORD STREET, GLEN WAVERLEY",-37.878054,145.169221,3.0,2.0,1,$450,House,July 2008,3150,2008,7,WAVERLEY,450,House
582,"10 BELMONT ROAD, GLEN WAVERLEY",-37.861799,145.158415,3.0,1.0,1,$350_Weekly,House,December 2008,3150,2008,12,WAVERLEY,350,House
583,"4 HIGHVALE ROAD, GLEN WAVERLEY",-37.862198,145.167829,3.0,2.0,2,$365_pw,House,July 2008,3150,2008,7,WAVERLEY,365,House
584,"4 HIGHVALE ROAD, GLEN WAVERLEY",-37.862198,145.167829,3.0,2.0,2,$380_pw,House,July 2008,3150,2008,7,WAVERLEY,380,House
585,"66 FRASER STREET, GLEN WAVERLEY",-37.895557,145.157779,3.0,1.0,2,$350,House,September 2008,3150,2008,9,WAVERLEY,350,House
586,"16 BEACON STREET, GLEN WAVERLEY",-37.885812,145.163946,3.0,1.0,1,$320_pw,House,September 2008,3150,2008,9,WAVERLEY,320,House
587,"14 CLIFFORD STREET, GLEN WAVERLEY",-37.877988,145.168438,3.0,2.0,2,$400_pw,House,January 2008,3150,2008,1,WAVERLEY,400,House
588,"12 CYPRESS AVENUE, GLEN WAVERLEY",-37.862985,145.151872,3.0,2.0,1,$400,House,December 2008,3150,2008,12,WAVERLEY,400,House
589,"12 CYPRESS AVENUE, GLEN WAVERLEY",-37.862985,145.151872,3.0,2.0,1,$400,House,October 2008,3150,2008,10,WAVERLEY,400,House
590,"10 JOHN STREET, GLEN WAVERLEY",-37.876107,145.151272,3.0,1.0,2,$310,House,August 2008,3150,2008,8,WAVERLEY,310,House
591,"10 JOHN STREET, GLEN WAVERLEY",-37.876107,145.151272,3.0,1.0,2,$310,House,July 2008,3150,2008,7,WAVERLEY,310,House
592,"14 COOLABAH AVENUE, GLEN WAVERLEY",-37.900975,145.156734,3.0,1.0,2,$330,House,May 2008,3150,2008,5,WAVERLEY,330,House
593,"14 COOLABAH AVENUE, GLEN WAVERLEY",-37.900975,145.156734,3.0,1.0,2,$315_per_week,House,May 2008,3150,2008,5,WAVERLEY,315,House
594,"80B BOGONG AVENUE, GLEN WAVERLEY",-37.8843625,145.1562005,4.0,3.0,2,$400_pw,House,August 2008,3150,2008,8,WAVERLEY,400,House
595,"67 AVONHURST DRIVE, GLEN WAVERLEY",-37.900103,145.149431,3.0,1.0,2,$290_pw,House,May 2008,3150,2008,5,WAVERLEY,290,House
596,"5 MAY COURT, GLEN WAVERLEY",-37.89618,145.150676,4.0,3.0,2,$520_pw,House,September 2008,3150,2008,9,WAVERLEY,520,House
597,"5 MAY COURT, GLEN WAVERLEY",-37.89618,145.150676,4.0,3.0,2,$520_pw,House,August 2008,3150,2008,8,WAVERLEY,520,House
598,"4 CRESTMONT DRIVE, GLEN WAVERLEY",-37.881875,145.179121,4.0,2.0,2,$500_pw,none,October 2008,3150,2008,10,WAVERLEY,500,Other
599,"580 THE BRIDLE TRACK, GLENAROUA",-37.06050265,144.95975841,4.0,1.0,2,$330_Weekly,House,November 2008,3764,2008,11,GLENAROUA,330,House
600,"1280 'WOODLANDS' COTTAGE, GLENAROUA",-37.111242,144.9502551,2.0,1.0,1,$130_Weekly,House,January 2008,3764,2008,1,GLENAROUA,130,House
601,"580 BRIDLE TRACK, GLENAROUA",-37.061329,144.957797,4.0,1.0,2,$330_Weekly,none,November 2008,3764,2008,11,GLENAROUA,330,Other
602,"550 BREAK O'DAY ROAD, GLENBURN",-37.399986,145.369322,3.0,1.0,2,$220_per_week,none,October 2008,3717,2008,10,GLENBURN,220,Other
603,"110 BREAKODAY ROAD, GLENBURN",-37.421773,145.411922,3.0,1.0,2,$210,House,May 2008,3717,2008,5,GLENBURN,210,House
604,"11A HODGKINSON STREET, BENDIGO",-36.759363,144.293131,2.0,1.0,1,$220,House,February 2008,3550,2008,2,BENDIGO,220,House
605,"86 FOREST STREET, BENDIGO",-36.756669,144.273492,2.0,1.0,4,$200_pw,House,January 2008,3550,2008,1,BENDIGO,200,House
606,"16 CASLEY STREET, BENDIGO",-36.749741,144.262432,3.0,1.0,1,$235_per_week,House,October 2008,3550,2008,10,BENDIGO,235,House
607,"16 CASLEY STREET, BENDIGO",-36.749741,144.262432,3.0,1.0,1,$230_per_week,House,April 2008,3550,2008,4,BENDIGO,230,House
608,"123 TAMBET STREET, BENTLEIGH EAST",-37.908844,145.072481,3.0,1.0,1,$350_per_week,none,May 2008,3165,2008,5,EAST,350,Other
609,"9 ELWYN STREET, BENTLEIGH EAST",-37.910769,145.05637,5.0,2.0,3,$525_pw,Rental_residential,February 2008,3165,2008,2,EAST,525,Other
610,"2/120 MARLBOROUGH STREET, BENTLEIGH EAST",-37.908442,145.069393,4.0,2.0,2,$495_pw,House,August 2008,3165,2008,8,EAST,495,House
611,"2/120 MARLBOROUGH STREET, BENTLEIGH EAST",-37.908442,145.069393,4.0,2.0,2,$530_pw,House,July 2008,3165,2008,7,EAST,530,House
612,"124A MACKIE ROAD, BENTLEIGH EAST",-37.911294,145.076072,3.0,2.0,1,$400_Weekly,House,August 2008,3165,2008,8,EAST,400,House
613,"124A MACKIE ROAD, BENTLEIGH EAST",-37.911294,145.076072,3.0,2.0,1,$400_Weekly,House,July 2008,3165,2008,7,EAST,400,House
614,"124A MACKIE ROAD, BENTLEIGH EAST",-37.911294,145.076072,3.0,2.0,1,$430_Weekly,House,July 2008,3165,2008,7,EAST,430,House
615,"124A MACKIE ROAD, BENTLEIGH EAST",-37.911294,145.076072,3.0,2.0,1,$450_Weekly,House,July 2008,3165,2008,7,EAST,450,House
616,"1/9A ARGYLE STREET, BENTLEIGH EAST",-37.91064453,145.07124329,2.0,1.0,1,$275_Weekly,none,February 2008,3165,2008,2,EAST,275,Other
617,"28 WATT STREET, BENTLEIGH EAST",-37.907834,145.070252,3.0,2.0,1,$590_p.w.,House,September 2008,3165,2008,9,EAST,590,House
618,"607 SOUTH ROAD, BENTLEIGH EAST",-37.934791,145.051289,3.0,1.0,3,$395_pw,House,April 2008,3165,2008,4,EAST,395,House
619,"1/7 SCANLAN STREET, BENTLEIGH EAST",-37.936887,145.06961,2.0,1.0,2,$380_pw,Rental_residential,May 2008,3165,2008,5,EAST,380,Other
620,"1/7 SCANLAN STREET, BENTLEIGH EAST",-37.936887,145.06961,2.0,1.0,2,$390_pw,Rental_residential,April 2008,3165,2008,4,EAST,390,Other
621,"1/7 SCANLAN STREET, BENTLEIGH EAST",-37.936887,145.06961,2.0,1.0,2,$400_pw,Rental_residential,March 2008,3165,2008,3,EAST,400,Other
622,"1/7 SCANLAN STREET, BENTLEIGH EAST",-37.936887,145.06961,2.0,1.0,2,$400,Rental_residential,February 2008,3165,2008,2,EAST,400,Other
623,"4/54 HILL STREET, BENTLEIGH EAST",-37.922353,145.060991,2.0,1.0,1,$230_pw,Rental_residential,January 2008,3165,2008,1,EAST,230,Other
624,"14 ROWLAND STREET, BENTLEIGH EAST",-37.934546,145.059897,2.0,1.0,1,$295_pw,none,March 2008,3165,2008,3,EAST,295,Other
625,"18 LILAC STREET, BENTLEIGH EAST",-37.917745,145.057551,4.0,3.0,2,$300_pw,Available Now,May 2008,3165,2008,5,EAST,300,Other
626,"3 BEDDOE AVENUE, BENTLEIGH EAST",-37.917943,145.065134,2.0,1.0,1,$300_pw,Rental_residential,December 2008,3165,2008,12,EAST,300,Other
627,"3 BEDDOE AVENUE, BENTLEIGH EAST",-37.917943,145.065134,2.0,1.0,1,$300_pw,Rental_residential,October 2008,3165,2008,10,EAST,300,Other
628,"62 HILL STREET, BENTLEIGH EAST",-37.921737,145.061137,3.0,2.0,1,$600_pw,Townhouse,September 2008,3165,2008,9,EAST,600,House
629,"6/121 TUCKER ROAD, BENTLEIGH",-37.923866,145.050053,2.0,1.0,1,$280_pw,none,June 2008,3204,2008,6,BENTLEIGH,280,Other
630,"3/1 BLAIR STREET, BENTLEIGH",-37.91467,145.034822,3.0,1.0,1,$400,Rental_residential,April 2008,3204,2008,4,BENTLEIGH,400,Other
631,"8 / 12 CUSHING AVENUE, BENTLEIGH",-37.918002,145.045304,2.0,1.0,1,$220_Weekly,none,February 2008,3204,2008,2,BENTLEIGH,220,Other
632,"8 / 12 CUSHING AVENUE, BENTLEIGH",-37.918002,145.045304,2.0,1.0,1,$220_Weekly,none,January 2008,3204,2008,1,BENTLEIGH,220,Other
633,"1/210 PATTERSON ROAD, BENTLEIGH",-37.927022,145.0457,3.0,2.0,2,$450_pw,House,October 2008,3204,2008,10,BENTLEIGH,450,House
634,"1/32 BUCKINGHAM AVENUE, BENTLEIGH",-37.917745,145.050419,2.0,1.0,1,$370,Unit,May 2008,3204,2008,5,BENTLEIGH,370,Apartment
635,"6/12 CUSHING AVENUE, BENTLEIGH",-37.918002,145.045304,2.0,1.0,2,$220,Rental_residential,February 2008,3204,2008,2,BENTLEIGH,220,Other
636,"3 BRODRIBB STREET, BENTLEIGH",-37.92711,145.031488,2.0,1.0,2,$325_pw,House,February 2008,3204,2008,2,BENTLEIGH,325,House
637,"17 LUCKINS ROAD, BENTLEIGH",-37.931596,145.045536,3.0,1.0,2,$440_per_week,none,July 2008,3204,2008,7,BENTLEIGH,440,Other
638,"17 LUCKINS ROAD, BENTLEIGH",-37.931596,145.045536,3.0,1.0,2,$425_per_week,none,July 2008,3204,2008,7,BENTLEIGH,425,Other
639,"18 ATKINSON STREET, BENTLEIGH",-37.928332,145.037875,4.0,2.0,2,$395,Rental_residential,March 2008,3204,2008,3,BENTLEIGH,395,Other
640,"2/46 NORTH AVENUE, BENTLEIGH",-37.927974,145.034788,3.0,2.0,2,$420_pw,House,April 2008,3204,2008,4,BENTLEIGH,420,House
641,"1/14 HUTCHINSON STREET, BENTLEIGH",-37.923988,145.047247,3.0,2.0,2,$600_pw,none,May 2008,3204,2008,5,BENTLEIGH,600,Other
642,"8/207 CENTRE ROAD, BENTLEIGH",-37.9168129,145.02645874,2.0,1.0,1,$265_pw,Rental_residential,January 2008,3204,2008,1,BENTLEIGH,265,Other
643,"3/9 LYDIA STREET, BENTLEIGH",-37.919157,145.049641,2.0,2.0,1,$325,Rental_residential,February 2008,3204,2008,2,BENTLEIGH,325,Other
644,"320 BERRYS CREEK ROAD, BERRYS CREEK",-38.422156,146.09903,3.0,1.0,4,$170_pw,House,September 2008,3953,2008,9,CREEK,170,House
645,"2/103 HIGH STREET, BERWICK",-38.032347,145.350333,3.0,2.0,2,$320_per_week,Townhouse,February 2008,3806,2008,2,BERWICK,320,House
646,"77 HANCOCK DRIVE, BERWICK",-38.045706,145.328072,3.0,2.0,2,$280_Weekly,House,February 2008,3806,2008,2,BERWICK,280,House
647,"11 HOLLINGTON WAY, BERWICK",-38.060688,145.359697,3.0,2.0,2,$285_per_week,House,January 2008,3806,2008,1,BERWICK,285,House
648,"1 HOWITT COURT, BERWICK",-38.02383,145.32452,4.0,2.0,2,$250,House,January 2008,3806,2008,1,BERWICK,250,House
649,"1/12 MARYN CLOSE, BERWICK",-38.026813,145.330931,3.0,1.0,1,$230,Unit,February 2008,3806,2008,2,BERWICK,230,Apartment
650,"1/12 MARYN CLOSE, BERWICK",-38.026813,145.330931,3.0,1.0,1,$230_pw,Unit,January 2008,3806,2008,1,BERWICK,230,Apartment
651,"47-49 CASERTA DRIVE, BERWICK",-38.013989,145.337878,4.0,2.0,2,$366_per_week,House,February 2008,3806,2008,2,BERWICK,366,House
652,"47-49 CASERTA DRIVE, BERWICK",-38.013989,145.337878,4.0,2.0,2,$400_per_week,House,February 2008,3806,2008,2,BERWICK,400,House
653,"1/6 ELGIN STREET, BERWICK",-38.033341,145.355196,3.0,2.0,2,$320_per_week,Unit,April 2008,3806,2008,4,BERWICK,320,Apartment
654,"41A LYALL ROAD, BERWICK",-38.02737427,145.34841919,3.0,2.0,1,$260_per_week,House,February 2008,3806,2008,2,BERWICK,260,House
655,"41A LYALL ROAD, BERWICK",-38.02737427,145.34841919,3.0,2.0,1,$250,House,February 2008,3806,2008,2,BERWICK,250,House
656,"119 MELZAK WAY, BERWICK",-38.041075,145.325043,3.0,2.0,2,$280_per_week,Townhouse,November 2008,3806,2008,11,BERWICK,280,House
657,"119 MELZAK WAY, BERWICK",-38.041075,145.325043,3.0,2.0,2,$280,Townhouse,May 2008,3806,2008,5,BERWICK,280,House
658,"4 MCNABB STREET, BERWICK",-38.029335,145.344423,4.0,2.0,2,$380_per_week,House,November 2008,3806,2008,11,BERWICK,380,House
659,"2 EZARD CLOSE, BERWICK",-38.03047,145.328869,4.0,2.0,2,$370_pw,House,April 2008,3806,2008,4,BERWICK,370,House
660,"139 AVEBURY DRIVE, BERWICK",-38.024607,145.324708,3.0,1.0,1,$245,House,April 2008,3806,2008,4,BERWICK,245,House
661,"14 HIGHVALE CRESCENT, BERWICK",-38.066565,145.340875,4.0,2.0,2,$380_per_week,Rental_residential,September 2008,3806,2008,9,BERWICK,380,Other
662,"123 MELZAK WAY, BERWICK",-38.041054,145.32486,3.0,2.0,2,$300,Rental_residential,April 2008,3806,2008,4,BERWICK,300,Other
663,"5 KURNWILL PLACE, BERWICK",-38.045221,145.330235,4.0,2.0,2,$360_Weekly,House,December 2008,3806,2008,12,BERWICK,360,House
664,"3/20 INGLIS ROAD, BERWICK",-38.025324,145.357582,2.0,2.0,2,$255_per_week,none,October 2008,3806,2008,10,BERWICK,255,Other
665,"10/40-44 WARRAWONG DRIVE, BERWICK",-38.01566696,145.32609558,3.0,2.0,1,$245_per_week,Townhouse,January 2008,3806,2008,1,BERWICK,245,House
666,"10/40-44 WARRAWONG DRIVE, BERWICK",-38.01566696,145.32609558,3.0,2.0,1,$235,Townhouse,January 2008,3806,2008,1,BERWICK,235,House
667,"2/7-9 RESERVE STREET, BERWICK",-38.035824,145.34431,3.0,2.0,1,$295_Weekly,House,October 2008,3806,2008,10,BERWICK,295,House
668,"8 WARRAWONG DRIVE, BERWICK",-38.017254,145.324101,3.0,2.0,2,$285,Rental_residential,April 2008,3806,2008,4,BERWICK,285,Other
669,"8 WARRAWONG DRIVE, BERWICK",-38.017254,145.324101,3.0,2.0,2,$285_pw,Rental_residential,March 2008,3806,2008,3,BERWICK,285,Other
670,"11 GIFFORD CLOSE, BERWICK",-38.051006,145.345247,3.0,1.0,4,$260_per_week,House,July 2008,3806,2008,7,BERWICK,260,House
671,"11 GIFFORD CLOSE, BERWICK",-38.051006,145.345247,3.0,1.0,4,$240,House,July 2008,3806,2008,7,BERWICK,240,House
672,"1/125 MANSFIELD STREET, BERWICK",-38.032737,145.328378,2.0,1.0,1,$260,Rental_residential,March 2008,3806,2008,3,BERWICK,260,Other
673,"5 BENNY PLACE, BERWICK",-38.055798,145.335531,3.0,2.0,2,$300_per_week,none,April 2008,3806,2008,4,BERWICK,300,Other
674,"50 COLLINS CRESCENT, BERWICK",-38.0342,145.328169,3.0,1.0,0,$230_per_week,House,November 2008,3806,2008,11,BERWICK,230,House
675,"2/12 LYALL ROAD, BERWICK",-38.02721,145.349051,4.0,2.0,3,$345_pw,Rental_residential,February 2008,3806,2008,2,BERWICK,345,Other
676,"2/12 LYALL ROAD, BERWICK",-38.02721,145.349051,4.0,2.0,3,$330,Rental_residential,February 2008,3806,2008,2,BERWICK,330,Other
677,"4/3 NEILL STREET, BERWICK",-38.03683472,145.35961914,1.0,1.0,1,$160_pw,Rental_residential,March 2008,3806,2008,3,BERWICK,160,Other
678,"3 RIDGEMONT DRIVE, BERWICK",-38.063839,145.33953,4.0,2.0,2,$330,House,April 2008,3806,2008,4,BERWICK,330,House
679,"3 RIDGEMONT DRIVE, BERWICK",-38.063839,145.33953,4.0,2.0,2,$370_Weekly,House,April 2008,3806,2008,4,BERWICK,370,House
680,"1068 MARYBOROUGH-DUNOLLY ROAD, BET BET",-36.9319557,143.7590214,3.0,1.0,0,$240,none,November 2008,3472,2008,11,BET,240,Other
681,"27 YONSON LANE, BETHANGA",-36.115227,147.07588,5.0,2.0,0,$285,House,May 2008,3691,2008,5,BETHANGA,285,House
682,"27 YONSON LANE, BETHANGA",-36.115227,147.07588,5.0,2.0,0,$285,House,April 2008,3691,2008,4,BETHANGA,285,House
683,"12 BROOME STREET, BETHANGA",-36.12369,147.093369,4.0,2.0,2,$250,House,March 2008,3691,2008,3,BETHANGA,250,House
684,"3 BANFIELD STREET, BETHANGA",-36.122449,147.098032,2.0,1.0,1,$170,House,March 2008,3691,2008,3,BETHANGA,170,House
685,"95 SPRINGDALE ROAD, BETHANGA",-36.12782034,147.1064991,4.0,2.0,2,$280_Weekly,House,January 2008,3691,2008,1,BETHANGA,280,House
686,"20 RAY ROAD, BEVERFORD",-35.240834,143.478581,3.0,1.0,2,$180_pw,House,July 2008,3589,2008,7,BEVERFORD,180,House
687,"1712 MURRAY VALLEY HIGHWAY, BEVERFORD",-35.2214268,143.4575309,4.0,2.0,1,$180_pw,House,December 2008,3589,2008,12,BEVERFORD,180,House
688,"272 SPEEWA PUNT ROAD, BEVERFORD",-35.22045,143.51447,3.0,1.0,3,$170_pw,House,April 2008,3589,2008,4,BEVERFORD,170,House
689,"1 CORNER COTTMAN & CATTON ROAD, BEVERFORD",-35.255359,143.479921,3.0,1.0,0,$160_pw,House,February 2008,3589,2008,2,BEVERFORD,160,House
690,"454A MCEDWARD STREET, BIRDWOODTON",-34.203883,142.068501,2.0,1.0,1,$125,House,May 2008,3505,2008,5,BIRDWOODTON,125,House
691,"45 BEAL STREET, BIRREGURRA",-38.338767,143.78834,3.0,1.0,2,$210_pw,none,June 2008,3242,2008,6,BIRREGURRA,210,Other
692,"61 SKENE STREET, BIRREGURRA",-38.338677,143.781903,3.0,1.0,2,$210_per_week,House,June 2008,3242,2008,6,BIRREGURRA,210,House
693,"61 SKENE STREET, BIRREGURRA",-38.338677,143.781903,3.0,1.0,2,$220,House,June 2008,3242,2008,6,BIRREGURRA,220,House
694,"61 SKENE STREET, BIRREGURRA",-38.338677,143.781903,3.0,1.0,2,$220_per_week,House,March 2008,3242,2008,3,BIRREGURRA,220,House
695,"7/603 PEEL STREET NORTH, BLACK HILL",-37.548047,143.866547,1.0,1.0,1,$110_pw,Rental_residential,July 2008,3350,2008,7,HILL,110,Other
696,"6/1 KARRAKATTA STREET, BLACK ROCK",-37.974267,145.01659,2.0,1.0,1,$360_pw,Unit,February 2008,3193,2008,2,ROCK,360,Apartment
697,"1 GLENMORE CRESCENT, BLACK ROCK",-37.97183,145.013619,3.0,3.0,1,$850_pw,Rental_residential,January 2008,3193,2008,1,ROCK,850,Other
699,"1/57 BLUFF ROAD, BLACK ROCK",-37.97189713,145.01631165,2.0,1.0,1,$325_pw,Rental_residential,February 2008,3193,2008,2,ROCK,325,Other
700,"1/57 BLUFF ROAD, BLACK ROCK",-37.97189713,145.01631165,2.0,1.0,1,$325_pw,Rental_residential,January 2008,3193,2008,1,ROCK,325,Other
701,"5A GORDON CRESCENT, BLACK ROCK",-37.972488,145.014873,4.0,3.0,2,$1100_pw,House,September 2008,3193,2008,9,ROCK,1100,House
704,"4 ELIZA STREET, BLACK ROCK",-37.964608,145.012892,3.0,2.0,2,$650,Rental_residential,February 2008,3193,2008,2,ROCK,650,Other
705,"4 ELIZA STREET, BLACK ROCK",-37.964608,145.012892,3.0,2.0,2,$750_pw,Rental_residential,January 2008,3193,2008,1,ROCK,750,Other
706,"2/17 CENTRAL AVENUE, BLACK ROCK",-37.978699,145.021743,2.0,1.0,1,$320_pw,none,March 2008,3193,2008,3,ROCK,320,Other
707,"14/82-86 BLUFF ROAD, BLACK ROCK",-37.970659,145.017373,2.0,2.0,2,$410_pw,Rental_residential,June 2008,3193,2008,6,ROCK,410,Other
708,"14/82-86 BLUFF ROAD, BLACK ROCK",-37.970659,145.017373,2.0,2.0,2,$410,Rental_residential,May 2008,3193,2008,5,ROCK,410,Other
709,"3/24 MIDDLETON STREET, BLACK ROCK",-37.967528,145.014836,3.0,2.0,2,$550_pw,none,June 2008,3193,2008,6,ROCK,550,Other
710,"10/1 KARRAKATTA STREET, BLACK ROCK",-37.974581,145.017923,1.0,1.0,1,$280_per_week,Rental_residential,September 2008,3193,2008,9,ROCK,280,Other
711,"2/19 POTTER STREET, BLACK ROCK",-37.963348,145.015078,2.0,1.0,1,$370,none,July 2008,3193,2008,7,ROCK,370,Other
712,"1/8 BLUFF ROAD, BLACK ROCK",-37.975195,145.016433,2.0,2.0,1,$480_pw,none,May 2008,3193,2008,5,ROCK,480,Other
713,"1/8 BLUFF ROAD, BLACK ROCK",-37.975195,145.016433,2.0,2.0,1,$480_pw,none,April 2008,3193,2008,4,ROCK,480,Other
714,"36 MARCHIORI ROAD, BLACKBURN NORTH",-37.810568,145.163767,3.0,2.0,1,$400_pw,House,October 2008,3130,2008,10,NORTH,400,House
715,"4/115 SURREY ROAD, BLACKBURN NORTH",-37.810167,145.158085,2.0,1.0,1,$280_per_week,Rental_residential,July 2008,3130,2008,7,NORTH,280,Other
716,"4/115 SURREY ROAD, BLACKBURN NORTH",-37.810167,145.158085,2.0,1.0,1,$380,Rental_residential,June 2008,3130,2008,6,NORTH,380,Other
717,"1 HANDLEY COURT, BLACKBURN NORTH",-37.80611,145.162208,3.0,1.0,2,$340_per_week,House,July 2008,3130,2008,7,NORTH,340,House
718,"12 DIANA DRIVE, BLACKBURN NORTH",-37.808533,145.163261,3.0,1.0,2,$380,House,January 2008,3130,2008,1,NORTH,380,House
719,"61 MORRIE CRESCENT, BLACKBURN NORTH",-37.804862,145.146939,3.0,1.0,1,$370,none,May 2008,3130,2008,5,NORTH,370,Other
720,"2/13 HARROW STREET, BLACKBURN SOUTH",-37.842594,145.14004,3.0,2.0,2,$400_pw,none,November 2008,3130,2008,11,SOUTH,400,Other
721,"273 BLACKBURN ROAD, BLACKBURN SOUTH",-37.844667,145.154909,3.0,2.0,2,$420,House,May 2008,3130,2008,5,SOUTH,420,House
722,"273 BLACKBURN ROAD, BLACKBURN SOUTH",-37.844667,145.154909,3.0,2.0,2,$420_p.w.,House,February 2008,3130,2008,2,SOUTH,420,House
723,"1B DUNDEE STREET, BLACKBURN SOUTH",-37.834965,145.136323,2.0,1.0,1,$350,Rental_residential,September 2008,3130,2008,9,SOUTH,350,Other
724,"3 RICHMOND STREET, BLACKBURN SOUTH",-37.842661,145.138015,3.0,1.0,1,$310_pw,none,November 2008,3130,2008,11,SOUTH,310,Other
725,"3 RICHMOND STREET, BLACKBURN SOUTH",-37.842661,145.138015,3.0,1.0,1,$330_pw,none,September 2008,3130,2008,9,SOUTH,330,Other
726,"1/21 BARATTA STREET, BLACKBURN SOUTH",-37.837531,145.141231,3.0,1.0,2,$350_pw,none,August 2008,3130,2008,8,SOUTH,350,Other
727,"1/21 BARATTA STREET, BLACKBURN SOUTH",-37.837531,145.141231,3.0,1.0,2,$350,none,July 2008,3130,2008,7,SOUTH,350,Other
728,"1/21 BARATTA STREET, BLACKBURN SOUTH",-37.837531,145.141231,3.0,1.0,2,$370_pw,none,April 2008,3130,2008,4,SOUTH,370,Other
729,"1/21 BARATTA STREET, BLACKBURN SOUTH",-37.837531,145.141231,3.0,1.0,2,$370,none,March 2008,3130,2008,3,SOUTH,370,Other
730,"50 SHAWLANDS AVENUE, BLACKBURN SOUTH",-37.836394,145.1509,3.0,2.0,2,$380_pw,Rental_residential,July 2008,3130,2008,7,SOUTH,380,Other
731,"50 SHAWLANDS AVENUE, BLACKBURN SOUTH",-37.836394,145.1509,3.0,2.0,2,$380,Rental_residential,June 2008,3130,2008,6,SOUTH,380,Other
732,"2/374 MIDDLEBOROUGH ROAD, BLACKBURN",-37.821597,145.138014,1.0,1.0,1,$260_pw,Rental_residential,March 2008,3130,2008,3,BLACKBURN,260,Other
733,"3/410 MIDDLEBOROUGH ROAD, BLACKBURN",-37.818225,145.139841,3.0,2.0,1,$320,Rental_residential,March 2008,3130,2008,3,BLACKBURN,320,Other
734,"7/171 SURREY ROAD, BLACKBURN",-37.815748,145.156871,2.0,1.0,1,$315_pw,Townhouse,October 2008,3130,2008,10,BLACKBURN,315,House
735,"7/171 SURREY ROAD, BLACKBURN",-37.815748,145.156871,2.0,1.0,1,$320_pw,Townhouse,September 2008,3130,2008,9,BLACKBURN,320,House
736,"5 CROMWELL COURT, BLACKBURN",-37.822458,145.165324,3.0,1.0,2,$300,House,February 2008,3130,2008,2,BLACKBURN,300,House
737,"28 LINDEN STREET, BLACKBURN",-37.816983,145.161915,2.0,1.0,1,$380_p.w.,House,November 2008,3130,2008,11,BLACKBURN,380,House
738,"54 WILLIAM STREET, ABBOTSFORD",-37.807827,144.997747,4.0,2.0,2,$550_pw,none,November 2008,3067,2008,11,ABBOTSFORD,550,Other
739,"103 CHARLES STREET, ABBOTSFORD",-37.80581,144.994996,1.0,1.0,0,$360_pw,House,November 2008,3067,2008,11,ABBOTSFORD,360,House
740,"103 CHARLES STREET, ABBOTSFORD",-37.80581,144.994996,1.0,1.0,0,$320_pw,House,October 2008,3067,2008,10,ABBOTSFORD,320,House
741,"103 CHARLES STREET, ABBOTSFORD",-37.80581,144.994996,1.0,1.0,0,$360_pw,House,May 2008,3067,2008,5,ABBOTSFORD,360,House
743,"17 ALLAN STREET, ABERFELDIE",-37.760729,144.893815,4.0,3.0,3,$420_pw,Rental_residential,April 2008,3040,2008,4,ABERFELDIE,420,Other
744,"18 GREAT OCEAN ROAD, AIREYS INLET",-38.457716,144.107408,4.0,2.0,4,$340,House,June 2008,3231,2008,6,INLET,340,House
746,"1/44 YORK STREET, AIRPORT WEST",-37.726116,144.886832,2.0,1.0,1,$230,Villa,May 2008,3042,2008,5,WEST,230,House
747,"1/44 YORK STREET, AIRPORT WEST",-37.726116,144.886832,2.0,1.0,1,$230,Villa,April 2008,3042,2008,4,WEST,230,House
748,"25 THOMAS STREET, AIRPORT WEST",-37.719228,144.876766,2.0,2.0,2,$290_pw,House,July 2008,3042,2008,7,WEST,290,House
749,"25 THOMAS STREET, AIRPORT WEST",-37.719228,144.876766,2.0,2.0,2,$290_pw,House,June 2008,3042,2008,6,WEST,290,House
750,"4/12 LAURENCE AVENUE, AIRPORT WEST",-37.728859,144.878999,2.0,1.0,1,$330_pw,Rental_residential,August 2008,3042,2008,8,WEST,330,Other
751,"4/12 LAURENCE AVENUE, AIRPORT WEST",-37.728859,144.878999,2.0,1.0,1,$330,Rental_residential,July 2008,3042,2008,7,WEST,330,Other
752,"10 HIGHRIDGE CRESCENT, AIRPORT WEST",-37.727432,144.881847,3.0,1.0,1,$290_per_week,House,November 2008,3042,2008,11,WEST,290,House
753,"14 HARRINGTON ROAD, AIRPORT WEST",-37.723853,144.872759,3.0,2.0,2,$300_pw,House,February 2008,3042,2008,2,WEST,300,House
754,"14 HARRINGTON ROAD, AIRPORT WEST",-37.723853,144.872759,3.0,2.0,2,$350_pw,House,February 2008,3042,2008,2,WEST,350,House
755,"2/48 MOORNA DRIVE, AIRPORT WEST",-37.72528,144.868304,3.0,1.0,1,$380_per_week,Townhouse,October 2008,3042,2008,10,WEST,380,House
756,"2/61 PARER ROAD, AIRPORT WEST",-37.720019,144.88534,3.0,1.0,1,$290_per_week,none,September 2008,3042,2008,9,WEST,290,Other
757,"33 CAMELOT DRIVE, ALBANVALE",-37.742322,144.778267,3.0,1.0,4,$310,Rental_residential,October 2008,3021,2008,10,ALBANVALE,310,Other
758,"18 FINLAY STREET, ALBERT PARK",-37.84327,144.955776,2.0,1.0,0,$400_pw,Rental_residential,July 2008,3206,2008,7,PARK,400,Other
759,"74 VICTORIA AVENUE, ALBERT PARK",-37.845901,144.949965,2.0,1.0,0,$560_per_week,Rental_residential,April 2008,3206,2008,4,PARK,560,Other
760,"89 GRAHAM STREET, ALBERT PARK",-37.844811,144.949052,2.0,1.0,0,$550_pw,House,November 2008,3206,2008,11,PARK,550,House
761,"89 GRAHAM STREET, ALBERT PARK",-37.844811,144.949052,2.0,1.0,0,$500,House,September 2008,3206,2008,9,PARK,500,House
762,"127 KERFERD ROAD, ALBERT PARK",-37.846719,144.954647,3.0,1.0,0,$525_pw,Rental_residential,June 2008,3206,2008,6,PARK,525,Other
763,"127 KERFERD ROAD, ALBERT PARK",-37.846719,144.954647,3.0,1.0,0,$525,Rental_residential,May 2008,3206,2008,5,PARK,525,Other
764,"8 HAMBLETON STREET, ALBERT PARK",-37.84561,144.956689,3.0,1.0,1,$800_pw,none,October 2008,3206,2008,10,PARK,800,Other
765,"4 BOYD STREET, ALBERT PARK",-37.845905,144.956522,2.0,1.0,1,$550_pw,Rental_residential,November 2008,3206,2008,11,PARK,550,Other
766,"72 DRAPER STREET, ALBERT PARK",-37.838254,144.952892,2.0,1.0,0,$360_pw,House,August 2008,3206,2008,8,PARK,360,House
767,"72 DRAPER STREET, ALBERT PARK",-37.838254,144.952892,2.0,1.0,0,$360,House,July 2008,3206,2008,7,PARK,360,House
768,"3/84 BEACONSFIELD PARADE, ALBERT PARK",-37.847124,144.947874,1.0,1.0,1,$220_pw,Studio,October 2008,3206,2008,10,PARK,220,Apartment
769,"14/122 BEACONSFIELD PARADE, ALBERT PARK",-37.84860229,144.95089722,1.0,1.0,1,$310_pw,none,March 2008,3206,2008,3,PARK,310,Other
770,"14/122 BEACONSFIELD PARADE, ALBERT PARK",-37.84860229,144.95089722,1.0,1.0,1,$300,none,March 2008,3206,2008,3,PARK,300,Other
771,"2/146 MILLS STREET, ALBERT PARK",-37.848917,144.955952,2.0,1.0,2,$550_per_week,Rental_residential,October 2008,3206,2008,10,PARK,550,Other
772,"2/146 MILLS STREET, ALBERT PARK",-37.848917,144.955952,2.0,1.0,2,$550_per_week,Rental_residential,September 2008,3206,2008,9,PARK,550,Other
773,"34 / 195 BEACONSFIELD PARADE, ALBERT PARK",-37.84541,144.944171,1.0,1.0,1,$320_pw,none,September 2008,3206,2008,9,PARK,320,Other
774,"34 / 195 BEACONSFIELD PARADE, ALBERT PARK",-37.84541,144.944171,1.0,1.0,1,$320,none,May 2008,3206,2008,5,PARK,320,Other
775,"64 REED STREET, ALBERT PARK",-37.846064,144.947017,2.0,1.0,1,$550_per_week,none,April 2008,3206,2008,4,PARK,550,Other
776,"58 FINLAY STREET, ALBERT PARK",-37.843871,144.953544,3.0,1.0,0,$570_per_week,none,June 2008,3206,2008,6,PARK,570,Other
777,"50 ST VINCENT STREET, ALBERT PARK",-37.840483,144.948944,3.0,2.0,1,$550_pw,none,November 2008,3206,2008,11,PARK,550,Other
778,"50 ST VINCENT STREET, ALBERT PARK",-37.840483,144.948944,3.0,2.0,1,$650_pw,none,September 2008,3206,2008,9,PARK,650,Other
779,"8/84 BEACONSFIELD PARADE, ALBERT PARK",-37.847124,144.947874,1.0,1.0,1,$190,Studio,June 2008,3206,2008,6,PARK,190,Apartment
780,"32 HAMBLETON STREET, ALBERT PARK",-37.846039,144.957518,2.0,1.0,0,$520,Rental_residential,January 2008,3206,2008,1,PARK,520,Other
781,"30 LITTLE PAGE STREET, ALBERT PARK",-37.846324,144.951101,2.0,1.0,0,$450_pw,House,March 2008,3206,2008,3,PARK,450,House
782,"30 LITTLE PAGE STREET, ALBERT PARK",-37.846324,144.951101,2.0,1.0,0,$450,House,February 2008,3206,2008,2,PARK,450,House
783,"98 RICHARDSON STREET, ALBERT PARK",-37.844447,144.952293,3.0,2.0,1,$900,House,June 2008,3206,2008,6,PARK,900,House
784,"98 RICHARDSON STREET, ALBERT PARK",-37.844447,144.952293,3.0,2.0,1,$900_pw,House,May 2008,3206,2008,5,PARK,900,House
785,"30A MILLS STREET, ALBERT PARK",-37.844919,144.959267,3.0,2.0,0,$680_per_week,Rental_residential,May 2008,3206,2008,5,PARK,680,Other
786,"4 FINLAY STREET, ALBERT PARK",-37.843134,144.956183,1.0,1.0,0,$375_per_week,Rental_residential,January 2008,3206,2008,1,PARK,375,Other
787,"49 KERFERD ROAD, ALBERT PARK",-37.843944,144.957792,2.0,1.0,0,$450_pw,Rental_residential,September 2008,3206,2008,9,PARK,450,Other
788,"39 ASHWORTH STREET, ALBERT PARK",-37.84797,144.951205,2.0,1.0,2,$460_pw,House,July 2008,3206,2008,7,PARK,460,House
789,"3/119 DANKS STREET, ALBERT PARK",-37.84621048,144.95018005,2.0,1.0,0,$395,Rental_residential,April 2008,3206,2008,4,PARK,395,Other
790,"3/119 DANKS STREET, ALBERT PARK",-37.84621048,144.95018005,2.0,1.0,0,$395_pw,Rental_residential,March 2008,3206,2008,3,PARK,395,Other
791,"321 MONTAGUE STREET, ALBERT PARK",-37.841549,144.956358,3.0,3.0,2,$725_pw,Rental_residential,May 2008,3206,2008,5,PARK,725,Other
792,"40 HERBERT STREET, ALBERT PARK",-37.845114,144.958354,2.0,1.0,0,$590_per_week,none,June 2008,3206,2008,6,PARK,590,Other
793,"20 NEVILLE STREET, ALBERT PARK",-37.847623,144.956372,3.0,1.0,0,$560_pw,Rental_residential,April 2008,3206,2008,4,PARK,560,Other
794,"129 PAGE STREET, ALBERT PARK",-37.847891,144.956183,2.0,1.0,0,$495_per_week,House,October 2008,3206,2008,10,PARK,495,House
795,"42 WITHERS STREET, ALBERT PARK",-37.844458,144.948959,2.0,1.0,0,$460_pw,House,October 2008,3206,2008,10,PARK,460,House
796,"54 DINSDALE STREET, ALBERT PARK",-37.846114,144.953516,3.0,1.0,1,$520_pw,House,April 2008,3206,2008,4,PARK,520,House
797,"11/84 BEACONSFIELD PARADE, ALBERT PARK",-37.847124,144.947874,1.0,1.0,1,$200,Rental_residential,January 2008,3206,2008,1,PARK,200,Other
798,"11/84 BEACONSFIELD PARADE, ALBERT PARK",-37.847124,144.947874,1.0,1.0,1,$220_pw,Rental_residential,January 2008,3206,2008,1,PARK,220,Other
