,Unnamed: 0.1,address,latitude,longitude,nbed,nbath,ncar,price,type,historical_dates,postcode,year,month,suburb,weekly_rent,residence_type
0,0,"1/85 MAIN ROAD, CHEWTON",-37.088043,144.204874,1.0,1.0,1,$200_pw,House,July 2016,3451,2016,7,CHEWTON,200,House
1,1,"UNIT 2/85 MAIN ROAD, CHEWTON",-37.088043,144.204874,1.0,1.0,0,$200_per_week,House,October 2016,3451,2016,10,CHEWTON,200,House
2,2,"28 ARCHERS ROAD, CHEWTON",-37.0933124,144.258522,3.0,1.0,2,$400,House,December 2016,3451,2016,12,CHEWTON,400,House
3,3,"49 ADELAIDE STREET, CHEWTON",-37.086142,144.253413,3.0,2.0,2,$350_pw,House,February 2016,3451,2016,2,CHEWTON,350,House
4,4,"14 PITMAN STREET, CHEWTON",-37.083013,144.266589,4.0,1.0,1,$335_pw,House,February 2016,3451,2016,2,CHEWTON,335,House
5,5,"101 MAIN ROAD, CHEWTON",-37.079631,144.252468,3.0,1.0,0,$270,House,June 2016,3451,2016,6,CHEWTON,270,House
6,6,"16 STEELE STREET, CHEWTON",-37.0797293,144.248306,3.0,2.0,2,$330_pw,House,October 2016,3451,2016,10,CHEWTON,330,House
7,7,"195 MAIN ROAD, CHEWTON",-37.0803456,144.2619809,3.0,1.0,2,$330_pw,House,March 2016,3451,2016,3,CHEWTON,330,House
8,8,"114 GOLDEN POINT ROAD, CHEWTON",-37.071999,144.2744735,3.0,1.0,2,$250_pw,House,February 2016,3451,2016,2,CHEWTON,250,House
9,9,"114 FRYERS ROAD, CHEWTON",-37.094488,144.2554,2.0,1.0,3,$260_pw,House,May 2016,3451,2016,5,CHEWTON,260,House
10,10,"114 FRYERS ROAD, CHEWTON",-37.094488,144.2554,2.0,1.0,3,$260_pw,House,February 2016,3451,2016,2,CHEWTON,260,House
11,11,"6 BAKER STREET, CHEWTON",-37.081637,144.26061,2.0,1.0,0,$260_per_week,House,December 2016,3451,2016,12,CHEWTON,260,House
12,12,"6 BAKER STREET, CHEWTON",-37.081637,144.26061,2.0,1.0,0,$260_per_week,House,August 2016,3451,2016,8,CHEWTON,260,House
13,13,"3A EUREKA STREET, CHEWTON",-37.077977,144.246961,3.0,1.0,0,$270_pw,House,December 2016,3451,2016,12,CHEWTON,270,House
14,14,"57 ARCHERS ROAD, CHEWTON",-37.094426,144.259118,3.0,1.0,2,$400_per_week,House,November 2016,3451,2016,11,CHEWTON,400,House
15,15,"LOT/31 HOOPERS ROAD, CHEWTON",-37.0967347,144.2657472,2.0,1.0,2,$350_pw,House,June 2016,3451,2016,6,CHEWTON,350,House
16,16,"173 MAIN ROAD, CHEWTON",-37.080952,144.259378,2.0,1.0,0,$270_per_week,House,May 2016,3451,2016,5,CHEWTON,270,House
17,17,"732A PYRENEES HIGHWAY, CHEWTON",-37.08367,144.272154,2.0,1.0,1,$205_pw,House,April 2016,3451,2016,4,CHEWTON,205,House
18,18,"4 GEORGE STREET, CHEWTON",-37.082086,144.256513,3.0,1.0,2,$360_pw,House,April 2016,3451,2016,4,CHEWTON,360,House
19,19,"278 GOLDEN POINT ROAD, CHEWTON",-37.059297,144.274696,2.0,1.0,0,$375_pw,House,April 2016,3451,2016,4,CHEWTON,375,House
20,20,"197 MAIN ROAD, CHEWTON",-37.0803515,144.2618795,1.0,1.0,0,$250_pw,House,March 2016,3451,2016,3,CHEWTON,250,House
21,21,"197 MAIN ROAD, CHEWTON",-37.0803515,144.2618795,1.0,1.0,0,$290_pw,House,February 2016,3451,2016,2,CHEWTON,290,House
22,22,"7 MANCHESTER STREET, CHEWTON",-37.0775879,144.2506022,5.0,2.0,2,$400_pw,House,February 2016,3451,2016,2,CHEWTON,400,House
23,23,"1 HIGH STREET, CHILTERN",-36.1505744,146.5991617,3.0,2.0,2,$240,House,October 2016,3683,2016,10,CHILTERN,240,House
24,24,"1 HIGH STREET, CHILTERN",-36.1505744,146.5991617,3.0,2.0,2,$260_pw,House,August 2016,3683,2016,8,CHILTERN,260,House
25,25,"1 HIGH STREET, CHILTERN",-36.1505744,146.5991617,3.0,2.0,2,$260_pw,House,July 2016,3683,2016,7,CHILTERN,260,House
26,26,"10B CONNESS STREET, CHILTERN",-36.151004,146.605192,2.0,1.0,1,$235_per_week,House,August 2016,3683,2016,8,CHILTERN,235,House
27,27,"2/56 ALBERT ROAD, CHILTERN",-36.14908,146.604709,2.0,1.0,1,$185_pw,House,October 2016,3683,2016,10,CHILTERN,185,House
28,28,"2/56 ALBERT ROAD, CHILTERN",-36.14908,146.604709,2.0,1.0,1,$190_pw,House,October 2016,3683,2016,10,CHILTERN,190,House
29,29,"65 MAIN STREET, CHILTERN",-36.149418,146.609623,3.0,2.0,2,$300,House,October 2016,3683,2016,10,CHILTERN,300,House
30,30,"7 SCOTT STREET, CHILTERN",-36.153794,146.592627,2.0,1.0,4,$200_per_week,none,August 2016,3683,2016,8,CHILTERN,200,Other
31,31,"5 PARK STREET, CHILTERN",-36.149064,146.608326,3.0,1.0,2,$280,House,August 2016,3683,2016,8,CHILTERN,280,House
32,32,"5 PARK STREET, CHILTERN",-36.149064,146.608326,3.0,1.0,2,$280_p.w.,House,July 2016,3683,2016,7,CHILTERN,280,House
33,33,"13 BURKE STREET, CHILTERN",-36.152878,146.607758,2.0,1.0,1,$250_Weekly,none,July 2016,3683,2016,7,CHILTERN,250,Other
34,34,"12-14 CAMPUS GATE, CHIRNSIDE PARK",-37.755523,145.332948,5.0,2.0,2,$390_pw,House,September 2016,3116,2016,9,PARK,390,House
35,35,"1/31 COUNTRY CLUB DRIVE, CHIRNSIDE PARK",-37.756332,145.325246,3.0,1.0,1,$340_pw,House,December 2016,3116,2016,12,PARK,340,House
36,36,"1/31 COUNTRY CLUB DRIVE, CHIRNSIDE PARK",-37.756332,145.325246,3.0,1.0,1,$350_pw,House,November 2016,3116,2016,11,PARK,350,House
37,37,"66 ROSEMAN ROAD, CHIRNSIDE PARK",-37.746928,145.33598,3.0,1.0,1,$320_pw,House,September 2016,3116,2016,9,PARK,320,House
38,38,"25 CLUBPOINT DRIVE, CHIRNSIDE PARK",-37.7526153,145.3270934,3.0,2.0,1,$370_pw,House,June 2016,3116,2016,6,PARK,370,House
39,39,"25 CLUBPOINT DRIVE, CHIRNSIDE PARK",-37.7526153,145.3270934,3.0,2.0,1,$370_pw,House,May 2016,3116,2016,5,PARK,370,House
40,40,"26 JOANNE AVENUE, CHIRNSIDE PARK",-37.755106,145.306849,3.0,2.0,3,$420_pw,House,October 2016,3116,2016,10,PARK,420,House
41,41,"9 ALLY TERRACE, CHIRNSIDE PARK",-37.756061,145.295076,4.0,2.0,2,$550_per_week,House,December 2016,3116,2016,12,PARK,550,House
42,42,"27A HUNTINGDALE DRIVE, CHIRNSIDE PARK",-37.754248,145.3227,3.0,2.0,2,$460_Weekly,House,June 2016,3116,2016,6,PARK,460,House
43,43,"190 MUIR ROAD, CHRISTMAS HILLS",-37.65713,145.323706,3.0,1.0,0,$400_per_week,House,June 2016,3775,2016,6,HILLS,400,House
44,44,"30 O'SHEAS ROAD, CHRISTMAS HILLS",-37.643953,145.309304,4.0,2.0,1,$600_per_week,none,November 2016,3775,2016,11,HILLS,600,Other
45,45,"30 O'SHEAS ROAD, CHRISTMAS HILLS",-37.643953,145.309304,4.0,2.0,1,$600_per_week,none,December 2016,3775,2016,12,HILLS,600,Other
46,46,"30 OU0027SHEAS ROAD, CHRISTMAS HILLS",-37.653666,145.3050781,4.0,2.0,1,$600_per_week,House,November 2016,3775,2016,11,HILLS,600,House
47,47,"90 WESTERING ROAD, CHRISTMAS HILLS",-37.677565,145.269523,3.0,1.0,0,$550_per_week,none,August 2016,3775,2016,8,HILLS,550,Other
48,48,"1246 ELTHAM - YARRA GLEN ROAD, CHRISTMAS HILLS",-37.651535,145.288365,2.0,1.0,0,$250_per_week,House,June 2016,3775,2016,6,HILLS,250,House
49,49,"1246 ELTHAM - YARRA GLEN ROAD, CHRISTMAS HILLS",-37.651535,145.288365,2.0,1.0,0,$250_per_week,House,May 2016,3775,2016,5,HILLS,250,House
50,50,"4 KARAMOOKA AVENUE, CHUM CREEK",-37.630489,145.496038,3.0,1.0,0,$380_per_week,House,March 2016,3777,2016,3,CREEK,380,House
51,51,"731 CHUM CREEK ROAD, CHUM CREEK",-37.64491085,145.49757232,3.0,2.0,0,$385_per_week,none,December 2016,3777,2016,12,CREEK,385,Other
52,52,"7 CENTRE GROVE, CHUM CREEK",-37.646127,145.494799,4.0,2.0,1,$465_pw,House,August 2016,3777,2016,8,CREEK,465,House
53,53,"CONTACT AGENT, CHUM CREEK",-37.6333426,145.4993536,4.0,2.0,3,$450_pw,House,April 2016,3777,2016,4,CREEK,450,House
54,54,"5 KARAMOOKA AVENUE, CHUM CREEK",-37.630029,145.495225,3.0,2.0,2,$390_per_week,House,January 2016,3777,2016,1,CREEK,390,House
55,55,"5 INALA CLOSE, CHURCHILL",-38.323757,146.424585,4.0,1.0,0,$200_pw,none,June 2016,3842,2016,6,CHURCHILL,200,Other
56,56,"15 CURRINGA COURT, CHURCHILL",-38.319109,146.420642,4.0,2.0,2,$300_per_week,none,January 2016,3842,2016,1,CHURCHILL,300,Other
57,57,"38 COOLABAH DRIVE, CHURCHILL",-38.303151,146.416263,3.0,1.0,1,$210_per_week,House,December 2016,3842,2016,12,CHURCHILL,210,House
58,58,"27 CHURINGA DRIVE, CHURCHILL",-38.3210366,146.4247311,3.0,1.0,1,$280_per_week,none,May 2016,3842,2016,5,CHURCHILL,280,Other
59,59,"3/34 INVERNESS ST, CLARINDA",-37.931864,145.108164,3.0,2.0,1,$515_Weekly,Townhouse,February 2016,3169,2016,2,CLARINDA,515,House
60,60,"1 / 55 VINEY STREET, CLARINDA",-37.93875,145.101891,3.0,1.0,3,$350_per_week,Townhouse,May 2016,3169,2016,5,CLARINDA,350,House
61,61,"59 LEONARD CLOSE, CLARINDA",-37.940496,145.106509,5.0,3.0,2,$410_Weekly,Rental_residential,May 2016,3169,2016,5,CLARINDA,410,Other
62,62,"600 KONAGADERRA ROAD, CLARKEFIELD",-37.515177,144.783865,3.0,1.0,0,$390,House,December 2016,3430,2016,12,CLARKEFIELD,390,House
63,63,"160 FENTON HILL ROAD, CLARKEFIELD",-37.4935034,144.8108406,3.0,1.0,3,$450_per_week,House,September 2016,3430,2016,9,CLARKEFIELD,450,House
64,64,"291 BOGGY GATE ROAD, CLARKEFIELD",-37.478953,144.789645,4.0,1.0,0,$600_Weekly,House,April 2016,3430,2016,4,CLARKEFIELD,600,House
65,65,"291 BOGGY GATE RD, CLARKEFIELD",-37.478953,144.789645,4.0,1.0,0,$600_Weekly,House,April 2016,3430,2016,4,CLARKEFIELD,600,House
66,66,"1556 &QUOTGROOMS COTTAGE&QUOT LANCEFIELD ROAD, CLARKEFIELD",-37.4893522,144.7564024,2.0,1.0,2,$270_per_week,House,October 2016,3430,2016,10,CLARKEFIELD,270,House
67,67,"554 HEATHS LANE, CLARKEFIELD",-37.460714,144.804313,3.0,1.0,2,$300_pw,House,August 2016,3430,2016,8,CLARKEFIELD,300,House
68,68,"28 EVELYN STREET, CLAYTON NORTH",-37.919915,145.131416,3.0,1.0,0,$360_p.w.,House,September 2016,3168,2016,9,NORTH,360,House
69,69,"4/126 WELLINGTON ROAD, CLAYTON NORTH",-37.9211962,145.1320653,2.0,1.0,1,$299_p.w.,House,November 2016,3168,2016,11,NORTH,299,House
70,70,"3/36 DENNIS STREET, CLAYTON NORTH",-37.918364,145.138747,4.0,3.0,0,$680_per_week,none,October 2016,3168,2016,10,NORTH,680,Other
71,71,"1/36 DENNIS STREET, CLAYTON NORTH",-37.918364,145.138747,3.0,3.0,0,$640_per_week,none,October 2016,3168,2016,10,NORTH,640,Other
72,72,"2/36 DENNIS STREET, CLAYTON NORTH",-37.918364,145.138747,3.0,3.0,0,$640_per_week,none,October 2016,3168,2016,10,NORTH,640,Other
73,73,"7 MURDO ROAD, CLAYTON NORTH",-37.917569,145.14094,3.0,1.0,0,$450_per_week,none,September 2016,3168,2016,9,NORTH,450,Other
74,74,"UNIT 3/22 WRIGHT STREET, CLAYTON NORTH",-37.92221,145.124686,2.0,1.0,1,$330_Weekly,none,April 2016,3168,2016,4,NORTH,330,Other
75,75,"42 KOONAWARRA ROAD, CLAYTON NORTH",-37.910193,145.125105,3.0,1.0,1,$470_Weekly,House,February 2016,3168,2016,2,NORTH,470,House
76,76,"1/19 BURNS AVENUE, CLAYTON SOUTH",-37.936444,145.134354,2.0,1.0,1,$300_Week,none,September 2016,3169,2016,9,SOUTH,300,Other
77,77,"3 JORDAN ST, CLAYTON SOUTH",-37.930814,145.116963,3.0,2.0,2,$370_Weekly,none,December 2016,3169,2016,12,SOUTH,370,Other
78,78,"1/31 SPRINGS ROAD, CLAYTON SOUTH",-37.930285,145.109556,2.0,1.0,1,$340_per_week,none,August 2016,3169,2016,8,SOUTH,340,Other
79,79,"3 GLENN COURT, CLAYTON SOUTH",-37.955304,145.136471,3.0,1.0,2,$399,House,November 2016,3169,2016,11,SOUTH,399,House
80,80,"B218/60 AUTUMN TERRACE, CLAYTON SOUTH",-37.9393196,145.1384859,2.0,2.0,1,$370_per_week,none,February 2016,3169,2016,2,SOUTH,370,Other
81,81,"2/33 BROWNING AVENUE, CLAYTON SOUTH",-37.9389684,145.1327188,3.0,1.0,1,$340_Weekly,none,November 2016,3169,2016,11,SOUTH,340,Other
82,82,"3 GLENN CT, CLAYTON SOUTH",-37.955304,145.136471,3.0,1.0,0,$399,House,November 2016,3169,2016,11,SOUTH,399,House
83,83,"8/31-33 FIRST STREET, CLAYTON SOUTH",-37.933051,145.134866,2.0,1.0,1,$290,none,November 2016,3169,2016,11,SOUTH,290,Other
84,84,"37 MONASH CRESCENT, CLAYTON SOUTH",-37.944059,145.133323,3.0,1.0,2,$450_Weekly,House,April 2016,3169,2016,4,SOUTH,450,House
85,85,"16 MIRANDA CLOSE, CLAYTON SOUTH",-37.946334,145.135753,3.0,1.0,3,$350_Weekly,House,March 2016,3169,2016,3,SOUTH,350,House
86,86,"30C OAKES AVENUE, CLAYTON SOUTH",-37.935829,145.131729,3.0,2.0,1,$450_per_week,Townhouse,July 2016,3169,2016,7,SOUTH,450,House
87,87,"2/55 MAIN ROAD, CLAYTON SOUTH",-37.937472,145.12717,3.0,2.0,2,$440,Unit,December 2016,3169,2016,12,SOUTH,440,Apartment
88,88,"UNIT 1/21 ROSEBANK AVENUE, CLAYTON SOUTH",-37.938946,145.13002,2.0,1.0,1,$330_Weekly,Unit,January 2016,3169,2016,1,SOUTH,330,Apartment
89,89,"UNIT 1/21 MERLYN AVENUE, CLAYTON SOUTH",-37.935608,145.117216,2.0,1.0,1,$290_Weekly,Unit,October 2016,3169,2016,10,SOUTH,290,Apartment
90,90,"2/24 MYRIONG STREET, CLAYTON",-37.915892,145.125518,4.0,3.0,2,$560_per_week,Townhouse,February 2016,3168,2016,2,CLAYTON,560,House
91,91,"5/42 EVELYN STREET, CLAYTON",-37.921181,145.131503,3.0,2.0,2,$430_p.w.,Townhouse,January 2016,3168,2016,1,CLAYTON,430,House
92,92,"8/10-12 SEASCAPE STREET, CLAYTON",-37.9171566,145.1290743,3.0,1.0,2,$485_per_week,Townhouse,July 2016,3168,2016,7,CLAYTON,485,House
93,93,"4/1452 NORTH ROAD, CLAYTON",-37.914125,145.1205265,2.0,1.0,1,$310_pw,Rental_residential,July 2016,3168,2016,7,CLAYTON,310,Other
94,94,"1/37 MARGARET STREET, CLAYTON",-37.916812,145.115443,4.0,3.0,2,$630,Townhouse,November 2016,3168,2016,11,CLAYTON,630,House
95,95,"APARTMENT 10/4 MANATUNGA STREET, CLAYTON",-37.916239,145.125979,2.0,1.0,1,$310_Weekly,Unit,June 2016,3168,2016,6,CLAYTON,310,Apartment
96,96,"UNIT 2/91 MORIAH STREET, CLAYTON",-37.9251699,145.1296013,4.0,2.0,3,$600_Weekly,Unit,November 2016,3168,2016,11,CLAYTON,600,Apartment
97,97,"33 ALICE STREET, CLAYTON",-37.917622,145.115287,4.0,2.0,1,$420_Weekly,House,July 2016,3168,2016,7,CLAYTON,420,House
98,98,"UNIT 1/47 JAGUAR DRIVE, CLAYTON",-37.926876,145.131638,3.0,1.0,2,$400_Weekly,Unit,November 2016,3168,2016,11,CLAYTON,400,Apartment
99,99,"UNIT 1/47 JAGUAR DRIVE, CLAYTON",-37.926876,145.131638,3.0,1.0,2,$410_Weekly,Unit,October 2016,3168,2016,10,CLAYTON,410,Apartment
100,100,"UNIT 1/47 JAGUAR DRIVE, CLAYTON",-37.926876,145.131638,3.0,1.0,2,$395_Weekly,Unit,January 2016,3168,2016,1,CLAYTON,395,Apartment
101,101,"UNIT 1/5-7 THOMAS STREET, CLAYTON",-37.926088,145.12026,2.0,1.0,1,$400_Weekly,Unit,October 2016,3168,2016,10,CLAYTON,400,Apartment
102,102,"UNIT 1/5-7 THOMAS STREET, CLAYTON",-37.926088,145.12026,2.0,1.0,1,$400_Weekly,Unit,September 2016,3168,2016,9,CLAYTON,400,Apartment
103,103,"UNIT 1/450 HAUGHTON ROAD, CLAYTON",-37.928723,145.125148,2.0,1.0,2,$390_Weekly,Unit,April 2016,3168,2016,4,CLAYTON,390,Apartment
104,104,"1/31 GLENBROOK AVENUE, CLAYTON",-37.909275,145.123752,3.0,1.0,2,$350_pw,House,July 2016,3168,2016,7,CLAYTON,350,House
105,105,"UNIT 4/81 EVA STREET, CLAYTON",-37.926655,145.11265,2.0,1.0,1,$360_Weekly,Unit,January 2016,3168,2016,1,CLAYTON,360,Apartment
106,106,"UNIT 6/1927 DANDENONG ROAD, CLAYTON",-37.911756,145.123934,2.0,1.0,1,$330_Weekly,Unit,June 2016,3168,2016,6,CLAYTON,330,Apartment
107,107,"10 SHADY MEWS, CLAYTON",-37.922472,145.127818,3.0,1.0,1,$410_per_week,Townhouse,August 2016,3168,2016,8,CLAYTON,410,House
108,108,"1/83 KIONGA STREET, CLAYTON",-37.929193,145.129986,5.0,2.0,1,$515_p.w.,Townhouse,June 2016,3168,2016,6,CLAYTON,515,House
109,109,"1/83 KIONGA STREET, CLAYTON",-37.929193,145.129986,5.0,2.0,1,$540_p.w.,Townhouse,May 2016,3168,2016,5,CLAYTON,540,House
110,110,"1/83 KIONGA STREET, CLAYTON",-37.929193,145.129986,5.0,2.0,1,$560_p.w.,Townhouse,May 2016,3168,2016,5,CLAYTON,560,House
111,111,"1/83 KIONGA STREET, CLAYTON",-37.929193,145.129986,5.0,2.0,1,$560_p.w.,Townhouse,January 2016,3168,2016,1,CLAYTON,560,House
112,112,"149A CARINISH ROAD, CLAYTON",-37.924305,145.121032,2.0,1.0,1,$245_p.w.,Unit,September 2016,3168,2016,9,CLAYTON,245,Apartment
113,113,"149A CARINISH ROAD, CLAYTON",-37.924305,145.121032,2.0,1.0,1,$245_p.w.,Unit,February 2016,3168,2016,2,CLAYTON,245,Apartment
114,114,"149A CARINISH ROAD, CLAYTON",-37.924305,145.121032,2.0,1.0,1,$245_p.w.,Unit,January 2016,3168,2016,1,CLAYTON,245,Apartment
115,115,"3/23 MADELEINE ROAD, CLAYTON",-37.916104,145.119279,3.0,2.0,1,$420_p.w.,Unit,July 2016,3168,2016,7,CLAYTON,420,Apartment
116,116,"3/23 MADELEINE ROAD, CLAYTON",-37.916104,145.119279,3.0,2.0,1,$420_p.w.,Unit,June 2016,3168,2016,6,CLAYTON,420,Apartment
117,117,"1/6 ATLANTIC STREET, CLAYTON",-37.918015,145.128456,1.0,1.0,1,$185,House,June 2016,3168,2016,6,CLAYTON,185,House
118,118,"1/6 ATLANTIC STREET, CLAYTON",-37.918015,145.128456,1.0,1.0,1,$185,House,March 2016,3168,2016,3,CLAYTON,185,House
119,119,"43 HARLINGTON STREET, CLAYTON",-37.923241,145.110846,3.0,1.0,1,$380_Weekly,House,November 2016,3168,2016,11,CLAYTON,380,House
120,120,"UNIT 4/1927 DANDENONG ROAD, CLAYTON",-37.911756,145.123934,2.0,1.0,1,$300_Weekly,Unit,January 2016,3168,2016,1,CLAYTON,300,Apartment
121,121,"APARTMENT 7/78-80 WELLINGTON ROAD, CLAYTON",-37.916524,145.138223,2.0,1.0,1,$310_Weekly,Unit,December 2016,3168,2016,12,CLAYTON,310,Apartment
122,122,"UNIT 3/191 CARINISH ROAD, CLAYTON",-37.926996,145.1247,2.0,1.0,2,$370_Weekly,Unit,October 2016,3168,2016,10,CLAYTON,370,Apartment
123,123,"UNIT 1/40 ALICE STREET, CLAYTON",-37.9180741,145.1159047,2.0,1.0,2,$350_Weekly,Unit,November 2016,3168,2016,11,CLAYTON,350,Apartment
124,124,"UNIT 1/40 ALICE STREET, CLAYTON",-37.9180741,145.1159047,2.0,1.0,2,$340_Weekly,Unit,January 2016,3168,2016,1,CLAYTON,340,Apartment
125,125,"3/36 DENNIS STREET, CLAYTON",-37.918364,145.138747,4.0,3.0,2,$680_per_week,Townhouse,November 2016,3168,2016,11,CLAYTON,680,House
126,126,"UNIT 4/6 ARNOTT STREET, CLAYTON",-37.916706,145.135221,1.0,1.0,1,$390_Weekly,Unit,March 2016,3168,2016,3,CLAYTON,390,Apartment
127,127,"2/5 FLORENCE AVENUE, CLAYTON",-37.906174,145.126774,1.0,1.0,8,$300_pw,Studio,February 2016,3168,2016,2,CLAYTON,300,Apartment
128,128,"4 ROBINSON STREET, CLAYTON",-37.920006,145.111493,3.0,1.0,1,$400,House,August 2016,3168,2016,8,CLAYTON,400,House
129,129,"4 ROBINSON ST, CLAYTON",-37.919868,145.11152,3.0,1.0,1,$400_Weekly,House,August 2016,3168,2016,8,CLAYTON,400,House
130,130,"6/10 HILLTOP AVENUE, CLAYTON",-37.905826,145.127234,2.0,1.0,1,$335_per_week,none,May 2016,3168,2016,5,CLAYTON,335,Other
131,131,"3 / 66 KIONGA STREET, CLAYTON",-37.9279178,145.1305868,3.0,2.0,2,$450_Weekly,Townhouse,July 2016,3168,2016,7,CLAYTON,450,House
132,132,"2 / 1452-1454 NORTH ROAD, CLAYTON",-37.914125,145.1205265,2.0,1.0,1,$350_pw,none,October 2016,3168,2016,10,CLAYTON,350,Other
133,133,"9/34 WELLINGTON ROAD, CLAYTON",-37.915995,145.133951,1.0,1.0,1,$245,none,May 2016,3168,2016,5,CLAYTON,245,Other
134,134,"13/9-11 BROWNS ROAD, CLAYTON",-37.918418,145.127927,2.0,1.0,1,$280_p.w.,House,July 2016,3168,2016,7,CLAYTON,280,House
135,135,"9 SHADY MEWS, CLAYTON",-37.922424,145.12782,2.0,1.0,2,$380_Weekly,Rental_residential,September 2016,3168,2016,9,CLAYTON,380,Other
136,136,"198 CLAYTON ROAD, CLAYTON",-37.917008,145.121634,4.0,1.0,0,$500_per_week,none,June 2016,3168,2016,6,CLAYTON,500,Other
137,137,"42 STOCKDALE AVENUE, CLAYTON",-37.910502,145.126035,4.0,2.0,1,$395_per_week,House,May 2016,3168,2016,5,CLAYTON,395,House
138,138,"8/20-22 NEWPORT ROAD, CLAYTON",-37.932574,145.114313,2.0,1.0,2,$360,Rental_residential,November 2016,3168,2016,11,CLAYTON,360,Other
139,139,"8/20-22 NEWPORT ROAD, CLAYTON",-37.932574,145.114313,2.0,1.0,2,$360,Rental_residential,October 2016,3168,2016,10,CLAYTON,360,Other
140,140,"8/20-22 NEWPORT ROAD, CLAYTON",-37.932574,145.114313,2.0,1.0,2,$360,Rental_residential,September 2016,3168,2016,9,CLAYTON,360,Other
141,141,"4 / 63 CARINISH ROAD, CLAYTON",-37.920334,145.115395,2.0,1.0,1,$350_per_week,Unit,February 2016,3168,2016,2,CLAYTON,350,Apartment
142,142,"1/31 GLENBROOK AVE, CLAYTON",-37.909189,145.123384,3.0,1.0,2,$350_per_week,House,September 2016,3168,2016,9,CLAYTON,350,House
143,143,"10/10 ARNOTT STREET, CLAYTON",-37.9169379,145.1348441,2.0,1.0,1,$340_pw,Rental_residential,February 2016,3168,2016,2,CLAYTON,340,Other
144,144,"2B HOURIGAN AVENUE, CLAYTON",-37.917265,145.121913,3.0,2.0,2,$460_p.w.,Townhouse,January 2016,3168,2016,1,CLAYTON,460,House
145,145,"2/6 ATLANTIC STREET, CLAYTON",-37.918259,145.128437,1.0,1.0,0,$190,Townhouse,December 2016,3168,2016,12,CLAYTON,190,House
146,146,"2/6 ATLANTIC STREET, CLAYTON",-37.918259,145.128437,1.0,1.0,0,$185,Townhouse,May 2016,3168,2016,5,CLAYTON,185,House
147,147,"2 / 31 PANORAMA STREET, CLAYTON",-37.92093658,145.1292572,3.0,2.0,2,$500_Weekly,Townhouse,December 2016,3168,2016,12,CLAYTON,500,House
148,148,"59 MARSHALL AVENUE, CLAYTON",-37.91192,145.126379,4.0,1.0,4,$400_Weekly,House,January 2016,3168,2016,1,CLAYTON,400,House
149,149,"3/48-50 MANTON ROAD, CLAYTON",-37.915109,145.114495,2.0,2.0,1,$650,Townhouse,June 2016,3168,2016,6,CLAYTON,650,House
150,150,"9 PRINCE CHARLES STREET, CLAYTON",-37.921871,145.114627,3.0,1.0,2,$399_Weekly,House,December 2016,3168,2016,12,CLAYTON,399,House
151,151,"2/1 ROSE STREET, CLAYTON",-37.922359,145.122301,2.0,1.0,2,$410_per_week,Townhouse,June 2016,3168,2016,6,CLAYTON,410,House
152,152,"2 BRUSHBOX COURT, CLAYTON",-37.925488,145.119662,3.0,1.0,2,$420_Weekly,Townhouse,October 2016,3168,2016,10,CLAYTON,420,House
153,153,"16 THOMAS STREET, CLAYTON",-37.927189,145.120776,3.0,1.0,4,$390_pw,House,January 2016,3168,2016,1,CLAYTON,390,House
154,154,"1/17 BEDDOE AVENUE, CLAYTON",-37.90863,145.128127,3.0,2.0,1,$550_p.w.,Townhouse,December 2016,3168,2016,12,CLAYTON,550,House
155,155,"1/12 MADELEINE ROAD, CLAYTON",-37.915266,145.120158,3.0,1.0,1,$450_per_week,Available Now,March 2016,3168,2016,3,CLAYTON,450,Other
156,156,"1/12 MADELEINE ROAD, CLAYTON",-37.915266,145.120158,3.0,1.0,1,$470,Available Now,March 2016,3168,2016,3,CLAYTON,470,Other
157,157,"1/65 VIEW STREET, CLAYTON",-37.926751,145.108946,4.0,2.0,2,$540_p.w.,House,January 2016,3168,2016,1,CLAYTON,540,House
158,158,"6 VICTOR ROAD, CLEMATIS",-37.929987,145.420214,2.0,1.0,1,$310_pw,none,September 2016,3782,2016,9,CLEMATIS,310,Other
159,159,"278 BELGRAVE GEMBROOK ROAD, CLEMATIS",-37.928421,145.421523,4.0,2.0,2,$400_per_week,House,November 2016,3782,2016,11,CLEMATIS,400,House
160,160,"300 BELGRAVE GEMBROOK ROAD, CLEMATIS",-37.9293057,145.4253473,3.0,1.0,1,$400_per_week,House,May 2016,3782,2016,5,CLEMATIS,400,House
161,161,"13 PARADISE AVENUE, CLEMATIS",-37.934453,145.420268,4.0,2.0,0,$320_per_week,House,May 2016,3782,2016,5,CLEMATIS,320,House
162,162,"13 PARADISE AVENUE, CLEMATIS",-37.934453,145.420268,4.0,2.0,0,$320_per_week,House,April 2016,3782,2016,4,CLEMATIS,320,House
163,163,"260A BELLBIRD ROAD, CLIFTON CREEK",-37.721096,147.703205,3.0,1.0,0,$260_Weekly,House,February 2016,3875,2016,2,CREEK,260,House
164,164,"3 YAMBLA STREET, CLIFTON HILL",-37.792673,145.000644,3.0,2.0,0,$695_per_week,House,August 2016,3068,2016,8,HILL,695,House
165,165,"3 YAMBLA STREET, CLIFTON HILL",-37.792673,145.000644,3.0,2.0,0,$730_per_week,House,July 2016,3068,2016,7,HILL,730,House
166,166,"17 MYRTLE STREET, CLIFTON HILL",-37.7917829,144.9969505,2.0,1.0,2,$690_Week,House,November 2016,3068,2016,11,HILL,690,House
167,167,"12/82 ROSENEATH STREET, CLIFTON HILL",-37.793089,144.99717,3.0,2.0,1,$710_Week,none,February 2016,3068,2016,2,HILL,710,Other
168,168,"25 HEIDELBERG ROAD, CLIFTON HILL",-37.787143,144.996092,4.0,2.0,1,$850_per_week,House,October 2016,3068,2016,10,HILL,850,House
169,169,"8/32 DWYER STREET, CLIFTON HILL",-37.787239,145.002994,1.0,1.0,1,$330_pw,none,October 2016,3068,2016,10,HILL,330,Other
170,170,"650 SMITH STREET, CLIFTON HILL",-37.79212,144.985634,3.0,2.0,1,$795_per_week,Rental_residential,April 2016,3068,2016,4,HILL,795,Other
171,171,"650 SMITH STREET, CLIFTON HILL",-37.79212,144.985634,3.0,2.0,1,$795_per_week,Rental_residential,March 2016,3068,2016,3,HILL,795,Other
172,172,"18/14 THE ESPLANADE, CLIFTON HILL",-37.788057,145.005844,1.0,1.0,1,$315_pw,Rental_residential,August 2016,3068,2016,8,HILL,315,Other
173,173,"18/14 THE ESPLANADE, CLIFTON HILL",-37.788057,145.005844,1.0,1.0,1,$330_Week,Rental_residential,July 2016,3068,2016,7,HILL,330,Other
174,174,"5/200 NOONE STREET, CLIFTON HILL",-37.793351,144.98911,2.0,2.0,1,$590_pw,none,February 2016,3068,2016,2,HILL,590,Other
175,175,"104 NOONE STREET, CLIFTON HILL",-37.79363,144.994951,4.0,2.0,0,$440_pw,House,May 2016,3068,2016,5,HILL,440,House
176,176,"144 GOLD STREET, CLIFTON HILL",-37.793178,144.990398,2.0,1.0,0,$550_Week,Rental_residential,May 2016,3068,2016,5,HILL,550,Other
177,177,"53 GRANT STREET, CLIFTON HILL",-37.787446,144.996319,2.0,1.0,0,$520_pw,House,September 2016,3068,2016,9,HILL,520,House
178,178,"53 GRANT STREET, CLIFTON HILL",-37.787446,144.996319,2.0,1.0,0,$520_pw,House,August 2016,3068,2016,8,HILL,520,House
179,179,"53 GRANT STREET, CLIFTON HILL",-37.787446,144.996319,2.0,1.0,0,$530_pw,House,June 2016,3068,2016,6,HILL,530,House
180,180,"7/41 FENWICK STREET, CLIFTON HILL",-37.788821,144.999765,2.0,1.0,1,$420_pw,none,January 2016,3068,2016,1,HILL,420,Other
181,181,"1 CLIFTON STREET, CLIFTON HILL",-37.787337,145.00483,2.0,1.0,0,$600_per_week,Rental_residential,May 2016,3068,2016,5,HILL,600,Other
182,182,"1/81 FIELD STREET, CLIFTON HILL",-37.7921964,145.0022619,2.0,1.0,1,$500_pw,Rental_residential,April 2016,3068,2016,4,HILL,500,Other
183,183,"4/15 ANDERSON STREET, CLIFTON HILL",-37.792677,144.99261,2.0,1.0,1,$395_pw,Rental_residential,May 2016,3068,2016,5,HILL,395,Other
184,184,"4/15 ANDERSON STREET, CLIFTON HILL",-37.792677,144.99261,2.0,1.0,1,$400_Week,Rental_residential,March 2016,3068,2016,3,HILL,400,Other
185,185,"15 COUNCIL STREET, CLIFTON HILL",-37.792726,144.986822,3.0,2.0,2,$780_pw,House,June 2016,3068,2016,6,HILL,780,House
186,186,"6 BARRIES PLACE, CLIFTON HILL",-37.7949562,144.9986966,3.0,3.0,1,$710_pw,Rental_residential,June 2016,3068,2016,6,HILL,710,Other
187,187,"6 BARRIES PLACE, CLIFTON HILL",-37.7949562,144.9986966,3.0,3.0,1,$710_Week,Rental_residential,May 2016,3068,2016,5,HILL,710,Other
188,188,"135A NOONE STREET, CLIFTON HILL",-37.7942689,144.9984992,1.0,1.0,0,$450_per_week,House,November 2016,3068,2016,11,HILL,450,House
189,189,"30 WRIGHT STREET, CLIFTON HILL",-37.78906,145.00174,2.0,1.0,1,$600_Week,Rental_residential,December 2016,3068,2016,12,HILL,600,Other
190,190,"9 SPENSLEY STREET, CLIFTON HILL",-37.788833,144.996153,2.0,1.0,1,$600_per_week,Townhouse,March 2016,3068,2016,3,HILL,600,House
191,191,"8/56 JOHN STREET, CLIFTON HILL",-37.787359,144.995813,2.0,1.0,1,$425_per_week,none,July 2016,3068,2016,7,HILL,425,Other
192,192,"78 RAMSDEN STREET, CLIFTON HILL",-37.79056,144.999593,3.0,1.0,2,$790_per_week,Rental_residential,May 2016,3068,2016,5,HILL,790,Other
193,193,"4/41 FENWICK STREET, CLIFTON HILL",-37.788821,144.999765,2.0,1.0,1,$375_per_week,none,May 2016,3068,2016,5,HILL,375,Other
194,194,"7/18 SOUTH TERRACE STREET, CLIFTON HILL",-37.792683,144.993377,3.0,1.0,1,$560_pw,none,May 2016,3068,2016,5,HILL,560,Other
195,195,"5/56 JOHN STREET, CLIFTON HILL",-37.78723145,144.99583435,1.0,1.0,1,$350_per_week,none,January 2016,3068,2016,1,HILL,350,Other
196,196,"5/56 JOHN STREET, CLIFTON HILL",-37.78723145,144.99583435,1.0,1.0,1,$360_per_week,none,January 2016,3068,2016,1,HILL,360,Other
197,197,"6 RUTLAND STREET, CLIFTON HILL",-37.794625,144.996207,2.0,1.0,1,$500_pw,House,September 2016,3068,2016,9,HILL,500,House
198,198,"6 RUTLAND STREET, CLIFTON HILL",-37.794625,144.996207,2.0,1.0,1,$500_pw,House,August 2016,3068,2016,8,HILL,500,House
199,199,"6 RUTLAND STREET, CLIFTON HILL",-37.794625,144.996207,2.0,1.0,1,$550_pw,House,June 2016,3068,2016,6,HILL,550,House
200,200,"3/264 ALEXANDRA PARADE EAST, CLIFTON HILL",-37.7951262,144.9995113,1.0,1.0,1,$350_pw,Rental_residential,February 2016,3068,2016,2,HILL,350,Other
201,201,"132 NOONE STREET, CLIFTON HILL",-37.793811,144.996547,2.0,1.0,0,$530_Week,House,December 2016,3068,2016,12,HILL,530,House
202,202,"363 WELLINGTON STREET, CLIFTON HILL",-37.793646,144.987995,3.0,2.0,1,$710_per_week,Rental_residential,August 2016,3068,2016,8,HILL,710,Other
203,203,"363 WELLINGTON STREET, CLIFTON HILL",-37.793646,144.987995,3.0,2.0,1,$740_per_week,Rental_residential,July 2016,3068,2016,7,HILL,740,Other
204,204,"363 WELLINGTON STREET, CLIFTON HILL",-37.793646,144.987995,3.0,2.0,1,$790_per_week,Rental_residential,March 2016,3068,2016,3,HILL,790,Other
205,205,"14 YARRAMUNDI DRIVE, CLIFTON SPRINGS",-38.1579965,144.5571227,3.0,1.0,2,$320_Weekly,none,December 2016,3222,2016,12,SPRINGS,320,Other
206,206,"5 BOGAN STREET, CLIFTON SPRINGS",-38.155787,144.562809,3.0,2.0,4,$420_Weekly,none,May 2016,3222,2016,5,SPRINGS,420,Other
207,207,"695 SPUR ROAD, CLONBINANE",-37.307705,145.112112,3.0,2.0,1,$350_pw,House,May 2016,3658,2016,5,CLONBINANE,350,House
208,208,"13-15 SUBURBAN STREET, CLUNES",-37.29528,143.778701,3.0,1.0,2,$300_per_week,House,July 2016,3370,2016,7,CLUNES,300,House
209,209,"45A THORNTON STREET, CLUNES",-37.300026,143.782154,2.0,1.0,1,$230_pw,House,May 2016,3370,2016,5,CLUNES,230,House
210,210,"23 ALBERT STREET, CLUNES",-37.28706,143.789882,3.0,1.0,1,$240_pw,House,December 2016,3370,2016,12,CLUNES,240,House
211,211,"18 TALBOT ROAD, CLUNES",-37.291558,143.774007,3.0,1.0,2,$240,House,February 2016,3370,2016,2,CLUNES,240,House
212,212,"5 KILKENNY LANE, CLUNES",-37.297471,143.774589,2.0,1.0,4,$185,House,July 2016,3370,2016,7,CLUNES,185,House
213,213,"5 KILKENNY LANE, CLUNES",-37.297471,143.774589,2.0,1.0,4,$185,House,May 2016,3370,2016,5,CLUNES,185,House
214,214,"17 LIGAR STREET, CLUNES",-37.294749,143.790146,3.0,1.0,0,$270_pw,House,June 2016,3370,2016,6,CLUNES,270,House
215,215,"45 THORNTON STREET, CLUNES",-37.300119,143.782084,3.0,1.0,1,$260,none,January 2016,3370,2016,1,CLUNES,260,Other
216,216,"64 SERVICE STREET, CLUNES",-37.3001882,143.7827429,2.0,1.0,1,$230_Leased,House,September 2016,3370,2016,9,CLUNES,230,House
217,217,"64 SERVICE STREET, CLUNES",-37.3001882,143.7827429,2.0,1.0,1,$230_pw,House,June 2016,3370,2016,6,CLUNES,230,House
218,218,"6 CAMERON STREET, CLUNES",-37.292247,143.791814,2.0,1.0,2,$215_per_week,none,October 2016,3370,2016,10,CLUNES,215,Other
219,219,"6 CAMERON STREET, CLUNES",-37.292247,143.791814,2.0,1.0,2,$215_per_week,none,July 2016,3370,2016,7,CLUNES,215,Other
220,220,"23 SUBURBAN STREET, CLUNES",-37.296338,143.77741,3.0,2.0,2,$320_per_week,House,August 2016,3370,2016,8,CLUNES,320,House
221,221,"23 SUBURBAN STREET, CLUNES",-37.296338,143.77741,3.0,2.0,2,$320_per_week,House,February 2016,3370,2016,2,CLUNES,320,House
222,222,"14 CAMP PARADE, CLUNES",-37.291247,143.779935,3.0,1.0,2,$260_Leased,House,March 2016,3370,2016,3,CLUNES,260,House
223,223,"40 KARABAIR STREET, CLYDE NORTH",-38.1184629,145.3273726,4.0,2.0,2,$390,House,August 2016,3978,2016,8,NORTH,390,House
224,224,"30 ELLAROO CIRCUIT, CLYDE NORTH",-38.078546,145.355466,3.0,2.0,2,$370,House,November 2016,3978,2016,11,NORTH,370,House
225,225,"17 BLACKSMITH WAY, CLYDE NORTH",-38.1184629,145.3273726,4.0,2.0,2,$460_pw,House,January 2016,3978,2016,1,NORTH,460,House
226,226,"12 BALLARTO ROAD, CLYDE",-38.13434,145.329343,4.0,2.0,4,$520,House,July 2016,3978,2016,7,CLYDE,520,House
227,227,"84 BIMBERRY CIRCUIT, CLYDE",-38.1247122,145.3230869,3.0,2.0,1,$355_Weekly,House,July 2016,3978,2016,7,CLYDE,355,House
228,228,"110 CLYDE FIVE WAYS ROAD, CLYDE",-38.1595057,145.3188431,4.0,3.0,3,$500_per_week,House,February 2016,3978,2016,2,CLYDE,500,House
229,229,"110 CLYDE FIVE WAYS ROAD, CLYDE",-38.1595057,145.3188431,4.0,3.0,3,$500_per_week,House,January 2016,3978,2016,1,CLYDE,500,House
230,230,"82 GREEN GULLY ROAD, CLYDE",-38.1199516,145.3224339,2.0,2.0,2,$350_per_week,Townhouse,July 2016,3978,2016,7,CLYDE,350,House
231,231,"82 GREEN GULLY ROAD, CLYDE",-38.1199516,145.3224339,2.0,2.0,2,$340_per_week,Townhouse,January 2016,3978,2016,1,CLYDE,340,House
232,232,"8 PELION AVENUE, CLYDE",-38.133137,145.330643,4.0,2.0,2,$410_Wk,none,November 2016,3978,2016,11,CLYDE,410,Other
233,233,"82 GREEN GULLY RD, CLYDE",-38.1199516,145.3224339,2.0,2.0,2,$350_per_week,Townhouse,July 2016,3978,2016,7,CLYDE,350,House
234,234,"170 LOCARNO ROAD, CLYDESDALE",-37.183976,144.083274,2.0,1.0,2,$345,House,July 2016,3461,2016,7,CLYDESDALE,345,House
235,235,"174 JONES-REECES ROAD, CLYDESDALE",-37.174537,144.094911,1.0,1.0,0,$280_pw,House,March 2016,3461,2016,3,CLYDESDALE,280,House
236,236,"328 BENGWORDEN ROAD, COBAINS",-38.072845,147.110754,2.0,1.0,2,$230_per_week,Rental_residential,May 2016,3851,2016,5,COBAINS,230,Other
237,237,"328 BENGWORDEN ROAD, COBAINS",-38.072845,147.110754,2.0,1.0,2,$180_per_week,Rental_residential,March 2016,3851,2016,3,COBAINS,180,Other
238,238,"74 WALKER STREET, COBDEN",-38.32536,143.080733,2.0,1.0,1,$215_per_week,House,June 2016,3266,2016,6,COBDEN,215,House
239,239,"95 CURDIE STREET, COBDEN",-38.328139,143.070004,3.0,2.0,4,$265_per_week,House,May 2016,3266,2016,5,COBDEN,265,House
240,240,"454 COBDEN STONYFORD ROAD, COBDEN",-38.341147,143.124919,3.0,1.0,2,$220_per_week,House,May 2016,3266,2016,5,COBDEN,220,House
241,241,"2 / 51 CURDIE STREET, COBDEN",-38.328759,143.075471,3.0,1.0,1,$210_pw,none,September 2016,3266,2016,9,COBDEN,210,Other
242,242,"2 / 51 CURDIE STREET, COBDEN",-38.328759,143.075471,3.0,1.0,1,$210,none,August 2016,3266,2016,8,COBDEN,210,Other
243,243,"2 / 51 CURDIE STREET, COBDEN",-38.328759,143.075471,3.0,1.0,1,$210_pw,none,July 2016,3266,2016,7,COBDEN,210,Other
244,244,"2 / 51 CURDIE STREET, COBDEN",-38.328759,143.075471,3.0,1.0,1,$210,none,May 2016,3266,2016,5,COBDEN,210,Other
245,245,"397 STONEYFORD ROAD, COBDEN",-38.332701,143.126845,3.0,1.0,1,$240_per_week,none,July 2016,3266,2016,7,COBDEN,240,Other
246,246,"397 STONEYFORD ROAD, COBDEN",-38.332701,143.126845,3.0,1.0,1,$220_per_week,none,January 2016,3266,2016,1,COBDEN,220,Other
247,247,"2960 MURRAY VALLEY HIGHWAY, COBRAM EAST",-35.959556,145.702856,4.0,2.0,8,$380_per_week,House,July 2016,3644,2016,7,EAST,380,House
248,248,"2960 MURRAY VALLEY HIG WAY, COBRAM EAST",-35.959556,145.702856,5.0,2.0,2,$380,House,July 2016,3644,2016,7,EAST,380,House
249,249,"20-22 DELTA AVENUE, COBURG NORTH",-37.721387,144.958497,1.0,1.0,0,$170_per_week,House,August 2016,3058,2016,8,NORTH,170,House
250,250,"20-22 DELTA AVENUE, COBURG NORTH",-37.721387,144.958497,1.0,1.0,0,$170_per_week,House,July 2016,3058,2016,7,NORTH,170,House
251,251,"2A MANLY COURT, COBURG NORTH",-37.720577,144.970207,3.0,2.0,1,$490_pw,Rental_residential,February 2016,3058,2016,2,NORTH,490,Other
252,252,"2A MANLY COURT, COBURG NORTH",-37.720577,144.970207,3.0,2.0,1,$490_Week,Rental_residential,January 2016,3058,2016,1,NORTH,490,Other
253,253,"5/767 SYDNEY ROAD, COBURG NORTH",-37.732851,144.964529,1.0,1.0,1,$290_pw,Unit,February 2016,3058,2016,2,NORTH,290,Apartment
254,254,"46 CAMERA WALK, COBURG NORTH",-37.7287512,144.98089,2.0,2.0,2,$400_Weekly,Unit,October 2016,3058,2016,10,NORTH,400,Apartment
255,255,"60 CAMERA WALK, COBURG NORTH",-37.7287374,144.9807689,3.0,2.0,2,$500,Unit,November 2016,3058,2016,11,NORTH,500,Apartment
256,256,"30 SNAPSHOT DRIVE, COBURG NORTH",-37.7298475,144.9822987,3.0,2.0,2,$500_Week,Available Now,August 2016,3058,2016,8,NORTH,500,Other
257,257,"3/13 MARAMA STREET, COBURG NORTH",-37.719332,144.958411,2.0,1.0,1,$290_pw,none,March 2016,3058,2016,3,NORTH,290,Other
258,258,"3/41 ARTHUR STREET, COBURG NORTH",-37.723567,144.980436,2.0,1.0,1,$310_Weekly,Rental_residential,November 2016,3058,2016,11,NORTH,310,Other
259,259,"8 APERTURE STREET, COBURG NORTH",-37.7286659,144.9823644,3.0,2.0,2,$450_per_week,Townhouse,June 2016,3058,2016,6,NORTH,450,House
260,260,"10/23 BAXTER STREET, COBURG",-37.746319,144.963475,1.0,1.0,1,$260_Week,none,August 2016,3058,2016,8,COBURG,260,Other
261,261,"10/23 BAXTER STREET, COBURG",-37.746319,144.963475,1.0,1.0,1,$260_pw,none,July 2016,3058,2016,7,COBURG,260,Other
262,262,"1/40 LINSEY STREET, COBURG",-37.741183,144.953617,3.0,2.0,2,$580_per_week,none,August 2016,3058,2016,8,COBURG,580,Other
263,263,"41 LINSEY STREET, COBURG",-37.741145,144.952948,3.0,1.0,1,$390_pw,Rental_residential,November 2016,3058,2016,11,COBURG,390,Other
264,264,"1/203 NICHOLSON STREET, COBURG",-37.7428029,144.9776612,2.0,1.0,1,$350_pw,Rental_residential,December 2016,3058,2016,12,COBURG,350,Other
265,265,"9 BIGGS STREET, COBURG",-37.7309959,144.9814667,3.0,2.0,2,$510_per_week,none,January 2016,3058,2016,1,COBURG,510,Other
266,266,"19 SAUNDERS STREET, COBURG",-37.752043,144.950572,3.0,1.0,1,$485_pw,House,January 2016,3058,2016,1,COBURG,485,House
267,267,"14 ROLLS STREET, COBURG",-37.749829,144.968644,2.0,1.0,0,$550_per_week,none,May 2016,3058,2016,5,COBURG,550,Other
268,268,"14 ROLLS STREET, COBURG",-37.749829,144.968644,2.0,1.0,0,$550_per_week,none,April 2016,3058,2016,4,COBURG,550,Other
269,269,"5 ANKETELL STREET, COBURG",-37.745631,144.959669,4.0,1.0,1,$580_per_week,House,September 2016,3058,2016,9,COBURG,580,House
270,270,"5 ANKETELL STREET, COBURG",-37.745631,144.959669,4.0,1.0,1,$450_Week,House,April 2016,3058,2016,4,COBURG,450,House
271,271,"13 PARK STREET, COBURG",-37.745682,144.96768,2.0,1.0,2,$400_per_week,House,January 2016,3058,2016,1,COBURG,400,House
272,272,"177 URQUHART STREET, COBURG",-37.741016,144.975769,3.0,2.0,1,$500_Weekly,House,June 2016,3058,2016,6,COBURG,500,House
273,273,"2/7-9 BELL STREET, COBURG",-37.742764,144.977229,2.0,2.0,1,$390,Rental_residential,September 2016,3058,2016,9,COBURG,390,Other
274,274,"4/85 GAFFNEY STREET, COBURG",-37.733725,144.959773,2.0,1.0,1,$450_pw,House,March 2016,3058,2016,3,COBURG,450,House
275,275,"4/85 GAFFNEY STREET, COBURG",-37.733725,144.959773,2.0,1.0,1,$450_per_week,House,February 2016,3058,2016,2,COBURG,450,House
276,276,"4/85 GAFFNEY ST, COBURG",-37.733725,144.959773,2.0,1.0,1,$450_Weekly,House,March 2016,3058,2016,3,COBURG,450,House
277,277,"1/626 SYDNEY ROAD, COBURG",-37.735539,144.96646,2.0,1.0,1,$440_Weekly,none,November 2016,3058,2016,11,COBURG,440,Other
278,278,"1/626 SYDNEY ROAD, COBURG",-37.735539,144.96646,2.0,1.0,1,$310_per_week,none,February 2016,3058,2016,2,COBURG,310,Other
279,279,"14A HARDWICK STREET, COBURG",-37.749445,144.968678,2.0,1.0,0,$470_per_week,House,May 2016,3058,2016,5,COBURG,470,House
280,280,"2/56 THE AVENUE, COBURG",-37.752826,144.968178,2.0,2.0,1,$480_per_week,none,June 2016,3058,2016,6,COBURG,480,Other
281,281,"32A LOCH STREET, COBURG",-37.74664,144.962241,4.0,2.0,2,$600,none,October 2016,3058,2016,10,COBURG,600,Other
282,282,"9A MILLER STREET, COBURG",-37.750111,144.969125,3.0,1.0,0,$450,House,January 2016,3058,2016,1,COBURG,450,House
283,283,"2/3 SHAFTSBURY STREET, COBURG",-37.75354,144.953103,2.0,1.0,1,$480_per_week,Townhouse,June 2016,3058,2016,6,COBURG,480,House
284,284,"2/3 SHAFTSBURY STREET, COBURG",-37.75354,144.953103,2.0,1.0,1,$480_per_week,Townhouse,January 2016,3058,2016,1,COBURG,480,House
285,285,"2/3 SHAFTSBURY STREET, COBURG",-37.75354,144.953103,2.0,1.0,1,$500_per_week,Townhouse,January 2016,3058,2016,1,COBURG,500,House
286,286,"4/36 THE GROVE, COBURG",-37.751916,144.969914,2.0,1.0,1,$400,Townhouse,August 2016,3058,2016,8,COBURG,400,House
287,287,"36 FRANCIS STREET, COBURG",-37.7368624,144.9493732,3.0,1.0,1,$450_per_week,Townhouse,November 2016,3058,2016,11,COBURG,450,House
288,288,"2/1 CARR STREET, COBURG",-37.731194,144.970438,2.0,1.0,1,$350_per_week,House,June 2016,3058,2016,6,COBURG,350,House
289,289,"274 BELL STREET, COBURG",-37.73991,144.95405,3.0,1.0,2,$420_per_week,Available Now,November 2016,3058,2016,11,COBURG,420,Other
290,290,"237/14-20 NICHOLSON STREET, COBURG",-37.755441,144.975716,1.0,1.0,0,$300_Weekly,Available Now,May 2016,3058,2016,5,COBURG,300,Other
291,291,"42 PATTERSON STREET, COBURG",-37.748713,144.972564,3.0,2.0,2,$550_per_week,none,November 2016,3058,2016,11,COBURG,550,Other
292,292,"1 BECKWITH STREET, COBURG",-37.738086,144.965278,3.0,1.0,3,$470_per_week,none,April 2016,3058,2016,4,COBURG,470,Other
293,293,"41/14 BELL STREET, COBURG",-37.74239,144.977185,2.0,1.0,1,$380_pw,none,December 2016,3058,2016,12,COBURG,380,Other
294,294,"3/33 SHAFTSBURY STREET, COBURG",-37.751325,144.953636,3.0,1.0,1,$400_per_week,none,April 2016,3058,2016,4,COBURG,400,Other
295,295,"3/33 SHAFTSBURY STREET, COBURG",-37.751325,144.953636,3.0,1.0,1,$420_pw,none,February 2016,3058,2016,2,COBURG,420,Other
296,296,"3/33 SHAFTSBURY ST., COBURG",-37.751293,144.95336,3.0,1.0,1,$400_per_week,none,April 2016,3058,2016,4,COBURG,400,Other
297,297,"20 SHACKELL STREET, COBURG",-37.742317,144.952214,3.0,1.0,2,$460_Weekly,House,June 2016,3058,2016,6,COBURG,460,House
298,298,"2/185 MORELAND ROAD, COBURG",-37.755137,144.964836,3.0,1.0,1,$470_per_week,Townhouse,March 2016,3058,2016,3,COBURG,470,House
299,299,"2/185 MORELAND ROAD, COBURG",-37.755137,144.964836,3.0,1.0,1,$500_pw,Townhouse,February 2016,3058,2016,2,COBURG,500,House
300,300,"109A/41-43 STOCKADE AVENUE, COBURG",-37.7390664,144.9698398,1.0,1.0,1,$270_per_week,none,December 2016,3058,2016,12,COBURG,270,Other
301,301,"109A/41-43 STOCKADE AVENUE, COBURG",-37.7390664,144.9698398,1.0,1.0,1,$260_per_week,none,February 2016,3058,2016,2,COBURG,260,Other
302,302,"20/1 MANNA GUM COURT, COBURG",-37.737353,144.976093,3.0,2.0,2,$500_pw,none,December 2016,3058,2016,12,COBURG,500,Other
303,303,"69A MORELAND ROAD, COBURG",-37.756399,144.97422,3.0,1.0,1,$380_pw,none,February 2016,3058,2016,2,COBURG,380,Other
304,304,"27 HARDING STREET, COBURG",-37.745161,144.969769,2.0,1.0,1,$495_pw,none,June 2016,3058,2016,6,COBURG,495,Other
305,305,"26 SNAPSHOT DRIVE, COBURG",-37.72998,144.9824245,3.0,2.0,2,$500_per_week,none,July 2016,3058,2016,7,COBURG,500,Other
306,306,"4/17 SAUNDERS STREET, COBURG",-37.752209,144.950437,2.0,1.0,1,$330_per_week,Unit,February 2016,3058,2016,2,COBURG,330,Apartment
307,307,"11/5 JESSIE STREET, COBURG",-37.754099,144.960515,2.0,1.0,1,$300_Weekly,Unit,October 2016,3058,2016,10,COBURG,300,Apartment
308,308,"6/15-17 DECARLE STREET, COBURG",-37.753054,144.966247,1.0,1.0,1,$245,Unit,November 2016,3058,2016,11,COBURG,245,Apartment
309,309,"10/345 MORELAND ROAD, COBURG",-37.753767,144.952453,1.0,1.0,1,$240_per_week,Unit,January 2016,3058,2016,1,COBURG,240,Apartment
310,310,"REAR/112 BELL STREET, COBURG",-37.741066,144.965639,3.0,1.0,0,$450_pw,House,December 2016,3058,2016,12,COBURG,450,House
311,311,"3/11 METHVEN STREET, COBURG",-37.746901,144.963811,2.0,1.0,1,$370_per_week,none,February 2016,3058,2016,2,COBURG,370,Other
312,312,"332/12-20 NICHOLSON STREET, COBURG",-37.75544,144.975529,2.0,1.0,1,$340_pw,Rental_residential,February 2016,3058,2016,2,COBURG,340,Other
313,313,"5/144 NICHOLSON STREET, COBURG",-37.745681,144.977713,2.0,1.0,1,$290_pw,none,December 2016,3058,2016,12,COBURG,290,Other
314,314,"5/144 NICHOLSON STREET, COBURG",-37.745681,144.977713,2.0,1.0,1,$290_pw,none,November 2016,3058,2016,11,COBURG,290,Other
315,315,"5/144 NICHOLSON STREET, COBURG",-37.745681,144.977713,2.0,1.0,1,$310_per_week,none,May 2016,3058,2016,5,COBURG,310,Other
316,316,"5/144 NICHOLSON STREET, COBURG",-37.745681,144.977713,2.0,1.0,1,$300_pw,none,April 2016,3058,2016,4,COBURG,300,Other
317,317,"46 BERRY STREET, COBURG",-37.746066,144.95825,3.0,1.0,3,$460_pw,none,February 2016,3058,2016,2,COBURG,460,Other
318,318,"4/15 BRUCE STREET, COBURG",-37.745675,144.947684,3.0,1.0,1,$430_per_week,none,June 2016,3058,2016,6,COBURG,430,Other
319,319,"23A MURRAY STREET, COBURG",-37.738829,144.958816,3.0,1.0,1,$450_pw,none,June 2016,3058,2016,6,COBURG,450,Other
320,320,"23A MURRAY STREET, COBURG",-37.738829,144.958816,3.0,1.0,1,$450_Week,none,May 2016,3058,2016,5,COBURG,450,Other
321,321,"1/51-53 STOCKADE AVENUE, COBURG",-37.7383959,144.9702691,3.0,3.0,2,$510_per_week,Townhouse,June 2016,3058,2016,6,COBURG,510,House
322,322,"28 SARGOOD STREET, COBURG",-37.747845,144.963683,2.0,1.0,1,$450_Week,Rental_residential,November 2016,3058,2016,11,COBURG,450,Other
323,323,"28 LINDA STREET, COBURG",-37.750645,144.960192,3.0,1.0,2,$630_per_week,Available Now,February 2016,3058,2016,2,COBURG,630,Other
324,324,"54A SHEFFIELD STREET, COBURG",-37.747091,144.971109,3.0,1.0,1,$525_pw,Townhouse,April 2016,3058,2016,4,COBURG,525,House
325,325,"3/618 SYDNEY ROAD, COBURG",-37.735994,144.966585,3.0,1.0,1,$350_Weekly,none,June 2016,3058,2016,6,COBURG,350,Other
326,326,"27 SAUNDERS STREET, COBURG",-37.751542,144.950563,2.0,1.0,0,$430_per_week,none,January 2016,3058,2016,1,COBURG,430,Other
327,327,"3/22 CHAMBERS STREET, COBURG",-37.747267,144.96884,2.0,1.0,1,$370_pw,none,March 2016,3058,2016,3,COBURG,370,Other
328,328,"3/22 CHAMBERS STREET, COBURG",-37.747267,144.96884,2.0,1.0,1,$370_pw,none,February 2016,3058,2016,2,COBURG,370,Other
329,329,"28B COBURG STREET, COBURG",-37.747912,144.971097,2.0,1.0,0,$500_pw,House,May 2016,3058,2016,5,COBURG,500,House
330,330,"19 SERVICE STREET, COBURG",-37.739671,144.96189,3.0,2.0,1,$595_pw,House,December 2016,3058,2016,12,COBURG,595,House
331,331,"8/9 THE GROVE, COBURG",-37.7513113,144.9665701,2.0,1.0,1,$350_Week,Rental_residential,February 2016,3058,2016,2,COBURG,350,Other
332,332,"18/2 ALICE STREET, COBURG",-37.743803,144.957178,2.0,1.0,1,$260_p.w.,none,January 2016,3058,2016,1,COBURG,260,Other
333,333,"22 BELGRAVE-GEMBROOK ROAD, COCKATOO",-37.936065,145.494084,3.0,1.0,0,$350_per_week,Rental_residential,February 2016,3781,2016,2,COCKATOO,350,Other
334,334,"2 BELGRAVE AVENUE, COCKATOO",-37.92732,145.495818,4.0,2.0,6,$380,Rental_residential,January 2016,3781,2016,1,COCKATOO,380,Other
335,335,"7 NEVILLE STREET, COCKATOO",-37.942416,145.490977,2.0,1.0,0,$300_per_week,House,October 2016,3781,2016,10,COCKATOO,300,House
336,336,"22 GLEN ROAD, COCKATOO",-37.937274,145.486381,2.0,1.0,0,$340_per_week,House,November 2016,3781,2016,11,COCKATOO,340,House
337,337,"111 WOORI YALLOCK ROAD, COCKATOO",-37.926367,145.494886,3.0,2.0,2,$365_per_week,House,January 2016,3781,2016,1,COCKATOO,365,House
338,338,"18 DEVON AVENUE, COCKATOO",-37.933329,145.495013,3.0,1.0,2,$330_per_week,House,February 2016,3781,2016,2,COCKATOO,330,House
339,339,"18 DEVON AVENUE, COCKATOO",-37.933329,145.495013,3.0,1.0,2,$330_Weekly,House,January 2016,3781,2016,1,COCKATOO,330,House
340,340,"55 FIRST AVENUE, COCKATOO",-37.941172,145.486123,3.0,1.0,3,$335_per_week,Rental_residential,April 2016,3781,2016,4,COCKATOO,335,Other
341,341,"15 HAZEL STREET, COCKATOO",-37.940345,145.488763,3.0,2.0,2,$355_per_week,House,September 2016,3781,2016,9,COCKATOO,355,House
342,342,"17 SAMPSON ST, COHUNA",-35.810927,144.216164,3.0,1.0,2,$200_pw,House,February 2016,3568,2016,2,COHUNA,200,House
343,343,"1/27 DOWLING STREET, COLAC",-38.351997,143.582613,3.0,1.0,1,$280_per_week,none,July 2016,3250,2016,7,COLAC,280,Other
344,344,"63 HART STREET, COLAC",-38.346044,143.579731,3.0,1.0,1,$240_-_$1040_per_week,House,March 2016,3250,2016,3,COLAC,1040,House
345,345,"63 HART STREET, COLAC",-38.346044,143.579731,3.0,1.0,1,$240_per_week,House,February 2016,3250,2016,2,COLAC,240,House
346,346,"29 NELSON STREET, COLAC",-38.341895,143.571744,3.0,1.0,2,$310_Weekly,House,June 2016,3250,2016,6,COLAC,310,House
347,347,"147 ARMSTRONG STREET, COLAC",-38.349128,143.574251,3.0,1.0,2,$260_Weekly,House,July 2016,3250,2016,7,COLAC,260,House
348,348,"102 QUEEN STREET, COLAC",-38.344296,143.592366,2.0,1.0,1,$245_Weekly,Townhouse,August 2016,3250,2016,8,COLAC,245,House
349,349,"1/7 CAMPBELL STREET, COLAC",-38.34482193,143.58259583,2.0,1.0,1,$230_per_week,House,June 2016,3250,2016,6,COLAC,230,House
350,350,"26 DENNIS STREET, COLAC",-38.3387579,143.586014,3.0,1.0,1,$200_per_week,House,September 2016,3250,2016,9,COLAC,200,House
351,351,"22 GRAVESEND STREET, COLAC",-38.346357,143.5853,3.0,2.0,1,$300_per_week,none,November 2016,3250,2016,11,COLAC,300,Other
352,352,"10A WITHAM DRIVE, COLDSTREAM",-37.729977,145.382792,3.0,2.0,2,$375_Weekly,House,July 2016,3770,2016,7,COLDSTREAM,375,House
353,353,"10A WITHAM DRIVE, COLDSTREAM",-37.729977,145.382792,3.0,2.0,2,$375,House,June 2016,3770,2016,6,COLDSTREAM,375,House
354,354,"10A WITHAM DRIVE, COLDSTREAM",-37.729977,145.382792,3.0,2.0,2,$385,House,June 2016,3770,2016,6,COLDSTREAM,385,House
355,355,"17 NORTH GATEWAY, COLDSTREAM",-37.727807,145.380801,3.0,2.0,1,$400,House,October 2016,3770,2016,10,COLDSTREAM,400,House
356,356,"17 NORTH GATEWAY, COLDSTREAM",-37.727807,145.380801,3.0,2.0,1,$400,House,September 2016,3770,2016,9,COLDSTREAM,400,House
357,357,"7 BEDE AVENUE, COLDSTREAM",-37.733786,145.385345,4.0,2.0,2,$600_-_$630_pw,House,July 2016,3770,2016,7,COLDSTREAM,630,House
358,358,"7 BEDE AVENUE, COLDSTREAM",-37.733786,145.385345,4.0,2.0,2,$395_pw,House,July 2016,3770,2016,7,COLDSTREAM,395,House
359,359,"21 KILLARA ROAD, COLDSTREAM",-37.722431,145.390804,4.0,1.0,2,$450_p.w.,Rental_residential,October 2016,3770,2016,10,COLDSTREAM,450,Other
360,360,"10A WITHAM DR, COLDSTREAM",-37.729977,145.382792,3.0,2.0,2,$375_Weekly,House,June 2016,3770,2016,6,COLDSTREAM,375,House
361,361,"28 MCLEOD STREET, COLERAINE",-37.599876,141.697541,3.0,1.0,1,$110_per_week,House,October 2016,3315,2016,10,COLERAINE,110,House
362,362,"33 CHURCH STREET, COLERAINE",-37.60373,141.696369,3.0,1.0,1,$150_per_week,none,September 2016,3315,2016,9,COLERAINE,150,Other
363,363,"3844 GLENELG HIGHWAY, COLERAINE",-37.59233633,141.6458652,3.0,1.0,2,$250_pw,none,July 2016,3315,2016,7,COLERAINE,250,Other
364,364,"25 CHURCH STREET, COLERAINE",-37.603805,141.697068,3.0,1.0,1,$170_p.w.,House,November 2016,3315,2016,11,COLERAINE,170,House
365,365,"3 MCCONOCHIE STREET, COLERAINE",-37.603077,141.700024,2.0,1.0,1,$150,House,January 2016,3315,2016,1,COLERAINE,150,House
366,366,"3844 GLENELG HWY, COLERAINE",-37.591537,141.645956,3.0,1.0,2,$250_p.w.,none,August 2016,3315,2016,8,COLERAINE,250,Other
367,367,"3844 GLENELG HWY, COLERAINE",-37.591537,141.645956,3.0,1.0,2,$250_Weekly,none,July 2016,3315,2016,7,COLERAINE,250,Other
368,368,"24 WHYTE STREET, COLERAINE",-37.598971,141.698224,3.0,1.0,0,$160_per_week,none,July 2016,3315,2016,7,COLERAINE,160,Other
369,369,"2620 GLENELG HIGHWAY, COLERAINE",-37.621716,141.773629,3.0,1.0,2,$200_per_week,none,June 2016,3315,2016,6,COLERAINE,200,Other
370,370,"51 MCCONOCHIE STREET, COLERAINE",-37.602501,141.694156,3.0,1.0,1,$170,none,January 2016,3315,2016,1,COLERAINE,170,Other
371,371,"51 MCCONOCHIE ST, COLERAINE",-37.602501,141.694156,3.0,1.0,1,$170_Weekly,none,January 2016,3315,2016,1,COLERAINE,170,Other
372,372,"3 MCCONOCHIE ST, COLERAINE",-37.603077,141.700024,2.0,1.0,0,$150_Weekly,none,January 2016,3315,2016,1,COLERAINE,150,Other
373,373,"143 LANGRIDGE STREET, COLLINGWOOD",-37.807174,144.990109,3.0,1.0,0,$650_pw,House,December 2016,3066,2016,12,COLLINGWOOD,650,House
374,374,"2/19-23 BENDIGO STREET, COLLINGWOOD",-37.795915,144.992664,1.0,1.0,1,$240_per_week,none,June 2016,3066,2016,6,COLLINGWOOD,240,Other
375,375,"501/41 PEEL STREET, COLLINGWOOD",-37.8054248,144.985715,2.0,2.0,1,$575_pw,Rental_residential,October 2016,3066,2016,10,COLLINGWOOD,575,Other
376,376,"2/136 OXFORD STREET, COLLINGWOOD",-37.803526,144.985039,2.0,1.0,1,$695_Week,Rental_residential,September 2016,3066,2016,9,COLLINGWOOD,695,Other
377,377,"305/10 STANLEY STREET, COLLINGWOOD",-37.80182,144.984563,3.0,1.0,1,$630_pw,Rental_residential,February 2016,3066,2016,2,COLLINGWOOD,630,Other
379,379,"18/34 SMITH STREET, COLLINGWOOD",-37.807413,144.983606,1.0,1.0,1,$395_pw,Rental_residential,January 2016,3066,2016,1,COLLINGWOOD,395,Other
380,380,"14/34 SMITH STREET, COLLINGWOOD",-37.8072953,144.9828207,1.0,1.0,1,$395_per_week,Rental_residential,February 2016,3066,2016,2,COLLINGWOOD,395,Other
381,381,"601/45 VICTORIA PARADE, COLLINGWOOD",-37.808699,144.98413,2.0,1.0,0,$400_pw,House,July 2016,3066,2016,7,COLLINGWOOD,400,House
382,382,"40 DIGHT STREET, COLLINGWOOD",-37.802732,144.988604,3.0,2.0,2,$950,Townhouse,April 2016,3066,2016,4,COLLINGWOOD,950,House
383,383,"40 DIGHT STREET, COLLINGWOOD",-37.802732,144.988604,3.0,2.0,2,$950_pw,Townhouse,March 2016,3066,2016,3,COLLINGWOOD,950,House
384,384,"133 HOTHAM STREET, COLLINGWOOD",-37.797076,144.991962,3.0,1.0,1,$650_per_week,House,December 2016,3066,2016,12,COLLINGWOOD,650,House
385,385,"2/45 DERBY STREET, COLLINGWOOD",-37.807164,144.984949,2.0,1.0,0,$450_pw,Rental_residential,September 2016,3066,2016,9,COLLINGWOOD,450,Other
386,386,"304/44 BEDFORD STREET, COLLINGWOOD",-37.801579,144.98484,2.0,1.0,1,$530_per_week,Available Now,May 2016,3066,2016,5,COLLINGWOOD,530,Other
387,387,"405/50 STANLEY STREET, COLLINGWOOD",-37.8022316,144.9857042,1.0,1.0,0,$350,Available Now,October 2016,3066,2016,10,COLLINGWOOD,350,Other
388,388,"8/78 OXFORD STREET, COLLINGWOOD",-37.803368,144.985101,1.0,1.0,1,$395_per_week,Unit,February 2016,3066,2016,2,COLLINGWOOD,395,Apartment
389,389,"121 KEELE STREET, COLLINGWOOD",-37.797631,144.990686,2.0,1.0,0,$610_per_week,House,November 2016,3066,2016,11,COLLINGWOOD,610,House
390,390,"403/40 STANLEY STREET, COLLINGWOOD",-37.8021818,144.9853665,1.0,1.0,1,$405_per_week,Unit,March 2016,3066,2016,3,COLLINGWOOD,405,Apartment
391,391,"303/77A LITLLE OXFORD ST, COLLINGWOOD",-37.8031761,144.9842179,2.0,1.0,1,$500_per_week,Unit,July 2016,3066,2016,7,COLLINGWOOD,500,Apartment
392,392,"106T/70 STANLEY STREET, COLLINGWOOD",-37.8020642,144.9857329,2.0,1.0,1,$490,Unit,August 2016,3066,2016,8,COLLINGWOOD,490,Apartment
393,393,"506/103-107 OXFORD STREET, COLLINGWOOD",-37.80316,144.984807,2.0,1.0,1,$560_pw,Rental_residential,April 2016,3066,2016,4,COLLINGWOOD,560,Other
394,394,"9/78 OXFORD STREET, COLLINGWOOD",-37.807815,144.983906,1.0,1.0,1,$395_per_week,Available Now,January 2016,3066,2016,1,COLLINGWOOD,395,Other
395,395,"3/20 BEDFORD STREET, COLLINGWOOD",-37.800633,144.984904,2.0,1.0,1,$700_per_week,none,September 2016,3066,2016,9,COLLINGWOOD,700,Other
396,396,"4GF/50 STANLEY STREET, COLLINGWOOD",-37.8022219,144.9857824,2.0,1.0,1,$530_pw,Rental_residential,June 2016,3066,2016,6,COLLINGWOOD,530,Other
397,397,"1/119A JOHNSTON STREET, COLLINGWOOD",-37.799669,144.988681,3.0,1.0,0,$500,none,June 2016,3066,2016,6,COLLINGWOOD,500,Other
398,398,"55 CAMPBELL STREET, COLLINGWOOD",-37.802631,144.988995,3.0,1.0,0,$650_pw,none,October 2016,3066,2016,10,COLLINGWOOD,650,Other
399,399,"G01/40 STANLEY STREET, COLLINGWOOD",-37.8021816,144.9853665,1.0,1.0,1,$350_per_week,none,June 2016,3066,2016,6,COLLINGWOOD,350,Other
400,400,"625/45 VICTORIA PARADE, COLLINGWOOD",-37.808835,144.984151,1.0,1.0,0,$255_per_week,Rental_residential,June 2016,3066,2016,6,COLLINGWOOD,255,Other
401,401,"625/45 VICTORIA PARADE, COLLINGWOOD",-37.808835,144.984151,1.0,1.0,0,$240_per_week,Rental_residential,June 2016,3066,2016,6,COLLINGWOOD,240,Other
402,402,"145 LANGRIDGE STREET, COLLINGWOOD",-37.80717,144.990177,3.0,1.0,0,$740_Week,House,March 2016,3066,2016,3,COLLINGWOOD,740,House
403,403,"6/15-25 OXFORD STREET, COLLINGWOOD",-37.807803,144.984175,2.0,1.0,1,$520_pw,none,September 2016,3066,2016,9,COLLINGWOOD,520,Other
404,404,"6/15-25 OXFORD STREET, COLLINGWOOD",-37.807803,144.984175,2.0,1.0,1,$540_Week,none,July 2016,3066,2016,7,COLLINGWOOD,540,Other
405,405,"15 ALEXANDER STREET, COLLINGWOOD",-37.795869,144.99107,2.0,2.0,0,$575_per_week,House,July 2016,3066,2016,7,COLLINGWOOD,575,House
406,406,"265 UPPER CONDAH-HOTSPUR ROAD, CONDAH",-37.9477894,141.5814524,4.0,1.0,2,$220_per_week,House,December 2016,3303,2016,12,CONDAH,220,House
407,407,"265 UPPER CONDAH-HOTSPUR ROAD, CONDAH",-37.9477894,141.5814524,4.0,1.0,2,$220_per_week,House,February 2016,3303,2016,2,CONDAH,220,House
408,408,"265 UPPER CONDAH-HOTSPUR ROAD, CONDAH",-37.9477894,141.5814524,4.0,1.0,2,$220_per_week,House,January 2016,3303,2016,1,CONDAH,220,House
409,409,"900 GOULBURN VALLEY HIGHWAY, CONGUPNA",-36.3064253,145.4291116,3.0,1.0,2,$220_pw,House,November 2016,3633,2016,11,CONGUPNA,220,House
410,410,"235 KNIGHTS ROAD, CONGUPNA",-36.323892,145.458638,3.0,1.0,1,$280_pw,none,October 2016,3633,2016,10,CONGUPNA,280,Other
411,411,"170 KNIGHTS ROAD, CONGUPNA",-36.3242917,145.4508308,4.0,2.0,2,$320_per_week,none,September 2016,3633,2016,9,CONGUPNA,320,Other
412,412,"836 LEMNOS NORTH ROAD, CONGUPNA",-36.290174,145.465332,5.0,2.0,3,$500_Weekly,none,February 2016,3633,2016,2,CONGUPNA,500,Other
413,413,"4 BAENSCHS LANE, CONNEWARRE",-38.2503967,144.3887244,3.0,2.0,2,$420_per_week,House,September 2016,3228,2016,9,CONNEWARRE,420,House
414,414,"6 BAENSCHS LANE, CONNEWARRE",-38.2503698,144.3885202,2.0,1.0,0,$320_per_week,none,October 2016,3228,2016,10,CONNEWARRE,320,Other
415,415,"45 BUSHFIELD CRESCENT, COOLAROO",-37.662135,144.932207,3.0,1.0,1,$320,House,November 2016,3048,2016,11,COOLAROO,320,House
416,416,"45 BUSHFIELD CRESCENT, COOLAROO",-37.662135,144.932207,3.0,1.0,1,$320_per_week,House,October 2016,3048,2016,10,COOLAROO,320,House
417,417,"8 HILGAY STREET, COOLAROO",-37.661934,144.936185,3.0,1.0,2,$335_pw,House,April 2016,3048,2016,4,COOLAROO,335,House
418,418,"8 HILGAY STREET, COOLAROO",-37.661934,144.936185,3.0,1.0,2,$330_pw,House,February 2016,3048,2016,2,COOLAROO,330,House
419,419,"35 CHILDERS CRESCENT, COOLAROO",-37.660537,144.92796,3.0,1.0,2,$325_per_week,House,June 2016,3048,2016,6,COOLAROO,325,House
420,420,"4 EDI COURT, COOLAROO",-37.663448,144.931865,3.0,1.0,1,$315,Rental_residential,February 2016,3048,2016,2,COOLAROO,315,Other
421,421,"6 LOVAT COURT, COOLAROO",-37.654336,144.930513,3.0,1.0,2,$290_pw,Rental_residential,February 2016,3048,2016,2,COOLAROO,290,Other
422,422,"18 MOYNE CRESCENT, COOLAROO",-37.656359,144.930264,3.0,1.0,1,$300_Weekly,House,August 2016,3048,2016,8,COOLAROO,300,House
423,423,"18 MOYNE CRESCENT, COOLAROO",-37.656359,144.930264,3.0,1.0,1,$310_Weekly,House,August 2016,3048,2016,8,COOLAROO,310,House
424,424,"815 BREWER ROAD, COOMA",-36.4004893,145.0449248,4.0,1.0,1,$325_per_week,House,May 2016,3616,2016,5,COOMA,325,House
425,425,"231 RYANS ROAD, COONGULLA",-37.8938349,146.7884342,3.0,1.0,2,$250_per_week,House,November 2016,3860,2016,11,COONGULLA,250,House
426,426,"231 RYANS ROAD, COONGULLA",-37.8938349,146.7884342,3.0,1.0,2,$250_per_week,House,August 2016,3860,2016,8,COONGULLA,250,House
427,427,"275 RYANS ROAD, COONGULLA",-37.8938349,146.7884342,3.0,1.0,4,$300_pw,House,August 2016,3860,2016,8,COONGULLA,300,House
428,428,"26 RYANS ROAD, COONGULLA",-37.892289,146.786497,3.0,2.0,0,$310_pw,none,February 2016,3860,2016,2,COONGULLA,310,Other
429,429,"SKENE COURT, COONGULLA",-37.8948988,146.7843062,3.0,2.0,2,$200_pw,none,January 2016,3860,2016,1,COONGULLA,200,Other
430,430,"311 COORIEMUNGLE ROAD, COORIEMUNGLE",-38.53489269,143.0530666,3.0,2.0,2,$260_per_week,House,May 2016,3268,2016,5,COORIEMUNGLE,260,House
431,431,"635 BUNYIP RIVER ROAD, CORA LYNN",-38.138998,145.623274,3.0,1.0,2,$440,none,October 2016,3814,2016,10,LYNN,440,Other
432,432,"140 CORAGULAC-BEEAC ROAD, CORAGULAC",-38.250218,143.5406638,3.0,1.0,2,$200_per_week,House,June 2016,3249,2016,6,CORAGULAC,200,House
433,433,"140 CORAGULAC BEEAC ROAD, CORAGULAC",-38.250218,143.5406638,3.0,1.0,0,$200_per_week,none,June 2016,3249,2016,6,CORAGULAC,200,Other
434,434,"170 LINEENS ROAD, CORAGULAC",-38.26738169,143.49958124,4.0,2.0,2,$175,none,April 2016,3249,2016,4,CORAGULAC,175,Other
435,435,"10 HAMELIN CLOSE, CORINELLA",-38.411935,145.43735,3.0,2.0,3,$280_Weekly,House,December 2016,3984,2016,12,CORINELLA,280,House
436,436,"20 WRIGHT STREET, CORINELLA",-38.413258,145.426706,1.0,1.0,2,$200,none,August 2016,3984,2016,8,CORINELLA,200,Other
437,437,"20 WRIGHT STREET, CORINELLA",-38.413258,145.426706,1.0,1.0,2,$180_pw,none,March 2016,3984,2016,3,CORINELLA,180,Other
438,438,"58 SMYTHE STREET, CORINELLA",-38.413983,145.430664,3.0,2.0,1,$350,House,December 2016,3984,2016,12,CORINELLA,350,House
439,439,"58 SMYTHE STREET, CORINELLA",-38.413983,145.430664,3.0,2.0,1,$375_pw,House,May 2016,3984,2016,5,CORINELLA,375,House
440,440,"30 INDIANA AVENUE, CORIO",-38.079434,144.357227,3.0,1.0,2,$230,Rental_residential,January 2016,3214,2016,1,CORIO,230,Other
441,441,"189 BACCHUS MARSH ROAD, CORIO",-38.068617,144.358095,3.0,1.0,1,$290_per_week,House,April 2016,3214,2016,4,CORIO,290,House
442,442,"33 CANADIAN PARADE, CORIO",-38.076466,144.361395,3.0,1.0,1,$220_per_week,House,May 2016,3214,2016,5,CORIO,220,House
443,443,"15 GLENELG AVENUE, CORIO",-38.07539,144.352513,3.0,1.0,2,$270_per_week,none,April 2016,3214,2016,4,CORIO,270,Other
444,444,"12 GOODALL COURT, CORIO",-38.064694,144.370263,3.0,1.0,2,$225_per_week,House,April 2016,3214,2016,4,CORIO,225,House
445,445,"6 VICKERS COURT, CORIO",-38.066614,144.354408,3.0,2.0,2,$320_Weekly,House,August 2016,3214,2016,8,CORIO,320,House
446,446,"6 VICKERS CT, CORIO",-38.0666675,144.3543768,3.0,2.0,2,$320_Weekly,House,August 2016,3214,2016,8,CORIO,320,House
447,447,"42 MICHIGAN AVENUE, CORIO",-38.075924,144.366588,3.0,1.0,3,$250,none,August 2016,3214,2016,8,CORIO,250,Other
448,448,"42 MICHIGAN AVENUE, CORIO",-38.075924,144.366588,3.0,1.0,3,$250_pw,none,July 2016,3214,2016,7,CORIO,250,Other
449,449,"2/131 PURNELL ROAD, CORIO",-38.073556,144.3537559,2.0,1.0,1,$200,House,November 2016,3214,2016,11,CORIO,200,House
450,450,"14 CORANGAMITE DRIVE, CORIO",-38.067773,144.34357,4.0,1.0,2,$295_Weekly,House,January 2016,3214,2016,1,CORIO,295,House
451,451,"89 COLORADO DRIVE, CORIO",-38.078145,144.350478,3.0,1.0,1,$235_Weekly,House,March 2016,3214,2016,3,CORIO,235,House
452,452,"5 CAITHNESS CRESCENT, CORIO",-38.073268,144.356933,3.0,1.0,3,$285_pw,Rental_residential,March 2016,3214,2016,3,CORIO,285,Other
453,453,"5 CAITHNESS CRESCENT, CORIO",-38.073268,144.356933,3.0,1.0,3,$285_pw,Rental_residential,February 2016,3214,2016,2,CORIO,285,Other
454,454,"72 ONTARIO AVENUE, CORIO",-38.074901,144.360334,3.0,1.0,1,$270_Weekly,Rental_residential,August 2016,3214,2016,8,CORIO,270,Other
455,455,"3/8-9 FIELDMAN COURT, CORIO",-38.068974,144.350346,2.0,1.0,1,$265_per_week,none,March 2016,3214,2016,3,CORIO,265,Other
456,456,"4 CHESHIRE STREET, CORIO",-38.073003,144.353327,3.0,1.0,4,$285_per_week,none,February 2016,3214,2016,2,CORIO,285,Other
457,457,"4 CHESHIRE STREET, CORIO",-38.073003,144.353327,3.0,1.0,4,$285_per_week,none,January 2016,3214,2016,1,CORIO,285,Other
458,458,"12 CARAMUT COURT, CORIO",-38.066684,144.342205,3.0,2.0,2,$280_pw,House,December 2016,3214,2016,12,CORIO,280,House
459,459,"12 CARAMUT COURT, CORIO",-38.066684,144.342205,3.0,2.0,2,$280_pw,House,November 2016,3214,2016,11,CORIO,280,House
460,460,"12 CARAMUT COURT, CORIO",-38.066684,144.342205,3.0,2.0,2,$250_Weekly,House,April 2016,3214,2016,4,CORIO,250,House
461,461,"12 CARAMUT COURT, CORIO",-38.066684,144.342205,3.0,2.0,2,$250_Weekly,House,January 2016,3214,2016,1,CORIO,250,House
462,462,"22 KENNEDY STREET, CORNELLA",-36.6493536,144.8485433,3.0,1.0,2,$290_Weekly,House,January 2016,3551,2016,1,CORNELLA,290,House
463,463,"37 CUTTY SARK ROAD, CORONET BAY",-38.438772,145.442029,3.0,1.0,2,$250,House,December 2016,3984,2016,12,BAY,250,House
464,464,"1 BASS HORIZON PROMENADE, CORONET BAY",-38.4384754,145.4448245,3.0,1.0,1,$275,none,November 2016,3984,2016,11,BAY,275,Other
465,465,"32-34 GELLIBRAND STREET, CORONET BAY",-38.435015,145.441309,3.0,2.0,2,$400_Weekly,none,December 2016,3984,2016,12,BAY,400,Other
466,466,"31 SEMAPHORE STREET, CORONET BAY",-38.435789,145.442779,2.0,1.0,1,$250_pw,none,May 2016,3984,2016,5,BAY,250,Other
467,467,"31 SEMAPHORE STREET, CORONET BAY",-38.435789,145.442779,2.0,1.0,1,$250_per_week,none,April 2016,3984,2016,4,BAY,250,Other
468,468,"27 GELLIBRAND STREET, CORONET BAY",-38.435655,145.440615,3.0,1.0,1,$270_Weekly,House,December 2016,3984,2016,12,BAY,270,House
469,469,"521 CORANGAMITE LAKE ROAD, COROROOKE",-38.289201,143.522132,3.0,1.0,1,$180_per_week,none,March 2016,3254,2016,3,COROROOKE,180,Other
470,470,"565 CORANGAMITE LAKE ROAD, COROROOKE",-38.285342,143.521872,4.0,1.0,2,$300_per_week,House,April 2016,3254,2016,4,COROROOKE,300,House
471,471,"523 CORANGAMITE LAKE ROAD, COROROOKE",-38.2890562,143.5225133,3.0,1.0,2,$190_per_week,none,August 2016,3254,2016,8,COROROOKE,190,Other
472,472,"523 CORANGAMITE LAKE ROAD, COROROOKE",-38.2890562,143.5225133,3.0,1.0,2,$190_per_week,none,July 2016,3254,2016,7,COROROOKE,190,Other
473,473,"450 CORANGAMITE LAKE RD, COROROOKE",-38.29669,143.525912,4.0,1.0,0,$250_-_$1083_per_week,House,December 2016,3254,2016,12,COROROOKE,1083,House
474,474,"450 CORANGAMITE LAKE RD, COROROOKE",-38.29669,143.525912,4.0,1.0,0,$250_per_week,House,December 2016,3254,2016,12,COROROOKE,250,House
475,475,"406 LAKE CORANGAMITE ROAD, COROROOKE",-38.301174,143.525917,3.0,1.0,3,$220,none,November 2016,3254,2016,11,COROROOKE,220,Other
476,476,"406 LAKE CORANGAMITE ROAD, COROROOKE",-38.301174,143.525917,3.0,1.0,3,$220_Weekly,none,October 2016,3254,2016,10,COROROOKE,220,Other
477,477,"406 LAKE CORANGAMITE ROAD, COROROOKE",-38.301174,143.525917,3.0,1.0,3,$220,none,July 2016,3254,2016,7,COROROOKE,220,Other
478,478,"406 LAKE CORANGAMITE ROAD, COROROOKE",-38.301174,143.525917,3.0,1.0,3,$210_Weekly,none,February 2016,3254,2016,2,COROROOKE,210,Other
479,479,"406 LAKE CORANGAMITE ROAD, COROROOKE",-38.301174,143.525917,3.0,1.0,3,$220,none,February 2016,3254,2016,2,COROROOKE,220,Other
480,480,"406 LAKE CORANGAMITE ROAD, COROROOKE",-38.301174,143.525917,3.0,1.0,3,$210_Weekly,none,January 2016,3254,2016,1,COROROOKE,210,Other
481,481,"280 SHEEHANS ROAD, COROROOKE",-38.292783,143.539885,3.0,1.0,2,$275_per_week,none,June 2016,3254,2016,6,COROROOKE,275,Other
483,483,"529 CORANGAMITE ROAD, COROROOKE",-38.288618,143.521875,3.0,1.0,1,$953_per_week,House,June 2016,3254,2016,6,COROROOKE,953,House
484,484,"529 CORANGAMITE ROAD, COROROOKE",-38.288618,143.521875,3.0,1.0,1,$220_per_week,House,June 2016,3254,2016,6,COROROOKE,220,House
485,485,"567 CORANGAMITE LAKE ROAD, COROROOKE",-38.285328,143.521878,3.0,2.0,4,$265_per_week,House,May 2016,3254,2016,5,COROROOKE,265,House
486,486,"406 LAKE CORANGAMITE RD, COROROOKE",-38.301174,143.525917,3.0,1.0,0,$210_Weekly,House,February 2016,3254,2016,2,COROROOKE,210,House
487,487,"65 TOWONG ROAD, CORRYONG",-36.1906622,147.9124236,3.0,1.0,2,$220_per_week,House,January 2016,3707,2016,1,CORRYONG,220,House
488,488,"2 WALTER PLACE, VALLEY VIEW ESTATE, CORRYONG",-36.196814,147.905135,2.0,1.0,1,$190_per_week,House,July 2016,3707,2016,7,CORRYONG,190,House
489,489,"116 HANSON STREET, CORRYONG",-36.197664,147.898817,3.0,1.0,1,$300,House,October 2016,3707,2016,10,CORRYONG,300,House
490,490,"116 HANSON STREET, CORRYONG",-36.197664,147.898817,3.0,1.0,1,$300_pw,House,July 2016,3707,2016,7,CORRYONG,300,House
491,491,"5 WARD LANE, COSTERFIELD",-36.878089,144.79851,2.0,1.0,7,$250,none,April 2016,3523,2016,4,COSTERFIELD,250,Other
493,493,"2 ALBANY ROAD, COWES",-38.460919,145.237549,3.0,1.0,1,$280_Weekly,House,December 2016,3922,2016,12,COWES,280,House
494,494,"28 VENTNOR ROAD, COWES",-38.463208,145.203356,3.0,1.0,0,$260_Weekly,House,May 2016,3922,2016,5,COWES,260,House
495,495,"39 SETTLEMENT ROAD, COWES",-38.456512,145.254517,3.0,2.0,2,$370,House,November 2016,3922,2016,11,COWES,370,House
496,496,"475 SETTLEMENT ROAD, COWES",-38.456405,145.214472,4.0,2.0,1,$340,House,January 2016,3922,2016,1,COWES,340,House
497,497,"7 PARKRIDGE CLOSE, COWES",-38.459731,145.256282,3.0,2.0,2,$340,House,September 2016,3922,2016,9,COWES,340,House
498,498,"7 PARKRIDGE CLOSE, COWES",-38.459731,145.256282,3.0,2.0,2,$340,House,July 2016,3922,2016,7,COWES,340,House
500,500,"585 SETTLEMENT ROAD, COWES",-38.45639,145.204298,3.0,1.0,2,$255_per_week,House,August 2016,3922,2016,8,COWES,255,House
501,501,"585 SETTLEMENT ROAD, COWES",-38.45639,145.204298,3.0,1.0,2,$255_per_week,House,July 2016,3922,2016,7,COWES,255,House
502,502,"26 CHURCHILL DRIVE, COWES",-38.458102,145.214515,3.0,1.0,1,$230_per_week,House,July 2016,3922,2016,7,COWES,230,House
503,503,"26 CHURCHILL DRIVE, COWES",-38.458102,145.214515,3.0,1.0,1,$230,House,June 2016,3922,2016,6,COWES,230,House
504,504,"3 YARRAMUNDI WAY, COWES",-38.458185,145.234296,3.0,2.0,2,$1050_pw,House,April 2016,3922,2016,4,COWES,1050,House
505,505,"1/30 WYNDHAM AVENUE, COWES",-38.455184,145.233564,2.0,1.0,1,$265_Weekly,House,September 2016,3922,2016,9,COWES,265,House
506,506,"1/30 WYNDHAM AVE, COWES",-38.4552038,145.233458,2.0,1.0,1,$265_Weekly,House,September 2016,3922,2016,9,COWES,265,House
507,507,"22-24 HIGHLAND AVENUE, COWES",-38.454536,145.220876,3.0,2.0,2,$300_Weekly,House,July 2016,3922,2016,7,COWES,300,House
508,508,"4/4 MCHAFFIE DRIVE, COWES",-38.4508233,145.225021,3.0,1.0,1,$270_pw,House,May 2016,3922,2016,5,COWES,270,House
509,509,"22-24 HIGHLAND AVE, COWES",-38.454536,145.220876,3.0,2.0,2,$300_Weekly,House,July 2016,3922,2016,7,COWES,300,House
510,510,"13 ROYDON ROAD, COWES",-38.453742,145.232441,2.0,1.0,0,$240,House,September 2016,3922,2016,9,COWES,240,House
511,511,"13 ROYDON ROAD, COWES",-38.453742,145.232441,2.0,1.0,0,$240_per_week,House,June 2016,3922,2016,6,COWES,240,House
512,512,"13 ROYDON ROAD, COWES",-38.453742,145.232441,2.0,1.0,0,$240_per_week,House,May 2016,3922,2016,5,COWES,240,House
513,513,"1B WAGTAIL WAY, COWES",-38.4588199,145.2216554,3.0,1.0,2,$280_Weekly,House,October 2016,3922,2016,10,COWES,280,House
514,514,"32 TI TREE DRIVE, COWES",-38.456758,145.211969,3.0,2.0,4,$330_per_week,none,February 2016,3922,2016,2,COWES,330,Other
515,515,"54 SCENIC DRIVE, COWES",-38.460778,145.205415,3.0,1.0,2,$250,House,August 2016,3922,2016,8,COWES,250,House
516,516,"79 CHAPEL STREET, COWES",-38.450631,145.237243,3.0,1.0,2,$265,House,July 2016,3922,2016,7,COWES,265,House
517,517,"79 CHAPEL STREET, COWES",-38.450631,145.237243,3.0,1.0,2,$265_per_week,House,March 2016,3922,2016,3,COWES,265,House
518,518,"39 VENTNOR ROAD, COWES",-38.4633336,145.2319682,5.0,2.0,4,$430,none,June 2016,3922,2016,6,COWES,430,Other
519,519,"6 WATCHORN ROAD, COWES",-38.455275,145.240012,4.0,2.0,2,$340,House,February 2016,3922,2016,2,COWES,340,House
520,520,"6 WATCHORN RD, COWES",-38.455275,145.240012,4.0,2.0,2,$340_Weekly,House,February 2016,3922,2016,2,COWES,340,House
521,521,"8 MELDRUM COURT, COWES",-38.461217,145.231884,4.0,2.0,2,$400,none,September 2016,3922,2016,9,COWES,400,Other
522,522,"41-43 MAIN RD, COWWARR",-38.01453,146.695752,4.0,1.0,2,$245_per_week,House,June 2016,3857,2016,6,COWWARR,245,House
523,523,"2813 TRARALGON-MAFFRA ROAD, COWWARR",-38.0146325,146.7008645,3.0,1.0,2,$295_Weekly,none,November 2016,3857,2016,11,COWWARR,295,Other
524,524,"4 CHADSTONE ROAD, CRAIGIE",-31.791837,115.765744,3.0,1.0,0,$330_p.w.,House,May 2016,3465,2016,5,CRAIGIE,330,House
525,525,"165 CAMBERWARRA DRIVE, CRAIGIE",-31.78558,115.76469,4.0,1.0,1,$360_p.w.,House,December 2016,3465,2016,12,CRAIGIE,360,House
526,526,"165 CAMBERWARRA DRIVE, CRAIGIE",-31.78558,115.76469,4.0,1.0,1,$380_p.w.,House,May 2016,3465,2016,5,CRAIGIE,380,House
527,527,"1 CANOPY WAY, CRAIGIEBURN",-37.571919,144.921007,4.0,2.0,2,$450_Weekly,House,May 2016,3064,2016,5,CRAIGIEBURN,450,House
528,528,"9 ROSLEIGH DR, CRAIGIEBURN",-37.58177,144.928027,4.0,2.0,2,$380_Weekly,House,March 2016,3064,2016,3,CRAIGIEBURN,380,House
529,529,"9 ROSLEIGH DRIVE, CRAIGIEBURN",-37.581745,144.927932,4.0,2.0,2,$380,House,March 2016,3064,2016,3,CRAIGIEBURN,380,House
530,530,"37 BRENTWICK DRIVE, CRAIGIEBURN",-37.5984433,144.9418164,4.0,2.0,2,$400_per_week,Rental_residential,October 2016,3064,2016,10,CRAIGIEBURN,400,Other
531,531,"30/8 MORESBY COURT, CRAIGIEBURN",-37.592416,144.905724,2.0,1.0,1,$310_pw,none,November 2016,3064,2016,11,CRAIGIEBURN,310,Other
532,532,"53 WILLMOTT DRIVE, CRAIGIEBURN",-37.588688,144.926762,4.0,2.0,2,$430_pw,House,February 2016,3064,2016,2,CRAIGIEBURN,430,House
533,533,"17 KIRKSTEAD GROVE, CRAIGIEBURN",-37.5845437,144.9111039,3.0,2.0,1,$350,House,December 2016,3064,2016,12,CRAIGIEBURN,350,House
534,534,"28 GRATTAN COVE, CRAIGIEBURN",-37.5887388,144.9167663,4.0,2.0,2,$350_per_week,Townhouse,September 2016,3064,2016,9,CRAIGIEBURN,350,House
535,535,"28 GRATTAN COVE, CRAIGIEBURN",-37.5887388,144.9167663,4.0,2.0,2,$350_pw,Townhouse,August 2016,3064,2016,8,CRAIGIEBURN,350,House
536,536,"40 GREVILLEA STREET, CRAIGIEBURN",-37.582832,144.908599,4.0,2.0,2,$380_per_week,House,May 2016,3064,2016,5,CRAIGIEBURN,380,House
537,537,"40 GREVILLEA STREET, CRAIGIEBURN",-37.582832,144.908599,4.0,2.0,2,$380_per_week,House,January 2016,3064,2016,1,CRAIGIEBURN,380,House
538,538,"17 KIRKSTEAD GR, CRAIGIEBURN",-37.5844097,144.9113873,3.0,2.0,1,$350_Weekly,House,December 2016,3064,2016,12,CRAIGIEBURN,350,House
539,539,"6 ROSEWOOD PLACE, CRAIGIEBURN",-37.588684,144.930893,3.0,1.0,1,$320_per_week,House,April 2016,3064,2016,4,CRAIGIEBURN,320,House
540,540,"274 WATERVIEW BOULEVARD, CRAIGIEBURN",-37.582363,144.907861,4.0,2.0,2,$390,House,January 2016,3064,2016,1,CRAIGIEBURN,390,House
541,541,"2 CLENDON WAY, CRAIGIEBURN",-37.5696096,144.9231559,3.0,2.0,1,$360,House,October 2016,3064,2016,10,CRAIGIEBURN,360,House
542,542,"2 CLENDON WAY, CRAIGIEBURN",-37.5696096,144.9231559,3.0,2.0,1,$360,House,September 2016,3064,2016,9,CRAIGIEBURN,360,House
543,543,"8 BRISTOL MEWS, CRAIGIEBURN",-37.610847,144.923885,3.0,2.0,2,$350_Weekly,House,July 2016,3064,2016,7,CRAIGIEBURN,350,House
544,544,"8 BRISTOL MEWS, CRAIGIEBURN",-37.610847,144.923885,3.0,2.0,2,$350_Weekly,House,June 2016,3064,2016,6,CRAIGIEBURN,350,House
545,545,"7 EUPHORIA DRIVE, CRAIGIEBURN",-37.5984433,144.9418164,4.0,2.0,2,$410_Weekly,House,May 2016,3064,2016,5,CRAIGIEBURN,410,House
546,546,"64 BARONIAL WAY, CRAIGIEBURN",-37.5994667,144.9028854,3.0,2.0,2,$325_Weekly,Townhouse,April 2016,3064,2016,4,CRAIGIEBURN,325,House
547,547,"64 BARONIAL WAY, CRAIGIEBURN",-37.5994667,144.9028854,3.0,2.0,2,$320_Weekly,Townhouse,March 2016,3064,2016,3,CRAIGIEBURN,320,House
548,548,"64 BARONIAL WAY, CRAIGIEBURN",-37.5994667,144.9028854,3.0,2.0,2,$330_Weekly,Townhouse,January 2016,3064,2016,1,CRAIGIEBURN,330,House
549,549,"8 OLYMPIC WAY, CRAIGIEBURN",-37.585186,144.9359,4.0,2.0,2,$390,House,February 2016,3064,2016,2,CRAIGIEBURN,390,House
550,550,"6/8 MORESBY COURT, CRAIGIEBURN",-37.592416,144.905724,3.0,2.0,2,$335,Townhouse,April 2016,3064,2016,4,CRAIGIEBURN,335,House
551,551,"236 CASEY FIELDS BOULEVARD, CRANBOURNE EAST",-38.1088604,145.3099996,4.0,2.0,2,$400_Weekly,Available Now,January 2016,3977,2016,1,EAST,400,Other
552,552,"19 STATESMAN CIRCUIT, CRANBOURNE EAST",-38.1086017,145.3037681,3.0,2.0,2,$370_pw,House,December 2016,3977,2016,12,EAST,370,House
553,553,"6 DARTMOOR DRIVE, CRANBOURNE EAST",-38.097589,145.295268,4.0,2.0,2,$395_per_week,House,January 2016,3977,2016,1,EAST,395,House
554,554,"12 CANMORE STREET, CRANBOURNE EAST",-38.1168705,145.2979864,3.0,2.0,1,$370_Wk,Rental_residential,October 2016,3977,2016,10,EAST,370,Other
555,555,"27 BRITTLE GUM ROAD, CRANBOURNE EAST",-38.1255769,145.3045802,3.0,2.0,2,$375,House,November 2016,3977,2016,11,EAST,375,House
556,556,"27 BRITTLE GUM ROAD, CRANBOURNE EAST",-38.1255769,145.3045802,3.0,2.0,2,$375,House,June 2016,3977,2016,6,EAST,375,House
557,557,"56 ADRIAN STREET, CRANBOURNE EAST",-38.1245284,145.2987877,4.0,2.0,2,$390_pw,House,September 2016,3977,2016,9,EAST,390,House
558,558,"6 KARLSON WAY, CRANBOURNE NORTH",-38.0753605,145.3139665,3.0,2.0,2,$380_per_week,none,June 2016,3977,2016,6,NORTH,380,Other
559,559,"6 KARLSON WAY, CRANBOURNE NORTH",-38.0753605,145.3139665,3.0,2.0,2,$380,none,May 2016,3977,2016,5,NORTH,380,Other
560,560,"6 KARLSON WAY, CRANBOURNE NORTH",-38.0753605,145.3139665,3.0,2.0,2,$380_per_week,none,April 2016,3977,2016,4,NORTH,380,Other
561,561,"86 MOUNTAINVIEW BOULEVARD, CRANBOURNE NORTH",-38.081956,145.322394,4.0,2.0,2,$375,House,April 2016,3977,2016,4,NORTH,375,House
562,562,"13 JEFFERSON AVE, CRANBOURNE NORTH",-38.072573,145.307761,3.0,2.0,2,$390_pw,House,November 2016,3977,2016,11,NORTH,390,House
563,563,"13 JEFFERSON AVE, CRANBOURNE NORTH",-38.072573,145.307761,3.0,2.0,2,$390_per_week,House,February 2016,3977,2016,2,NORTH,390,House
564,564,"47 ARBOURLEA BOULEVARD, CRANBOURNE NORTH",-38.0818315,145.3306043,3.0,2.0,2,$400_per_week,House,April 2016,3977,2016,4,NORTH,400,House
565,565,"47 ARBOURLEA BOULEVARD, CRANBOURNE NORTH",-38.0818315,145.3306043,3.0,2.0,2,$400_per_week,House,March 2016,3977,2016,3,NORTH,400,House
566,566,"14 ASPERA PLACE, CRANBOURNE NORTH",-38.0822575,145.2790713,4.0,2.0,2,$400_Weekly,House,February 2016,3977,2016,2,NORTH,400,House
567,567,"14 ASPERA PL, CRANBOURNE NORTH",-38.0822575,145.2790713,4.0,2.0,2,$400_Weekly,House,February 2016,3977,2016,2,NORTH,400,House
568,568,"10 NELSE STREET, CRANBOURNE NORTH",-38.07,145.291,4.0,2.0,2,$400_per_week,none,July 2016,3977,2016,7,NORTH,400,Other
569,569,"37 HUON PARK ROAD, CRANBOURNE NORTH",-38.074541,145.275972,4.0,2.0,4,$320_per_week,House,February 2016,3977,2016,2,NORTH,320,House
570,570,"19 CERBERA BEND, CRANBOURNE NORTH",-38.0822575,145.2790713,4.0,2.0,2,$380,House,May 2016,3977,2016,5,NORTH,380,House
571,571,"19 CERBERA BEND, CRANBOURNE NORTH",-38.0822575,145.2790713,4.0,2.0,2,$380_per_week,House,April 2016,3977,2016,4,NORTH,380,House
572,572,"38 MICKLEHAM DRIVE, CRANBOURNE NORTH",-38.0851906,145.3205684,4.0,2.0,2,$395_per_week,House,October 2016,3977,2016,10,NORTH,395,House
573,573,"38 MICKLEHAM DRIVE, CRANBOURNE NORTH",-38.0851906,145.3205684,4.0,2.0,2,$395_per_week,House,September 2016,3977,2016,9,NORTH,395,House
574,574,"20 COURTENAY AVENUE, CRANBOURNE NORTH",-38.077896,145.27619,3.0,1.0,1,$320_per_week,House,April 2016,3977,2016,4,NORTH,320,House
575,575,"5 MCMILLAN COURT, CRANBOURNE NORTH",-38.07646,145.265519,3.0,1.0,2,$310,House,February 2016,3977,2016,2,NORTH,310,House
576,576,"195 PEARCEDALE ROAD, CRANBOURNE SOUTH",-38.167914,145.241448,3.0,2.0,2,$600_Weekly,House,January 2016,3977,2016,1,SOUTH,600,House
577,577,"18 HARVARD STREET, CRANBOURNE WEST",-38.0960867,145.2678755,3.0,2.0,2,$380_pw,Rental_residential,December 2016,3977,2016,12,WEST,380,Other
578,578,"15 CLAIRMONT AVENUE, CRANBOURNE",-38.093026,145.277978,3.0,1.0,2,$300_per_week,House,January 2016,3977,2016,1,CRANBOURNE,300,House
579,579,"1 BAILDOR COURT, CRANBOURNE",-38.121676,145.257406,4.0,2.0,2,$380_per_week,none,August 2016,3977,2016,8,CRANBOURNE,380,Other
580,580,"1 BAILDOR COURT, CRANBOURNE",-38.121676,145.257406,4.0,2.0,2,$380_per_week,none,July 2016,3977,2016,7,CRANBOURNE,380,Other
581,581,"3 TAMWORTH COURT, CRANBOURNE",-38.082578,145.266685,3.0,2.0,2,$330_p.w.,none,September 2016,3977,2016,9,CRANBOURNE,330,Other
582,582,"3 TAMWORTH COURT, CRANBOURNE",-38.082578,145.266685,3.0,2.0,2,$340_pw,none,July 2016,3977,2016,7,CRANBOURNE,340,Other
583,583,"3 TAMWORTH COURT, CRANBOURNE",-38.082578,145.266685,3.0,2.0,2,$345_p.w.,none,March 2016,3977,2016,3,CRANBOURNE,345,Other
584,584,"3 TAMWORTH COURT, CRANBOURNE",-38.082578,145.266685,3.0,2.0,2,$320_p.w.,none,March 2016,3977,2016,3,CRANBOURNE,320,Other
585,585,"3/313 SOUTH GIPPSLAND HIGHWAY, CRANBOURNE",-38.09215,145.279935,2.0,1.0,1,$260,House,August 2016,3977,2016,8,CRANBOURNE,260,House
586,586,"3/313 SOUTH GIPPSLAND HWY, CRANBOURNE",-38.09215,145.279935,2.0,1.0,1,$260_Weekly,House,August 2016,3977,2016,8,CRANBOURNE,260,House
587,587,"56 CIRCLE DRIVE, CRANBOURNE",-38.093838,145.278379,3.0,2.0,3,$330_per_week,House,January 2016,3977,2016,1,CRANBOURNE,330,House
588,588,"23 LAMONT CRESCENT, CRANBOURNE",-38.099023,145.270836,3.0,1.0,1,$310_per_week,House,October 2016,3977,2016,10,CRANBOURNE,310,House
589,589,"11 GLENBOURNE ROAD, CRANBOURNE",-38.093097,145.271354,3.0,1.0,1,$350,House,October 2016,3977,2016,10,CRANBOURNE,350,House
590,590,"11 GLENBOURNE RD, CRANBOURNE",-38.093097,145.271354,3.0,1.0,1,$350_Weekly,House,October 2016,3977,2016,10,CRANBOURNE,350,House
591,591,"2/2 LAWSON CLOSE, CRANBOURNE",-38.106181,145.2679944,2.0,1.0,1,$300_per_week,Unit,July 2016,3977,2016,7,CRANBOURNE,300,Apartment
592,592,"4 JAMIE CLOSE, CRANBOURNE",-38.09651947,145.28605652,3.0,1.0,3,$320_per_week,none,December 2016,3977,2016,12,CRANBOURNE,320,Other
593,593,"20 ALEXANDER STREET, CRANBOURNE",-38.104415,145.280288,3.0,1.0,1,$360_pw,House,July 2016,3977,2016,7,CRANBOURNE,360,House
594,594,"56B CRANBOURNE DRIVE, CRANBOURNE",-38.109051,145.279917,3.0,2.0,1,$370_per_week,House,July 2016,3977,2016,7,CRANBOURNE,370,House
595,595,"23 BEAGLE STREET, CRANBOURNE",-38.1133612,145.3080792,4.0,2.0,2,$385_Weekly,House,August 2016,3977,2016,8,CRANBOURNE,385,House
596,596,"23 BEAGLE STREET, CRANBOURNE",-38.1133612,145.3080792,4.0,2.0,2,$385_Weekly,House,July 2016,3977,2016,7,CRANBOURNE,385,House
597,597,"22 DUNBAR AVENUE, CRANBOURNE",-38.102748,145.276779,4.0,1.0,2,$340_Weekly,House,November 2016,3977,2016,11,CRANBOURNE,340,House
598,598,"22 DUNBAR AVENUE, CRANBOURNE",-38.102748,145.276779,4.0,1.0,2,$350_Weekly,House,May 2016,3977,2016,5,CRANBOURNE,350,House
599,599,"22 DUNBAR AVENUE, CRANBOURNE",-38.102748,145.276779,4.0,1.0,2,$350_Weekly,House,April 2016,3977,2016,4,CRANBOURNE,350,House
600,600,"10 TATTLE GROVE, CRANBOURNE",-38.111782,145.306619,3.0,2.0,2,$360_Weekly,House,April 2016,3977,2016,4,CRANBOURNE,360,House
601,601,"3 PIPETRACK CIRCUIT, CRANBOURNE",-38.107546,145.299711,4.0,2.0,2,$395_Wk,House,December 2016,3977,2016,12,CRANBOURNE,395,House
602,602,"3 PIPETRACK CIRCUIT, CRANBOURNE",-38.107546,145.299711,4.0,2.0,2,$395_Wk,House,November 2016,3977,2016,11,CRANBOURNE,395,House
603,603,"24 CIRCLE DRIVE, CRANBOURNE",-38.094853,145.280819,3.0,1.0,2,$330_Weekly,House,September 2016,3977,2016,9,CRANBOURNE,330,House
604,604,"36 CHOMLEY STREET, CRANBOURNE",-38.10019,145.270557,3.0,1.0,1,$310_per_week,House,December 2016,3977,2016,12,CRANBOURNE,310,House
605,605,"36 CHOMLEY STREET, CRANBOURNE",-38.10019,145.270557,3.0,1.0,1,$310,House,October 2016,3977,2016,10,CRANBOURNE,310,House
606,606,"36 CHOMLEY STREET, CRANBOURNE",-38.10019,145.270557,3.0,1.0,1,$310_pw,House,July 2016,3977,2016,7,CRANBOURNE,310,House
607,607,"36 CHOMLEY STREET, CRANBOURNE",-38.10019,145.270557,3.0,1.0,1,$310_per_week,House,May 2016,3977,2016,5,CRANBOURNE,310,House
608,608,"4 MCLAREN AVENUE, CRANBOURNE",-38.108197,145.279884,3.0,1.0,4,$310_Weekly,House,March 2016,3977,2016,3,CRANBOURNE,310,House
609,609,"2 PEPPERBUSH CIRCUIT, CRANBOURNE",-38.086034,145.283276,4.0,2.0,2,$350_per_week,House,August 2016,3977,2016,8,CRANBOURNE,350,House
610,610,"2 PEPPERBUSH CIRCUIT, CRANBOURNE",-38.086034,145.283276,4.0,2.0,2,$350_per_week,House,July 2016,3977,2016,7,CRANBOURNE,350,House
611,611,"1 WATERSIDE DRIVE, BURNSIDE HEIGHTS",-37.729503,144.763355,4.0,2.0,2,$420,House,February 2016,3023,2016,2,HEIGHTS,420,House
612,612,"1 WATERSIDE DRIVE, BURNSIDE HEIGHTS",-37.729503,144.763355,4.0,2.0,2,$430_per_week,House,January 2016,3023,2016,1,HEIGHTS,430,House
613,613,"40 CUNNINGHAM CHASE, BURNSIDE HEIGHTS",-37.735431,144.761693,3.0,2.0,2,$345_Weekly,none,September 2016,3023,2016,9,HEIGHTS,345,Other
614,614,"40 CUNNINGHAM CHASE, BURNSIDE HEIGHTS",-37.735431,144.761693,3.0,2.0,2,$345_Weekly,none,January 2016,3023,2016,1,HEIGHTS,345,Other
615,615,"35 KATRINA DRIVE, BURNSIDE HEIGHTS",-37.727353,144.757268,4.0,2.0,2,$400_per_week,House,April 2016,3023,2016,4,HEIGHTS,400,House
616,616,"5 SCALES LANE, BURNSIDE HEIGHTS",-37.735047,144.757761,4.0,2.0,2,$370_Weekly,House,June 2016,3023,2016,6,HEIGHTS,370,House
617,617,"5 HARWOOD COURT, BURNSIDE HEIGHTS",-37.737377,144.749534,4.0,2.0,2,$390_per_week,House,February 2016,3023,2016,2,HEIGHTS,390,House
618,618,"181 TENTERFIELD DRIVE, BURNSIDE HEIGHTS",-37.735373,144.749425,3.0,2.0,2,$365_per_week,none,August 2016,3023,2016,8,HEIGHTS,365,Other
619,619,"11 WILLS TERRACE, BURNSIDE HEIGHTS",-37.732153,144.757773,3.0,2.0,2,$400_pw,House,July 2016,3023,2016,7,HEIGHTS,400,House
620,620,"11 WILLS TERRACE, BURNSIDE HEIGHTS",-37.732153,144.757773,3.0,2.0,2,$400_pw,House,June 2016,3023,2016,6,HEIGHTS,400,House
621,621,"6 WILLS TERRACE, BURNSIDE HEIGHTS",-37.73284253,144.75817191,4.0,2.0,2,$460,House,June 2016,3023,2016,6,HEIGHTS,460,House
622,622,"7 WILLS TERRACE, BURNSIDE HEIGHTS",-37.732506,144.757706,3.0,2.0,2,$400_pw,House,January 2016,3023,2016,1,HEIGHTS,400,House
623,623,"31 CHIFLEY CIRCUIT, BURNSIDE HEIGHTS",-37.72651,144.763753,3.0,2.0,2,$400_per_week,House,May 2016,3023,2016,5,HEIGHTS,400,House
624,624,"4 TENTERFIELD DRIVE, BURNSIDE HEIGHTS",-37.7268461,144.75992355,3.0,2.0,2,$450_per_week,House,August 2016,3023,2016,8,HEIGHTS,450,House
625,625,"39 GIVERNY CL, BURNSIDE HEIGHTS",-37.725305,144.751652,4.0,2.0,2,$410_Weekly,House,February 2016,3023,2016,2,HEIGHTS,410,House
626,626,"39 GIVERNY CLOSE, BURNSIDE HEIGHTS",-37.725305,144.751652,4.0,2.0,2,$410,House,February 2016,3023,2016,2,HEIGHTS,410,House
627,627,"1 FLORIDA COURT, BURNSIDE HEIGHTS",-37.735711,144.750294,3.0,2.0,3,$385,House,February 2016,3023,2016,2,HEIGHTS,385,House
628,628,"11 REGENT CLOSE, BURNSIDE HEIGHTS",-37.7255447,144.7513136,4.0,2.0,2,$385_pw,House,August 2016,3023,2016,8,HEIGHTS,385,House
629,629,"11 REGENT CLOSE, BURNSIDE HEIGHTS",-37.7255447,144.7513136,4.0,2.0,2,$385_pw,House,July 2016,3023,2016,7,HEIGHTS,385,House
630,630,"27 BELLVILLE CLOSE, BURNSIDE HEIGHTS",-37.7264289,144.7530183,3.0,2.0,2,$390_per_week,House,September 2016,3023,2016,9,HEIGHTS,390,House
631,631,"33 CUNNINGHAM CHASE, BURNSIDE HEIGHTS",-37.735527,144.762562,3.0,2.0,2,$390_per_week,House,April 2016,3023,2016,4,HEIGHTS,390,House
632,632,"25 BELLEVILLE CLOSE, BURNSIDE HEIGHTS",-37.72466778,144.75340716,3.0,2.0,2,$385,House,December 2016,3023,2016,12,HEIGHTS,385,House
633,633,"25 BELLEVILLE CL, BURNSIDE HEIGHTS",-37.7246678,144.7534072,3.0,2.0,2,$385_Weekly,House,December 2016,3023,2016,12,HEIGHTS,385,House
634,634,"49 MENZIES DRIVE, BURNSIDE HEIGHTS",-37.729243,144.763389,3.0,2.0,2,$380,House,December 2016,3023,2016,12,HEIGHTS,380,House
635,635,"15 COOMA PLACE, BURNSIDE HEIGHTS",-37.736752,144.749766,4.0,2.0,2,$380_Weekly,House,August 2016,3023,2016,8,HEIGHTS,380,House
636,636,"42 MIMOSA WAY, BURNSIDE HEIGHTS",-37.7376344,144.7494633,3.0,2.0,2,$360_pw,House,October 2016,3023,2016,10,HEIGHTS,360,House
637,637,"26 MANNY PAUL CIRCUIT, BURNSIDE HEIGHTS",-37.7280734,144.75766204,4.0,2.0,2,$450_per_week,House,May 2016,3023,2016,5,HEIGHTS,450,House
638,638,"35 PARKES WAY, BURNSIDE HEIGHTS",-37.728097,144.762064,3.0,2.0,2,$370_pw,Duplex,June 2016,3023,2016,6,HEIGHTS,370,House
639,639,"169 TENTERFIELD DRIVE, BURNSIDE HEIGHTS",-37.735462,144.750332,3.0,2.0,2,$420_pw,House,March 2016,3023,2016,3,HEIGHTS,420,House
640,640,"17 BELLEVILLE CLOSE, BURNSIDE HEIGHTS",-37.7264289,144.7530183,3.0,2.0,2,$390_per_week,House,November 2016,3023,2016,11,HEIGHTS,390,House
641,641,"17 BELLEVILLE CLOSE, BURNSIDE HEIGHTS",-37.7264289,144.7530183,3.0,2.0,2,$370_per_week,House,November 2016,3023,2016,11,HEIGHTS,370,House
642,642,"1 GREEN COURT, BURNSIDE HEIGHTS",-37.7257359,144.7530587,3.0,2.0,2,$360_per_week,House,December 2016,3023,2016,12,HEIGHTS,360,House
643,643,"21 BELLEVILLE CLOSE, BURNSIDE HEIGHTS",-37.7249867,144.754415,3.0,2.0,2,$350_per_week,House,August 2016,3023,2016,8,HEIGHTS,350,House
644,644,"21 BELLEVILLE CLOSE, BURNSIDE HEIGHTS",-37.7249867,144.754415,3.0,2.0,2,$350_per_week,House,July 2016,3023,2016,7,HEIGHTS,350,House
645,645,"21 BELLEVILLE CLOSE, BURNSIDE HEIGHTS",-37.7249867,144.754415,3.0,2.0,2,$350_per_week,House,May 2016,3023,2016,5,HEIGHTS,350,House
646,646,"10 GIVERNY CLOSE, BURNSIDE HEIGHTS",-37.724725,144.75135,3.0,2.0,2,$350_per_week,House,April 2016,3023,2016,4,HEIGHTS,350,House
647,647,"48 CUNNINGHAM CHASE, BURNSIDE HEIGHTS",-37.73551891,144.76110285,3.0,2.0,2,$380_per_week,Townhouse,July 2016,3023,2016,7,HEIGHTS,380,House
648,648,"3 SAVIOUR ROAD, BURNSIDE HEIGHTS",-37.7263099,144.7571593,3.0,2.0,1,$395_per_week,none,August 2016,3023,2016,8,HEIGHTS,395,Other
649,649,"3 SAVIOUR ROAD, BURNSIDE HEIGHTS",-37.7263099,144.7571593,3.0,2.0,1,$395_per_week,none,July 2016,3023,2016,7,HEIGHTS,395,Other
650,650,"3 SAVIOUR ROAD, BURNSIDE HEIGHTS",-37.7263099,144.7571593,3.0,2.0,1,$400,none,June 2016,3023,2016,6,HEIGHTS,400,Other
651,651,"3 SAVIOUR ROAD, BURNSIDE HEIGHTS",-37.7263099,144.7571593,3.0,2.0,1,$395_per_week,none,May 2016,3023,2016,5,HEIGHTS,395,Other
652,652,"3 SAVIOUR ROAD, BURNSIDE HEIGHTS",-37.7263099,144.7571593,3.0,2.0,1,$400_pw,none,March 2016,3023,2016,3,HEIGHTS,400,Other
653,653,"102 ARBOUR BOULEVARD, BURNSIDE HEIGHTS",-37.736116,144.75151,3.0,2.0,2,$430_pw,House,September 2016,3023,2016,9,HEIGHTS,430,House
654,654,"102 ARBOUR BOULEVARD, BURNSIDE HEIGHTS",-37.736116,144.75151,3.0,2.0,2,$430_pw,House,January 2016,3023,2016,1,HEIGHTS,430,House
655,655,"2 ROKEWOOD STREET, BURNSIDE HEIGHTS",-37.7289461,144.7556865,3.0,2.0,2,$410_per_week,House,November 2016,3023,2016,11,HEIGHTS,410,House
656,656,"2 ROKEWOOD STREET, BURNSIDE HEIGHTS",-37.7289461,144.7556865,3.0,2.0,2,$410_per_week,House,August 2016,3023,2016,8,HEIGHTS,410,House
657,657,"35 MIMOSA WAY, BURNSIDE HEIGHTS",-37.737656,144.750383,4.0,2.0,2,$390_pw,House,July 2016,3023,2016,7,HEIGHTS,390,House
658,658,"49 CONNOR DRIVE, BURNSIDE HEIGHTS",-37.725944,144.754967,4.0,4.0,2,$450_per_week,House,January 2016,3023,2016,1,HEIGHTS,450,House
659,659,"17 MENZIES DRIVE, BURNSIDE HEIGHTS",-37.72730951,144.76357548,4.0,4.0,2,$420_per_week,House,February 2016,3023,2016,2,HEIGHTS,420,House
660,660,"14 BARTON ROAD, BURNSIDE HEIGHTS",-37.7262084,144.7576957,4.0,2.0,2,$420_per_week,none,February 2016,3023,2016,2,HEIGHTS,420,Other
661,661,"6 GIVERNY CLOSE, BURNSIDE HEIGHTS",-37.724961,144.75131,4.0,2.0,2,$370_Weekly,House,February 2016,3023,2016,2,HEIGHTS,370,House
662,662,"23 WILLS TERRACE, BURNSIDE HEIGHTS",-37.7311816,144.7574222,3.0,2.0,2,$400_pw,House,June 2016,3023,2016,6,HEIGHTS,400,House
663,663,"63 BATMAN STREET, BURNSIDE HEIGHTS",-37.734202,144.760009,4.0,2.0,2,$410_per_week,House,November 2016,3023,2016,11,HEIGHTS,410,House
664,664,"38 WILKINS CRESCENT, BURNSIDE HEIGHTS",-37.731369,144.755583,3.0,2.0,2,$430_per_week,House,February 2016,3023,2016,2,HEIGHTS,430,House
665,665,"37 MIMOSA WAY, BURNSIDE HEIGHTS",-37.73754094,144.7488665,3.0,2.0,2,$370_per_week,House,June 2016,3023,2016,6,HEIGHTS,370,House
666,666,"37 MIMOSA WAY, BURNSIDE HEIGHTS",-37.73754094,144.7488665,3.0,2.0,2,$360_per_week,House,April 2016,3023,2016,4,HEIGHTS,360,House
667,667,"6 CENTENNIAL PLACE, BURNSIDE HEIGHTS",-37.73211205,144.75350406,5.0,2.0,2,$450,House,October 2016,3023,2016,10,HEIGHTS,450,House
668,668,"90 INGLEWOOD DRIVE, BURNSIDE HEIGHTS",-37.7302469,144.7501099,4.0,2.0,2,$500_per_week,House,December 2016,3023,2016,12,HEIGHTS,500,House
669,669,"8 SCULLIN ROAD, BURNSIDE HEIGHTS",-37.729784,144.759876,3.0,2.0,2,$370_Weekly,House,July 2016,3023,2016,7,HEIGHTS,370,House
670,670,"8 CATANI COURT, BURNSIDE HEIGHTS",-37.72783239,144.7502395,4.0,2.0,2,$430,House,February 2016,3023,2016,2,HEIGHTS,430,House
671,671,"27 BELLEVILLE CLOSE, BURNSIDE HEIGHTS",-37.7264289,144.7530183,3.0,2.0,2,$390_per_week,none,September 2016,3023,2016,9,HEIGHTS,390,Other
672,672,"120 TENTERFIELD DRIVE, BURNSIDE HEIGHTS",-37.7353732,144.7566062,4.0,2.0,2,$500_per_week,none,November 2016,3023,2016,11,HEIGHTS,500,Other
673,673,"8 WILKINS CRESCENT, BURNSIDE HEIGHTS",-37.73055,144.754256,3.0,2.0,1,$380_pw,House,June 2016,3023,2016,6,HEIGHTS,380,House
674,674,"3 COOMA PLACE, BURNSIDE HEIGHTS",-37.73637348,144.74979565,4.0,2.0,2,$450,none,December 2016,3023,2016,12,HEIGHTS,450,Other
675,675,"1 WENTWORTH LANE, BURNSIDE HEIGHTS",-37.731142,144.7597052,2.0,1.0,1,$330_per_week,House,February 2016,3023,2016,2,HEIGHTS,330,House
676,676,"1 WENTWORTH LANE, BURNSIDE HEIGHTS",-37.731142,144.7597052,2.0,1.0,1,$330_per_week,House,January 2016,3023,2016,1,HEIGHTS,330,House
677,677,"38 BELLEVILLE CLOSE, BURNSIDE HEIGHTS",-37.7254185,144.7535818,3.0,2.0,1,$380,none,October 2016,3023,2016,10,HEIGHTS,380,Other
678,678,"4 HARWOOD COURT, BURNSIDE HEIGHTS",-37.737019,144.749881,3.0,2.0,2,$370_pw,none,August 2016,3023,2016,8,HEIGHTS,370,Other
679,679,"32 INGLEWOOD DRIVE, BURNSIDE HEIGHTS",-37.7299683,144.7565248,4.0,2.0,2,$450_pw,House,September 2016,3023,2016,9,HEIGHTS,450,House
680,680,"18 DEAKIN GROVE, BURNSIDE HEIGHTS",-37.727605,144.758844,4.0,2.0,2,$420_per_week,House,April 2016,3023,2016,4,HEIGHTS,420,House
681,681,"17 COMO AVENUE, BURNSIDE HEIGHTS",-37.727047,144.750863,4.0,2.0,2,$500_per_week,House,September 2016,3023,2016,9,HEIGHTS,500,House
682,682,"23 BELLEVILLE CLOSE, BURNSIDE HEIGHTS",-37.7247167,144.75356414,4.0,2.0,2,$400_Weekly,House,March 2016,3023,2016,3,HEIGHTS,400,House
683,683,"13 CATANI COURT, BURNSIDE HEIGHTS",-37.727872,144.751261,4.0,2.0,2,$500_pw,none,December 2016,3023,2016,12,HEIGHTS,500,Other
684,684,"25 WILLS TERRACE, BURNSIDE HEIGHTS",-37.731218,144.757193,4.0,2.0,2,$495_pw,House,December 2016,3023,2016,12,HEIGHTS,495,House
685,685,"179 ARBOUR BLVD, BURNSIDE HEIGHTS",-37.740193,144.751725,4.0,2.0,2,$440_per_week,House,December 2016,3023,2016,12,HEIGHTS,440,House
686,686,"39 BELLEVILLE CLOSE, BURNSIDE HEIGHTS",-37.72506,144.753699,4.0,2.0,2,$390_per_week,none,December 2016,3023,2016,12,HEIGHTS,390,Other
687,687,"2 TENTERFIELD DRIVE, BURNSIDE HEIGHTS",-37.726737,144.759664,4.0,3.0,0,$500_per_week,House,December 2016,3023,2016,12,HEIGHTS,500,House
688,688,"2 TENTERFIELD DRIVE, BURNSIDE HEIGHTS",-37.726737,144.759664,4.0,3.0,0,$500_per_week,House,November 2016,3023,2016,11,HEIGHTS,500,House
689,689,"2 TENTERFIELD DRIVE, BURNSIDE HEIGHTS",-37.726737,144.759664,4.0,3.0,0,$525_per_week,House,August 2016,3023,2016,8,HEIGHTS,525,House
690,690,"32 BELLEVILLE CLOSE, BURNSIDE HEIGHTS",-37.7264289,144.7530183,4.0,2.0,2,$385_Weekly,House,December 2016,3023,2016,12,HEIGHTS,385,House
691,691,"32 BELLEVILLE CLOSE, BURNSIDE HEIGHTS",-37.7264289,144.7530183,4.0,2.0,2,$385_Weekly,House,November 2016,3023,2016,11,HEIGHTS,385,House
692,692,"20 ARBOUR BOULEVARD, BURNSIDE HEIGHTS",-37.7267114,144.7518174,4.0,2.0,2,$410_per_week,House,November 2016,3023,2016,11,HEIGHTS,410,House
693,693,"27 CONNOR DRIVE, BURNSIDE HEIGHTS",-37.7273365,144.7548291,3.0,2.0,2,$450_per_week,none,November 2016,3023,2016,11,HEIGHTS,450,Other
694,694,"1A GREEN COURT, BURNSIDE HEIGHTS",-37.7257359,144.7530587,3.0,2.0,2,$375_per_week,House,November 2016,3023,2016,11,HEIGHTS,375,House
695,695,"13 BURKE ROAD, BURNSIDE HEIGHTS",-37.7335184,144.75768176,3.0,2.0,2,$390_Weekly,House,November 2016,3023,2016,11,HEIGHTS,390,House
696,696,"13 BURKE ROAD, BURNSIDE HEIGHTS",-37.7335184,144.75768176,3.0,2.0,2,$390,House,April 2016,3023,2016,4,HEIGHTS,390,House
697,697,"13 BURKE RD, BURNSIDE HEIGHTS",-37.733532,144.757549,3.0,2.0,2,$390_Weekly,House,November 2016,3023,2016,11,HEIGHTS,390,House
698,698,"13 BURKE RD, BURNSIDE HEIGHTS",-37.733532,144.757549,3.0,2.0,2,$390_Weekly,House,April 2016,3023,2016,4,HEIGHTS,390,House
699,699,"12 ROKEWOOD ROAD, BURNSIDE HEIGHTS",-37.7289333,144.754989,4.0,2.0,2,$350_Weekly,none,November 2016,3023,2016,11,HEIGHTS,350,Other
700,700,"23 BATMAN STREET, BURNSIDE HEIGHTS",-37.732607,144.7628887,3.0,2.0,2,$380_per_week,House,October 2016,3023,2016,10,HEIGHTS,380,House
701,701,"10 MUSCAT AVENUE, BURNSIDE HEIGHTS",-37.7254093,144.7571244,3.0,2.0,2,$370_per_week,House,October 2016,3023,2016,10,HEIGHTS,370,House
702,702,"15 COOMA PL, BURNSIDE HEIGHTS",-37.736752,144.749766,4.0,2.0,2,$380_Weekly,House,August 2016,3023,2016,8,HEIGHTS,380,House
703,703,"17 SCALES LANE, BURNSIDE HEIGHTS",-37.73498,144.756864,3.0,2.0,2,$420_per_week,House,August 2016,3023,2016,8,HEIGHTS,420,House
704,704,"17 SCALES LANE, BURNSIDE HEIGHTS",-37.73498,144.756864,3.0,2.0,2,$420_per_week,House,July 2016,3023,2016,7,HEIGHTS,420,House
705,705,"4 DOMAIN AVENUE, BURNSIDE HEIGHTS",-37.7268699,144.7535492,4.0,2.0,2,$430_Weekly,House,August 2016,3023,2016,8,HEIGHTS,430,House
706,706,"4 DOMAIN AVENUE, BURNSIDE HEIGHTS",-37.7268699,144.7535492,4.0,2.0,2,$430_pw,House,July 2016,3023,2016,7,HEIGHTS,430,House
707,707,"4 DOMAIN AVE, BURNSIDE HEIGHTS",-37.7268699,144.7535492,4.0,2.0,2,$430_Weekly,House,August 2016,3023,2016,8,HEIGHTS,430,House
708,708,"1/3 SAVIOUR ROAD, BURNSIDE HEIGHTS",-37.7263099,144.7571593,3.0,2.0,1,$410_pw,House,July 2016,3023,2016,7,HEIGHTS,410,House
709,709,"7 LAWSON PLACE, BURNSIDE HEIGHTS",-37.73191435,144.76067959,3.0,2.0,2,$375_Weekly,House,July 2016,3023,2016,7,HEIGHTS,375,House
710,710,"3/3 SAVIOUR ROAD, BURNSIDE HEIGHTS",-37.7263099,144.7571593,3.0,2.0,1,$410_pw,House,June 2016,3023,2016,6,HEIGHTS,410,House
711,711,"6 CHELSEA COURT, BURNSIDE HEIGHTS",-37.72885,144.753278,4.0,2.0,2,$430_pw,House,June 2016,3023,2016,6,HEIGHTS,430,House
712,712,"6 CHELSEA COURT, BURNSIDE HEIGHTS",-37.72885,144.753278,4.0,2.0,2,$430_pw,House,May 2016,3023,2016,5,HEIGHTS,430,House
713,713,"9 WYLIE CIRCUIT, BURNSIDE HEIGHTS",-37.732371,144.754002,3.0,2.0,2,$410_per_week,none,June 2016,3023,2016,6,HEIGHTS,410,Other
714,714,"9 WYLIE CIRCUIT, BURNSIDE HEIGHTS",-37.732371,144.754002,3.0,2.0,2,$410_per_week,none,May 2016,3023,2016,5,HEIGHTS,410,Other
715,715,"129 ARBOUR BVD, BURNSIDE HEIGHTS",-37.738384,144.750977,4.0,2.0,2,$400_Weekly,House,May 2016,3023,2016,5,HEIGHTS,400,House
716,716,"129 ARBOUR BOULEVARD, BURNSIDE HEIGHTS",-37.738384,144.750977,4.0,2.0,2,$400_Weekly,House,May 2016,3023,2016,5,HEIGHTS,400,House
717,717,"54 FREELANDS DRIVE, BURNSIDE HEIGHTS",-37.739091,144.750893,4.0,2.0,2,$500_per_week,House,May 2016,3023,2016,5,HEIGHTS,500,House
718,718,"14 INVERELL STREET, BURNSIDE HEIGHTS",-37.73392925,144.75780529,3.0,2.0,2,$400_Week,none,May 2016,3023,2016,5,HEIGHTS,400,Other
719,719,"14 INVERELL STREET, BURNSIDE HEIGHTS",-37.73392925,144.75780529,3.0,2.0,2,$400_per_week,none,April 2016,3023,2016,4,HEIGHTS,400,Other
720,720,"14 BRUCE STREET, BURNSIDE HEIGHTS",-37.7291705,144.75946184,3.0,2.0,1,$365_per_week,none,April 2016,3023,2016,4,HEIGHTS,365,Other
721,721,"14 BRUCE STREET, BURNSIDE HEIGHTS",-37.7291705,144.75946184,3.0,2.0,1,$365_per_week,none,May 2016,3023,2016,5,HEIGHTS,365,Other
722,722,"61 CONNOR DRIVE, BURNSIDE HEIGHTS",-37.725212,144.7551567,4.0,2.0,2,$430,none,April 2016,3023,2016,4,HEIGHTS,430,Other
723,723,"51 KATRINA DRIVE, BURNSIDE HEIGHTS",-37.72654043,144.75699688,3.0,2.0,1,$420,none,April 2016,3023,2016,4,HEIGHTS,420,Other
724,724,"51 KATRINA DRIVE, BURNSIDE HEIGHTS",-37.72654043,144.75699688,3.0,2.0,1,$420,none,February 2016,3023,2016,2,HEIGHTS,420,Other
725,725,"3 WILKINS CRESCENT, BURNSIDE HEIGHTS",-37.730337,144.754785,4.0,2.0,2,$400,House,April 2016,3023,2016,4,HEIGHTS,400,House
726,726,"11 DEAKIN GROVE, BURNSIDE HEIGHTS",-37.7276817,144.7592895,3.0,2.0,2,$410_per_week,House,March 2016,3023,2016,3,HEIGHTS,410,House
727,727,"22 RED BOX CRESCENT, BURNSIDE HEIGHTS",-37.7264289,144.7530183,3.0,2.0,2,$400,none,March 2016,3023,2016,3,HEIGHTS,400,Other
728,728,"22 RED BOX CRES, BURNSIDE HEIGHTS",-37.7264289,144.7530183,3.0,2.0,2,$400_Weekly,House,March 2016,3023,2016,3,HEIGHTS,400,House
729,729,"5 YELLOWGUM STREET, BURNSIDE HEIGHTS",-37.730507,144.755087,4.0,2.0,2,$450,none,January 2016,3023,2016,1,HEIGHTS,450,Other
730,730,"37 LEICHHARDT AVENUE, BURNSIDE HEIGHTS",-37.73294,144.755436,3.0,2.0,2,$400_pw,House,January 2016,3023,2016,1,HEIGHTS,400,House
731,731,"2 NAOMI STREET, BURNSIDE HEIGHTS",-37.7258007,144.7554594,3.0,2.0,2,$400,House,January 2016,3023,2016,1,HEIGHTS,400,House
732,732,"18 FLEMMING AVENUE, BURNSIDE",-37.748634,144.74286,3.0,1.0,1,$340_per_week,Available Now,May 2016,3023,2016,5,BURNSIDE,340,Other
733,733,"18 FLEMMING AVENUE, BURNSIDE",-37.748634,144.74286,3.0,1.0,1,$340_per_week,Available Now,April 2016,3023,2016,4,BURNSIDE,340,Other
734,734,"20 FYDLER AVENUE, BURNSIDE",-37.745066,144.747206,4.0,2.0,1,$410_per_week,House,October 2016,3023,2016,10,BURNSIDE,410,House
735,735,"13 GRIGORIEVA COURT, BURNSIDE",-37.746501,144.747487,3.0,2.0,1,$325_Weekly,none,March 2016,3023,2016,3,BURNSIDE,325,Other
736,736,"11 STRICKLAND CRESCENT, BURNSIDE",-37.748739,144.74733,3.0,2.0,1,$350,House,August 2016,3023,2016,8,BURNSIDE,350,House
737,737,"20 MOCKRIDGE AVENUE, BURNSIDE",-37.748992,144.744905,4.0,2.0,2,$390_Weekly,House,October 2016,3023,2016,10,BURNSIDE,390,House
738,738,"26 BO PEEP ROAD, BURRUMBEET",-37.499055,143.674931,3.0,2.0,2,$475_per_week,none,January 2016,3352,2016,1,BURRUMBEET,475,Other
739,739,"8/11-15 REDHILL AVENUE, BURWOOD EAST",-37.853801,145.156447,3.0,1.0,2,$400,Townhouse,October 2016,3151,2016,10,EAST,400,House
740,740,"8/11-15 REDHILL AVENUE, BURWOOD EAST",-37.853801,145.156447,3.0,1.0,2,$390_Weekly,Townhouse,August 2016,3151,2016,8,EAST,390,House
741,741,"8/11-15 REDHILL AVE, BURWOOD EAST",-37.853864,145.156326,3.0,1.0,2,$400_Weekly,Townhouse,October 2016,3151,2016,10,EAST,400,House
742,742,"42 BARRY ROAD, BURWOOD EAST",-37.857015,145.152045,3.0,1.0,1,$390_Weekly,Rental_residential,April 2016,3151,2016,4,EAST,390,Other
743,743,"40 BALLANTYNE STREET, BURWOOD EAST",-37.851231,145.162368,3.0,1.0,1,$450_p.w.,House,May 2016,3151,2016,5,EAST,450,House
744,744,"50A HAWTHORN ROAD, BURWOOD EAST",-37.845971,145.157604,3.0,2.0,2,$585_pw,Townhouse,August 2016,3151,2016,8,EAST,585,House
745,745,"97 BURWOOD HIGHWAY, BURWOOD EAST",-37.850939,145.140001,3.0,1.0,2,$360_per_week,House,October 2016,3151,2016,10,EAST,360,House
746,746,"5 PEAR COURT, BURWOOD EAST",-37.849394,145.151189,3.0,1.0,1,$390_p.w.,House,September 2016,3151,2016,9,EAST,390,House
747,747,"6 DOROTHY STREET, BURWOOD EAST",-37.854797,145.143176,3.0,1.0,1,$400_per_week,House,November 2016,3151,2016,11,EAST,400,House
748,748,"142 ELEY ROAD, BURWOOD EAST",-37.847971,145.149928,4.0,2.0,2,$370_Weekly,House,September 2016,3151,2016,9,EAST,370,House
749,749,"142 ELEY ROAD, BURWOOD EAST",-37.847971,145.149928,4.0,2.0,2,$390_pw,House,July 2016,3151,2016,7,EAST,390,House
750,750,"295 BLACKBURN ROAD, BURWOOD EAST",-37.846728,145.153585,4.0,2.0,2,$460_Weekly,House,October 2016,3151,2016,10,EAST,460,House
751,751,"287A BLACKBURN ROAD, BURWOOD EAST",-37.846194,145.15403,3.0,2.0,2,$450_Weekly,Unit,September 2016,3151,2016,9,EAST,450,Apartment
752,752,"287A BLACKBURN ROAD, BURWOOD EAST",-37.846194,145.15403,3.0,2.0,2,$440,Unit,August 2016,3151,2016,8,EAST,440,Apartment
