,Unnamed: 0.1,address,latitude,longitude,nbed,nbath,ncar,price,type,historical_dates,postcode,year,month,suburb,weekly_rent,residence_type
0,0,"4 ALBERT STREET, CHEWTON",-37.0918145,144.258599,3.0,1.0,2,$345_Weekly,House,September 2017,3451,2017,9,CHEWTON,345,House
1,1,"208 MAIN ROAD, CHEWTON",-37.080111,144.261809,3.0,1.0,2,$300_pw,House,April 2017,3451,2017,4,CHEWTON,300,House
2,2,"22 PITMAN STREET, CHEWTON",-37.084464,144.2669094,2.0,1.0,2,$320_pw,House,September 2017,3451,2017,9,CHEWTON,320,House
3,3,"22 PITMAN STREET, CHEWTON",-37.084464,144.2669094,2.0,1.0,2,$320_per_week,House,August 2017,3451,2017,8,CHEWTON,320,House
4,4,"14 PITMAN STREET, CHEWTON",-37.083013,144.266589,4.0,1.0,1,$335_Weekly,House,February 2017,3451,2017,2,CHEWTON,335,House
5,5,"239 MAIN ROAD, CHEWTON",-37.081393,144.266198,2.0,1.0,2,$365_pw,House,June 2017,3451,2017,6,CHEWTON,365,House
6,6,"52 FRYERS ROAD, CHEWTON",-37.087738,144.257555,3.0,1.0,2,$450_per_week,House,August 2017,3451,2017,8,CHEWTON,450,House
7,7,"171 MAIN ROAD, CHEWTON",-37.081326,144.259245,3.0,1.0,8,$335_pw,House,March 2017,3451,2017,3,CHEWTON,335,House
8,8,"16 STEELE ST, CHEWTON",-37.0796296,144.2491082,3.0,2.0,2,$350_per_week,House,December 2017,3451,2017,12,CHEWTON,350,House
9,9,"16 STEELE STREET, CHEWTON",-37.0797293,144.248306,3.0,2.0,2,$350_per_week,House,December 2017,3451,2017,12,CHEWTON,350,House
10,10,"16 STEELE STREET, CHEWTON",-37.0797293,144.248306,3.0,2.0,2,$350_Weekly,House,November 2017,3451,2017,11,CHEWTON,350,House
11,11,"86 FRYERS ROAD, CHEWTON",-37.0914365,144.2563395,3.0,1.0,1,$280,House,October 2017,3451,2017,10,CHEWTON,280,House
12,12,"195 MAIN ROAD, CHEWTON",-37.0803456,144.2619809,3.0,1.0,2,$340,House,August 2017,3451,2017,8,CHEWTON,340,House
13,13,"9 MITCHELL STREET, CHEWTON",-37.0833349,144.2668596,4.0,1.0,2,$350_per_week,House,August 2017,3451,2017,8,CHEWTON,350,House
14,14,"9 MITCHELL STREET, CHEWTON",-37.0833349,144.2668596,4.0,1.0,2,$350_per_week,House,July 2017,3451,2017,7,CHEWTON,350,House
15,15,"204 MAIN ROAD, CHEWTON",-37.08026793,144.26125256,2.0,1.0,0,$315_per_week,House,July 2017,3451,2017,7,CHEWTON,315,House
16,16,"204 MAIN RD, CHEWTON",-37.0802679,144.2612526,2.0,1.0,0,$315_per_week,House,July 2017,3451,2017,7,CHEWTON,315,House
17,17,"55 MAIN ROAD, CHEWTON",-37.0782319,144.24870663,3.0,1.0,0,$280_pw,House,July 2017,3451,2017,7,CHEWTON,280,House
18,18,"114 GOLDEN POINT ROAD, CHEWTON",-37.071999,144.2744735,3.0,1.0,2,$250_pw,House,June 2017,3451,2017,6,CHEWTON,250,House
19,19,"114 FRYERS ROAD, CHEWTON",-37.094488,144.2554,2.0,1.0,3,$260_pw,House,May 2017,3451,2017,5,CHEWTON,260,House
20,20,"4/22 HENDLE STREET, CHILDERS",-25.2384092,152.2856441,2.0,2.0,1,$285_per_week,House,August 2017,3824,2017,8,CHILDERS,285,House
21,21,"6 NOAKES STREET, CHILDERS",-25.234434,152.273026,3.0,2.0,0,$300_per_week,House,August 2017,3824,2017,8,CHILDERS,300,House
22,22,"224 CHURCHILL STREET, CHILDERS",-25.234411,152.267975,3.0,1.0,1,$250_per_week,House,August 2017,3824,2017,8,CHILDERS,250,House
23,23,"10B CONNESS STREET, CHILTERN",-36.151004,146.605192,2.0,1.0,1,$235_pw,House,August 2017,3683,2017,8,CHILTERN,235,House
24,24,"2 REID STREET, CHILTERN",-36.148309,146.609426,3.0,1.0,1,$200_per_week,House,June 2017,3683,2017,6,CHILTERN,200,House
25,25,"29-31 ALBERT ROAD, CHILTERN",-36.1499141,146.5995142,4.0,2.0,4,$430,none,November 2017,3683,2017,11,CHILTERN,430,Other
26,26,"101 CONNESS STREET, CHILTERN",-36.1508561,146.6150245,3.0,1.0,0,$280,House,December 2017,3683,2017,12,CHILTERN,280,House
27,27,"5 PARK STREET, CHILTERN",-36.149064,146.608326,3.0,1.0,2,$280_p.w.,House,December 2017,3683,2017,12,CHILTERN,280,House
28,28,"A/31 BARKLY STREET, CHILTERN",-36.154935,146.6056378,3.0,1.0,1,$280_per_week,House,October 2017,3683,2017,10,CHILTERN,280,House
29,29,"A/31 BARKLY STREET, CHILTERN",-36.154935,146.6056378,3.0,1.0,1,$280_per_week,House,November 2017,3683,2017,11,CHILTERN,280,House
30,30,"A/31 BARKLY STREET, CHILTERN",-36.154935,146.6056378,3.0,1.0,1,$280_per_week,House,February 2017,3683,2017,2,CHILTERN,280,House
31,31,"13 BURKE STREET, CHILTERN",-36.152878,146.607758,2.0,1.0,1,$250_Weekly,none,September 2017,3683,2017,9,CHILTERN,250,Other
32,32,"222 TOOMEYS LANE, CHINTIN",-37.363602,144.839603,3.0,1.0,2,$560_per_week,none,January 2017,3756,2017,1,CHINTIN,560,Other
33,33,"4 GLENDALE DRIVE, CHIRNSIDE PARK",-37.751383,145.312411,4.0,2.0,2,$385_per_week,Rental_residential,February 2017,3116,2017,2,PARK,385,Other
34,34,"27 SWITCHBACK ROAD, CHIRNSIDE PARK",-37.745383,145.332843,3.0,1.0,1,$370_pw,House,September 2017,3116,2017,9,PARK,370,House
35,35,"1 MANSION PLACE, CHIRNSIDE PARK",-37.750597,145.327479,3.0,2.0,4,$440_pw,House,November 2017,3116,2017,11,PARK,440,House
36,36,"9 ALLY TERRACE, CHIRNSIDE PARK",-37.756061,145.295076,4.0,2.0,2,$550_per_week,House,November 2017,3116,2017,11,PARK,550,House
37,37,"9 ALLY TERRACE, CHIRNSIDE PARK",-37.756061,145.295076,4.0,2.0,2,$550_per_week,House,April 2017,3116,2017,4,PARK,550,House
38,38,"5 ALLY TERRACE, CHIRNSIDE PARK",-37.756717,145.294892,4.0,2.0,2,$570_per_week,House,December 2017,3116,2017,12,PARK,570,House
39,39,"5 ALLY TERRACE, CHIRNSIDE PARK",-37.756717,145.294892,4.0,2.0,2,$570_per_week,House,November 2017,3116,2017,11,PARK,570,House
40,40,"5 ALLY TERRACE, CHIRNSIDE PARK",-37.756717,145.294892,4.0,2.0,2,$550_pw,House,July 2017,3116,2017,7,PARK,550,House
41,41,"511-525 RIDGE ROAD, CHRISTMAS HILLS",-37.6593641,145.3008935,3.0,1.0,0,$380_per_week,none,March 2017,3775,2017,3,HILLS,380,Other
42,42,"9 ARTHURS ROAD, CHUM CREEK",-37.611197,145.49368,2.0,1.0,7,$320_per_week,House,June 2017,3777,2017,6,CREEK,320,House
43,43,"99 HODGES ROAD, CHUM CREEK",-37.6290249,145.4945064,3.0,1.0,2,$420_per_week,House,September 2017,3777,2017,9,CREEK,420,House
44,44,"30 LOWES ROAD, CHUM CREEK",-37.6296123,145.50245,4.0,2.0,2,$500_per_week,House,June 2017,3777,2017,6,CREEK,500,House
45,45,"36 HAWTHORN CRESCENT, CHURCHILL",-38.3053676,146.4133828,3.0,1.0,2,$235_Wk,House,October 2017,3842,2017,10,CHURCHILL,235,House
46,46,"36 HAWTHORN CRESCENT, CHURCHILL",-38.3053676,146.4133828,3.0,1.0,2,$235_Wk,House,July 2017,3842,2017,7,CHURCHILL,235,House
47,47,"7B BAROOGA CRESCENT, CHURCHILL",-38.3219101,146.4203673,1.0,1.0,1,$110_per_week,House,December 2017,3842,2017,12,CHURCHILL,110,House
48,48,"38 COOLABAH DRIVE, CHURCHILL",-38.303151,146.416263,3.0,1.0,1,$200,House,May 2017,3842,2017,5,CHURCHILL,200,House
49,49,"38 COOLABAH DRIVE, CHURCHILL",-38.303151,146.416263,3.0,1.0,1,$210_per_week,House,April 2017,3842,2017,4,CHURCHILL,210,House
50,50,"4 CASEY COURT, CLARINDA",-37.942898,145.109007,3.0,1.0,2,$470,House,June 2017,3169,2017,6,CLARINDA,470,House
51,51,"4 CASEY COURT, CLARINDA",-37.942898,145.109007,3.0,1.0,2,$480_per_week,House,June 2017,3169,2017,6,CLARINDA,480,House
52,52,"1/21 ELDER STREET, CLARINDA",-37.9291625,145.1038649,2.0,1.0,1,$320,Unit,November 2017,3169,2017,11,CLARINDA,320,Apartment
53,53,"35 INVERNESS STREET, CLARINDA",-37.931388,145.108324,3.0,1.0,1,$450_p.w.,House,November 2017,3169,2017,11,CLARINDA,450,House
54,54,"1 / 55 VINEY STREET, CLARINDA",-37.93875,145.101891,3.0,1.0,3,$450_per_week,Townhouse,October 2017,3169,2017,10,CLARINDA,450,House
55,55,"3/69 SCHNEIDER CRESCENT, CLARINDA",-37.938692,145.101428,2.0,1.0,2,$440_p.w.,Townhouse,November 2017,3169,2017,11,CLARINDA,440,House
56,56,"216 BOURKE ROAD, CLARINDA",-37.943003,145.115582,3.0,1.0,1,$360,House,May 2017,3169,2017,5,CLARINDA,360,House
57,57,"1/45 BUNNEY ROAD, CLARINDA",-37.93339,145.100827,3.0,1.0,2,$365_p.w.,House,November 2017,3169,2017,11,CLARINDA,365,House
58,58,"1/45 BUNNEY ROAD, CLARINDA",-37.93339,145.100827,3.0,1.0,2,$370_pw,House,October 2017,3169,2017,10,CLARINDA,370,House
59,59,"34 JACOBS DRIVE, CLARINDA",-37.944424,145.107486,3.0,1.0,2,$400_Wk,House,November 2017,3169,2017,11,CLARINDA,400,House
60,60,"34 JACOBS DRIVE, CLARINDA",-37.944424,145.107486,3.0,1.0,2,$400_Wk,House,August 2017,3169,2017,8,CLARINDA,400,House
61,61,"34 JACOBS DRIVE, CLARINDA",-37.944424,145.107486,3.0,1.0,2,$400_Wk,House,July 2017,3169,2017,7,CLARINDA,400,House
62,62,"1/45 BUNNEY RD, CLARINDA",-37.93339,145.100827,3.0,1.0,0,$365,House,November 2017,3169,2017,11,CLARINDA,365,House
63,63,"160 FENTON HILL ROAD, CLARKEFIELD",-37.4935034,144.8108406,3.0,1.0,3,$450_per_week,House,July 2017,3430,2017,7,CLARKEFIELD,450,House
64,64,"1556 LANCEFIELD &QUOTGATE HOUSE&QUOT ROAD, BOLINDA VALE, CLARKEFIELD",-37.4604361,144.7422777,3.0,1.0,1,$260_per_week,House,September 2017,3430,2017,9,CLARKEFIELD,260,House
65,65,"291 BOGGY GATE ROAD, CLARKEFIELD",-37.478953,144.789645,4.0,1.0,0,$575_Wk,House,June 2017,3430,2017,6,CLARKEFIELD,575,House
66,66,"291 BOGGY GATE RD, CLARKEFIELD",-37.478953,144.789645,4.0,1.0,0,$575_Wk,House,June 2017,3430,2017,6,CLARKEFIELD,575,House
67,67,"5/66 WELLINGTON ROAD, CLAYTON NORTH",-37.916266,145.137184,1.0,1.0,1,$200_p.w.,Studio,December 2017,3168,2017,12,NORTH,200,Apartment
68,68,"5/66 WELLINGTON ROAD, CLAYTON NORTH",-37.916266,145.137184,1.0,1.0,1,$200_p.w.,Studio,November 2017,3168,2017,11,NORTH,200,Apartment
69,69,"1/73 BEDDOE AVENUE, CLAYTON NORTH",-37.91329,145.127397,2.0,1.0,2,$350_p.w.,House,November 2017,3168,2017,11,NORTH,350,House
70,70,"1/73 BEDDOE AVENUE, CLAYTON NORTH",-37.91329,145.127397,2.0,1.0,2,$350_p.w.,House,October 2017,3168,2017,10,NORTH,350,House
71,71,"28 EVELYN STREET, CLAYTON NORTH",-37.919915,145.131416,3.0,1.0,0,$370_p.w.,House,October 2017,3168,2017,10,NORTH,370,House
72,72,"62 MAIN ROAD, CLAYTON NORTH",-37.935427,145.127029,3.0,1.0,0,$380_p.w.,House,August 2017,3168,2017,8,NORTH,380,House
73,73,"11 BETTINA ST, CLAYTON NORTH",-37.9189,145.137289,3.0,1.0,1,$350_p.w.,House,July 2017,3168,2017,7,NORTH,350,House
74,74,"11 BETTINA STREET, CLAYTON NORTH",-37.9189,145.137289,3.0,1.0,1,$350_p.w.,House,July 2017,3168,2017,7,NORTH,350,House
75,75,"2/54 WELLINGTON ROAD, CLAYTON NORTH",-37.9160857,145.1358348,4.0,2.0,1,$520_per_week,Townhouse,July 2017,3168,2017,7,NORTH,520,House
76,76,"1/19 BURNS AVENUE, CLAYTON SOUTH",-37.936444,145.134354,2.0,1.0,1,$300_Week,none,September 2017,3169,2017,9,SOUTH,300,Other
77,77,"1/31 BEVAN AVENUE, CLAYTON SOUTH",-37.934415,145.128568,3.0,1.0,1,$395_per_week,House,May 2017,3169,2017,5,SOUTH,395,House
78,78,"12 BOTANIC DRIVE, CLAYTON SOUTH",-37.939354,145.13641,3.0,2.0,2,$550,none,January 2017,3169,2017,1,SOUTH,550,Other
79,79,"12 BOTANIC DR, CLAYTON SOUTH",-37.939363,145.13649,3.0,2.0,2,$550,Townhouse,January 2017,3169,2017,1,SOUTH,550,House
80,80,"B218/60 AUTUMN TERRACE, CLAYTON SOUTH",-37.9393196,145.1384859,2.0,2.0,1,$400,none,April 2017,3169,2017,4,SOUTH,400,Other
81,81,"B218/60 AUTUMN TERRACE, CLAYTON SOUTH",-37.9393196,145.1384859,2.0,2.0,1,$400_per_week,none,March 2017,3169,2017,3,SOUTH,400,Other
82,82,"2/33 BROWNING AVENUE, CLAYTON SOUTH",-37.9389684,145.1327188,3.0,1.0,1,$340_Weekly,none,April 2017,3169,2017,4,SOUTH,340,Other
83,83,"2/33 BROWNING AVENUE, CLAYTON SOUTH",-37.9389684,145.1327188,3.0,1.0,1,$340_Weekly,none,March 2017,3169,2017,3,SOUTH,340,Other
84,84,"2/33 BROWNING AVENUE, CLAYTON SOUTH",-37.9389684,145.1327188,3.0,1.0,1,$340_Weekly,none,February 2017,3169,2017,2,SOUTH,340,Other
85,85,"51 GLENCANNON CRESCENT, CLAYTON SOUTH",-37.936405,145.116593,3.0,1.0,1,$390_Wk,House,November 2017,3169,2017,11,SOUTH,390,House
86,86,"51 GLENCANNON CRESCENT, CLAYTON SOUTH",-37.936405,145.116593,3.0,1.0,1,$390_Wk,House,August 2017,3169,2017,8,SOUTH,390,House
87,87,"51 GLENCANNON CRESCENT, CLAYTON SOUTH",-37.936405,145.116593,3.0,1.0,1,$390_Wk,House,July 2017,3169,2017,7,SOUTH,390,House
88,88,"27 SPRINGS RD, CLAYTON SOUTH",-37.929966,145.109612,3.0,1.0,1,$350_p.w.,House,November 2017,3169,2017,11,SOUTH,350,House
89,89,"27 SPRINGS RD, CLAYTON SOUTH",-37.929966,145.109612,3.0,1.0,1,$350_p.w.,House,June 2017,3169,2017,6,SOUTH,350,House
90,90,"37 MONASH CRESCENT, CLAYTON SOUTH",-37.944059,145.133323,3.0,1.0,2,$430,House,December 2017,3169,2017,12,SOUTH,430,House
91,91,"37 MONASH CRESCENT, CLAYTON SOUTH",-37.944059,145.133323,3.0,1.0,2,$450_p.w.,House,November 2017,3169,2017,11,SOUTH,450,House
92,92,"37 MONASH CRESCENT, CLAYTON SOUTH",-37.944059,145.133323,3.0,1.0,2,$480_Weekly,House,November 2017,3169,2017,11,SOUTH,480,House
93,93,"37 MONASH CRESCENT, CLAYTON SOUTH",-37.944059,145.133323,3.0,1.0,2,$440_Wk,House,October 2017,3169,2017,10,SOUTH,440,House
94,94,"37 MONASH CRESCENT, CLAYTON SOUTH",-37.944059,145.133323,3.0,1.0,2,$480_Weekly,House,August 2017,3169,2017,8,SOUTH,480,House
95,95,"37 MONASH CRESCENT, CLAYTON SOUTH",-37.944059,145.133323,3.0,1.0,2,$480_Weekly,House,July 2017,3169,2017,7,SOUTH,480,House
96,96,"5C TENNYSON AVENUE, CLAYTON SOUTH",-37.9333826,145.1302077,3.0,2.0,1,$500,Townhouse,May 2017,3169,2017,5,SOUTH,500,House
97,97,"2/55 MAIN ROAD, CLAYTON SOUTH",-37.937472,145.12717,3.0,2.0,2,$440,Unit,January 2017,3169,2017,1,SOUTH,440,Apartment
98,98,"UNIT 11/38 WORDSWORTH AVENUE, CLAYTON SOUTH",-37.939192,145.132069,2.0,1.0,1,$340_Wk,Unit,November 2017,3169,2017,11,SOUTH,340,Apartment
99,99,"UNIT 11/38 WORDSWORTH AVENUE, CLAYTON SOUTH",-37.939192,145.132069,2.0,1.0,1,$340_Wk,Unit,October 2017,3169,2017,10,SOUTH,340,Apartment
100,100,"1 MELOSA AVENUE, CLAYTON SOUTH",-37.937284,145.114101,3.0,1.0,2,$370,House,December 2017,3169,2017,12,SOUTH,370,House
101,101,"13 BROWNS ROAD, CLAYTON",-37.920978,145.127558,3.0,1.0,2,$495_p.w.,House,June 2017,3168,2017,6,CLAYTON,495,House
102,102,"13 BROWNS ROAD, CLAYTON",-37.920978,145.127558,3.0,1.0,2,$495_p.w.,House,May 2017,3168,2017,5,CLAYTON,495,House
103,103,"1/37 STOCKDALE AVENUE, CLAYTON",-37.910137,145.125737,1.0,1.0,0,$200,House,December 2017,3168,2017,12,CLAYTON,200,House
104,104,"4/10 PANORAMA STREET, CLAYTON",-37.918065,145.130143,3.0,1.0,1,$400_p.w.,Townhouse,June 2017,3168,2017,6,CLAYTON,400,House
105,105,"30/2 GREENFIELD DRIVE, CLAYTON",-37.923181,145.128623,2.0,1.0,1,$380,Unit,July 2017,3168,2017,7,CLAYTON,380,Apartment
106,106,"30/2 GREENFIELD DRIVE, CLAYTON",-37.923181,145.128623,2.0,1.0,1,$380,Unit,June 2017,3168,2017,6,CLAYTON,380,Apartment
107,107,"1/34 WELLINGTON ROAD, CLAYTON",-37.915779,145.133915,1.0,1.0,1,$255,Unit,December 2017,3168,2017,12,CLAYTON,255,Apartment
108,108,"2/40 EVELYN STREET, CLAYTON",-37.920813,145.131234,4.0,2.0,2,$550,House,January 2017,3168,2017,1,CLAYTON,550,House
109,109,"1266 CENTRE ROAD, CLAYTON",-37.9278306,145.1130031,2.0,1.0,2,$340_Wk,House,June 2017,3168,2017,6,CLAYTON,340,House
110,110,"UNIT 3/10 DENNIS STREET, CLAYTON",-37.9181978,145.1365816,2.0,1.0,1,$355_Wk,Unit,August 2017,3168,2017,8,CLAYTON,355,Apartment
111,111,"APARTMENT 10/4 MANATUNGA STREET, CLAYTON",-37.916239,145.125979,2.0,1.0,1,$295,Unit,September 2017,3168,2017,9,CLAYTON,295,Apartment
112,112,"APARTMENT 10/4 MANATUNGA STREET, CLAYTON",-37.916239,145.125979,2.0,1.0,1,$295,Unit,August 2017,3168,2017,8,CLAYTON,295,Apartment
113,113,"1/42 PANORAMA STREET, CLAYTON",-37.920706,145.129917,3.0,2.0,1,$450_per_week,House,August 2017,3168,2017,8,CLAYTON,450,House
114,114,"UNIT 2/91 MORIAH STREET, CLAYTON",-37.9251699,145.1296013,4.0,2.0,3,$610_Wk,Unit,December 2017,3168,2017,12,CLAYTON,610,Apartment
115,115,"UNIT 2/91 MORIAH STREET, CLAYTON",-37.9251699,145.1296013,4.0,2.0,3,$610_Wk,Unit,November 2017,3168,2017,11,CLAYTON,610,Apartment
116,116,"UNIT 2/20 BETTINA STREET, CLAYTON",-37.919178,145.137236,4.0,1.0,2,$550_Weekly,Townhouse,February 2017,3168,2017,2,CLAYTON,550,House
117,117,"UNIT 4/81 EVA STREET, CLAYTON",-37.926655,145.11265,2.0,1.0,1,$380_Weekly,Unit,February 2017,3168,2017,2,CLAYTON,380,Apartment
118,118,"UNIT 11/1774 DANDENONG ROAD, CLAYTON",-37.916481,145.1295235,2.0,1.0,1,$335_Weekly,Unit,January 2017,3168,2017,1,CLAYTON,335,Apartment
119,119,"7/18-20 FRANCIS STREET, CLAYTON",-37.925169,145.12312,2.0,1.0,2,$410_p.w.,Unit,June 2017,3168,2017,6,CLAYTON,410,Apartment
120,120,"7/18-20 FRANCIS STREET, CLAYTON",-37.925169,145.12312,2.0,1.0,2,$410_p.w.,Unit,April 2017,3168,2017,4,CLAYTON,410,Apartment
121,121,"1/8 MARSHALL AVENUE, CLAYTON",-37.907741,145.127956,4.0,2.0,1,$560,Townhouse,September 2017,3168,2017,9,CLAYTON,560,House
122,122,"1/8 MARSHALL AVENUE, CLAYTON",-37.907741,145.127956,4.0,2.0,1,$560,Townhouse,August 2017,3168,2017,8,CLAYTON,560,House
123,123,"5 PRINCE STREET, CLAYTON",-37.916188,145.124287,4.0,2.0,1,$500_p.w.,House,October 2017,3168,2017,10,CLAYTON,500,House
124,124,"5 PRINCE STREET, CLAYTON",-37.916188,145.124287,4.0,2.0,1,$580_p.w.,House,August 2017,3168,2017,8,CLAYTON,580,House
125,125,"47 THOMPSON STREET, CLAYTON",-37.918999,145.118538,4.0,1.0,1,$400_p.w.,House,September 2017,3168,2017,9,CLAYTON,400,House
126,126,"47 THOMPSON STREET, CLAYTON",-37.918999,145.118538,4.0,1.0,1,$400_p.w.,House,August 2017,3168,2017,8,CLAYTON,400,House
127,127,"2/54 PANORAMA STREET, CLAYTON",-37.921554,145.129661,3.0,2.0,2,$500_p.w.,Townhouse,May 2017,3168,2017,5,CLAYTON,500,House
128,128,"3/17 FRANCIS STREET, CLAYTON",-37.924666,145.123304,2.0,1.0,1,$380_p.w.,Unit,August 2017,3168,2017,8,CLAYTON,380,Apartment
129,129,"3/17 FRANCIS STREET, CLAYTON",-37.924666,145.123304,2.0,1.0,1,$380_p.w.,Unit,July 2017,3168,2017,7,CLAYTON,380,Apartment
130,130,"1/6 ATLANTIC STREET, CLAYTON",-37.918015,145.128456,1.0,1.0,1,$190,House,February 2017,3168,2017,2,CLAYTON,190,House
131,131,"43 HARLINGTON STREET, CLAYTON",-37.923241,145.110846,3.0,1.0,1,$400_Wk,House,October 2017,3168,2017,10,CLAYTON,400,House
132,132,"43 HARLINGTON STREET, CLAYTON",-37.923241,145.110846,3.0,1.0,1,$460,House,August 2017,3168,2017,8,CLAYTON,460,House
133,133,"43 HARLINGTON STREET, CLAYTON",-37.923241,145.110846,3.0,1.0,1,$400_Wk,House,August 2017,3168,2017,8,CLAYTON,400,House
134,134,"43 HARLINGTON STREET, CLAYTON",-37.923241,145.110846,3.0,1.0,1,$400_Wk,House,July 2017,3168,2017,7,CLAYTON,400,House
135,135,"APARTMENT 7/78-80 WELLINGTON ROAD, CLAYTON",-37.916524,145.138223,2.0,1.0,1,$310_Weekly,Unit,January 2017,3168,2017,1,CLAYTON,310,Apartment
136,136,"35 DENNIS STREET, CLAYTON",-37.91795,145.138633,5.0,2.0,1,$595_Weekly,House,January 2017,3168,2017,1,CLAYTON,595,House
137,137,"5/34 MADELEINE ROAD, CLAYTON",-37.91719754,145.12054169,3.0,1.0,2,$420,Unit,December 2017,3168,2017,12,CLAYTON,420,Apartment
138,138,"5/34 MADELEINE ROAD, CLAYTON",-37.91719754,145.12054169,3.0,1.0,2,$430_p.w.,Unit,November 2017,3168,2017,11,CLAYTON,430,Apartment
139,139,"5/34 MADELEINE ROAD, CLAYTON",-37.91719754,145.12054169,3.0,1.0,2,$440_per_week,Unit,October 2017,3168,2017,10,CLAYTON,440,Apartment
140,140,"5/34 MADELEINE ROAD, CLAYTON",-37.91719754,145.12054169,3.0,1.0,2,$495_pw,Unit,August 2017,3168,2017,8,CLAYTON,495,Apartment
141,141,"4 ROBINSON STREET, CLAYTON",-37.920006,145.111493,3.0,1.0,1,$410,House,August 2017,3168,2017,8,CLAYTON,410,House
142,142,"4 ROBINSON ST, CLAYTON",-37.919868,145.11152,3.0,1.0,1,$410_Weekly,House,August 2017,3168,2017,8,CLAYTON,410,House
143,143,"6/10 HILLTOP AVENUE, CLAYTON",-37.905826,145.127234,2.0,1.0,1,$335_per_week,none,May 2017,3168,2017,5,CLAYTON,335,Other
144,144,"6/10 HILLTOP AVENUE, CLAYTON",-37.905826,145.127234,2.0,1.0,1,$335_per_week,none,April 2017,3168,2017,4,CLAYTON,335,Other
145,145,"3/21 FRANCIS STREET, CLAYTON",-37.924041,145.121709,2.0,1.0,1,$380_p.w.,none,April 2017,3168,2017,4,CLAYTON,380,Other
146,146,"3/21 FRANCIS STREET, CLAYTON",-37.924041,145.121709,2.0,1.0,1,$350_p.w.,none,April 2017,3168,2017,4,CLAYTON,350,Other
147,147,"2 / 1452-1454 NORTH ROAD, CLAYTON",-37.914125,145.1205265,2.0,1.0,1,$360_pw,none,November 2017,3168,2017,11,CLAYTON,360,Other
148,148,"3/67 CARINISH ROAD, CLAYTON",-37.920687,145.115993,2.0,1.0,1,$470_Weekly,Townhouse,June 2017,3168,2017,6,CLAYTON,470,House
149,149,"9/34 WELLINGTON ROAD, CLAYTON",-37.915995,145.133951,1.0,1.0,1,$260,none,December 2017,3168,2017,12,CLAYTON,260,Other
150,150,"1/189 CARINISH ROAD, CLAYTON",-37.926977,145.124433,3.0,1.0,1,$530,Townhouse,July 2017,3168,2017,7,CLAYTON,530,House
151,151,"42 STOCKDALE AVENUE, CLAYTON",-37.910502,145.126035,4.0,2.0,1,$500_p.w.,House,January 2017,3168,2017,1,CLAYTON,500,House
152,152,"3/22 PANORAMA STREET, CLAYTON",-37.919093,145.130097,3.0,2.0,2,$575_Weekly,Townhouse,February 2017,3168,2017,2,CLAYTON,575,House
153,153,"1/189 CARINISH RD, CLAYTON",-37.926977,145.124433,3.0,1.0,1,$530_Weekly,Townhouse,July 2017,3168,2017,7,CLAYTON,530,House
154,154,"6/1-3 ARNOTT STREET, CLAYTON",-37.916516,145.134721,3.0,1.0,1,$520_per_week,none,February 2017,3168,2017,2,CLAYTON,520,Other
155,155,"10/10 ARNOTT STREET, CLAYTON",-37.9169379,145.1348441,2.0,1.0,1,$360_pw,Rental_residential,February 2017,3168,2017,2,CLAYTON,360,Other
156,156,"220/1457 NORTH ROAD, CLAYTON",-37.913578,145.124129,1.0,1.0,0,$245_per_week,Rental_residential,January 2017,3168,2017,1,CLAYTON,245,Other
157,157,"3/320 HAUGHTON ROAD, CLAYTON",-37.919046,145.111712,2.0,1.0,2,$390_per_week,Available Now,May 2017,3168,2017,5,CLAYTON,390,Other
158,158,"2B HOURIGAN AVENUE, CLAYTON",-37.917265,145.121913,3.0,2.0,2,$440_p.w.,Townhouse,March 2017,3168,2017,3,CLAYTON,440,House
159,159,"2 MORTON STREET, CLAYTON",-37.917033,145.135527,5.0,2.0,2,$165,none,May 2017,3168,2017,5,CLAYTON,165,Other
160,160,"2/5 HOURIGAN AVENUE, CLAYTON",-37.916695,145.122487,3.0,3.0,2,$580,Townhouse,May 2017,3168,2017,5,CLAYTON,580,House
161,161,"2 MORTON ST, CLAYTON",-37.917162,145.135501,5.0,2.0,0,$165,House,May 2017,3168,2017,5,CLAYTON,165,House
162,162,"23 MCBEAN STREET, CLAYTON",-37.923718,145.111716,2.0,1.0,2,$395,Townhouse,January 2017,3168,2017,1,CLAYTON,395,House
163,163,"16C BANKSIA STREET, CLAYTON",-37.915274,145.118986,2.0,1.0,2,$500_pw,Townhouse,December 2017,3168,2017,12,CLAYTON,500,House
164,164,"59 MARSHALL AVENUE, CLAYTON",-37.91192,145.126379,4.0,1.0,4,$450_per_week,House,February 2017,3168,2017,2,CLAYTON,450,House
165,165,"2/54-56 ALICE STREET, CLAYTON",-37.918421,145.117249,3.0,1.0,1,$600_per_week,Townhouse,October 2017,3168,2017,10,CLAYTON,600,House
166,166,"2/54-56 ALICE STREET, CLAYTON",-37.918421,145.117249,3.0,1.0,1,$600_p.w.,Townhouse,September 2017,3168,2017,9,CLAYTON,600,House
167,167,"2/54-56 ALICE STREET, CLAYTON",-37.918421,145.117249,3.0,1.0,1,$600_pw,Townhouse,July 2017,3168,2017,7,CLAYTON,600,House
168,168,"3/48-50 MANTON ROAD, CLAYTON",-37.915109,145.114495,2.0,2.0,1,$490,Townhouse,July 2017,3168,2017,7,CLAYTON,490,House
169,169,"3/48-50 MANTON ROAD, CLAYTON",-37.915109,145.114495,2.0,2.0,1,$500,Townhouse,July 2017,3168,2017,7,CLAYTON,500,House
170,170,"2/14 COLIN ROAD, CLAYTON",-37.9145314,145.1130905,3.0,1.0,2,$595,House,December 2017,3168,2017,12,CLAYTON,595,House
171,171,"2/14 COLIN ROAD, CLAYTON",-37.9145314,145.1130905,3.0,1.0,2,$595,House,November 2017,3168,2017,11,CLAYTON,595,House
172,172,"16 BRUSHBOX COURT, CLAYTON",-37.92314,145.129478,2.0,1.0,2,$380_per_week,Townhouse,August 2017,3168,2017,8,CLAYTON,380,House
173,173,"16 BRUSHBOX COURT, CLAYTON",-37.92314,145.129478,2.0,1.0,2,$380_pw,Townhouse,July 2017,3168,2017,7,CLAYTON,380,House
174,174,"23 BAYVIEW AVENUE, CLAYTON",-37.906772,145.126106,4.0,2.0,1,$580_p.w.,House,March 2017,3168,2017,3,CLAYTON,580,House
175,175,"23 BAYVIEW AVENUE, CLAYTON",-37.906772,145.126106,4.0,2.0,1,$595,House,January 2017,3168,2017,1,CLAYTON,595,House
176,176,"1/17 BEDDOE AVENUE, CLAYTON",-37.90863,145.128127,3.0,2.0,1,$550,Townhouse,January 2017,3168,2017,1,CLAYTON,550,House
177,177,"74B FULTON STREET, CLAYTON",-37.914398,145.116642,2.0,1.0,1,$450_p.w.,Townhouse,October 2017,3168,2017,10,CLAYTON,450,House
178,178,"6 VICTOR ROAD, CLEMATIS",-37.929987,145.420214,2.0,1.0,1,$310,none,July 2017,3782,2017,7,CLEMATIS,310,Other
179,179,"12 KIEWA STREET, CLIFTON HILL",-37.792404,145.000208,2.0,1.0,0,$650_pw,House,January 2017,3068,2017,1,HILL,650,House
180,180,"29 FENWICK STREET, CLIFTON HILL",-37.789226,144.999862,2.0,1.0,0,$560_pw,none,September 2017,3068,2017,9,HILL,560,Other
181,181,"3 YAMBLA STREET, CLIFTON HILL",-37.792673,145.000644,3.0,2.0,0,$695_per_week,House,August 2017,3068,2017,8,HILL,695,House
182,182,"12/82 ROSENEATH STREET, CLIFTON HILL",-37.793089,144.99717,3.0,2.0,1,$710_Week,none,November 2017,3068,2017,11,HILL,710,Other
183,183,"169 ROSENEATH STREET, CLIFTON HILL",-37.793091,145.000806,2.0,1.0,0,$560_per_week,House,July 2017,3068,2017,7,HILL,560,House
184,184,"47 CLIFFORD PLACE, CLIFTON HILL",-37.791779,145.001407,2.0,1.0,1,$520_per_week,Townhouse,February 2017,3068,2017,2,HILL,520,House
185,185,"205 SPENSLEY STREET, CLIFTON HILL",-37.786573,145.004419,2.0,1.0,1,$650_pw,House,December 2017,3068,2017,12,HILL,650,House
186,186,"68 ROSENEATH STREET, CLIFTON HILL",-37.792821,144.996608,3.0,2.0,1,$850_pw,House,January 2017,3068,2017,1,HILL,850,House
187,187,"1/140 ROSENEATH STREET, CLIFTON HILL",-37.7931954,144.9995561,5.0,3.0,0,$1300_per_week,none,May 2017,3068,2017,5,HILL,1300,Other
188,188,"128 NOONE ST, CLIFTON HILL",-37.793754,144.996451,2.0,1.0,0,$550,Rental_residential,December 2017,3068,2017,12,HILL,550,Other
189,189,"128 NOONE STREET, CLIFTON HILL",-37.793818,144.996434,2.0,1.0,0,$550_pw,none,December 2017,3068,2017,12,HILL,550,Other
190,190,"30A COUNCIL STREET, CLIFTON HILL",-37.792295,144.986832,4.0,2.0,0,$1050_pw,House,June 2017,3068,2017,6,HILL,1050,House
191,191,"8B PECKVILLE STREET, CLIFTON HILL",-37.79306,144.9914803,2.0,1.0,1,$750_pw,Townhouse,December 2017,3068,2017,12,HILL,750,House
192,192,"7/31-33 HEIDELBERG ROAD, CLIFTON HILL",-37.786681,144.997501,2.0,1.0,1,$415_per_week,none,July 2017,3068,2017,7,HILL,415,Other
193,193,"7/41 FENWICK STREET, CLIFTON HILL",-37.788821,144.999765,2.0,1.0,1,$420_pw,none,January 2017,3068,2017,1,HILL,420,Other
194,194,"1 YAMBLA STREET, CLIFTON HILL",-37.792736,145.000619,2.0,1.0,1,$550_pw,none,October 2017,3068,2017,10,HILL,550,Other
195,195,"1/81 FIELD STREET, CLIFTON HILL",-37.7921964,145.0022619,2.0,1.0,1,$520_pw,Rental_residential,August 2017,3068,2017,8,HILL,520,Other
196,196,"1/81 FIELD STREET, CLIFTON HILL",-37.7921964,145.0022619,2.0,1.0,1,$520_pw,Rental_residential,July 2017,3068,2017,7,HILL,520,Other
197,197,"4/15 ANDERSON STREET, CLIFTON HILL",-37.792677,144.99261,2.0,1.0,1,$390_pw,Rental_residential,January 2017,3068,2017,1,HILL,390,Other
198,198,"16/16 THE ESPLANADE, CLIFTON HILL",-37.7879444,145.0061292,1.0,1.0,1,$300_per_week,none,November 2017,3068,2017,11,HILL,300,Other
199,199,"15 COUNCIL STREET, CLIFTON HILL",-37.792726,144.986822,3.0,2.0,2,$780_pw,House,March 2017,3068,2017,3,HILL,780,House
200,200,"22 GROOM STREET, CLIFTON HILL",-37.793529,144.997952,2.0,2.0,1,$450_per_week,Rental_residential,April 2017,3068,2017,4,HILL,450,Other
201,201,"22 GROOM STREET, CLIFTON HILL",-37.793529,144.997952,2.0,2.0,1,$450_per_week,Rental_residential,March 2017,3068,2017,3,HILL,450,Other
202,202,"57 CLIFFORD PLACE, CLIFTON HILL",-37.791503,145.001466,3.0,2.0,1,$695_pw,Townhouse,October 2017,3068,2017,10,HILL,695,House
203,203,"10 ANDERSON ST, CLIFTON HILL",-37.792765,144.993104,2.0,1.0,1,$580,Rental_residential,January 2017,3068,2017,1,HILL,580,Other
204,204,"10 ANDERSON STREET, CLIFTON HILL",-37.792946,144.993254,2.0,1.0,1,$580_per_week,Available Now,February 2017,3068,2017,2,HILL,580,Other
205,205,"57 DALLY STREET, CLIFTON HILL",-37.792276,144.997986,2.0,1.0,1,$575_per_week,none,October 2017,3068,2017,10,HILL,575,Other
206,206,"30 WRIGHT STREET, CLIFTON HILL",-37.78906,145.00174,2.0,1.0,1,$600_pw,Rental_residential,January 2017,3068,2017,1,HILL,600,Other
207,207,"78 RAMSDEN STREET, CLIFTON HILL",-37.79056,144.999593,3.0,1.0,2,$790_pw,Rental_residential,August 2017,3068,2017,8,HILL,790,Other
208,208,"53 ROSENEATH STREET, CLIFTON HILL",-37.792369,144.996191,4.0,2.0,1,$790_pw,none,December 2017,3068,2017,12,HILL,790,Other
209,209,"23 AITKEN STREET, CLIFTON HILL",-37.791383,145.000129,2.0,1.0,0,$450_pw,Rental_residential,September 2017,3068,2017,9,HILL,450,Other
210,210,"2/14-16 RAMSDEN STREET, CLIFTON HILL",-37.790195,144.995884,3.0,2.0,2,$795,Rental_residential,November 2017,3068,2017,11,HILL,795,Other
211,211,"3/264 ALEXANDRA PARADE EAST, CLIFTON HILL",-37.7951262,144.9995113,1.0,1.0,1,$350_Week,Rental_residential,July 2017,3068,2017,7,HILL,350,Other
212,212,"1/211 GOLD STREET, CLIFTON HILL",-37.791306,144.990222,2.0,1.0,1,$430_per_week,none,July 2017,3068,2017,7,HILL,430,Other
213,213,"1/211 GOLD STREET, CLIFTON HILL",-37.791306,144.990222,2.0,1.0,1,$430_per_week,none,June 2017,3068,2017,6,HILL,430,Other
214,214,"363 WELLINGTON STREET, CLIFTON HILL",-37.793646,144.987995,3.0,2.0,1,$620_per_week,Rental_residential,October 2017,3068,2017,10,HILL,620,Other
215,215,"6 BULLIMAH AVENUE, CLIFTON SPRINGS",-38.1590774,144.5701968,3.0,1.0,1,$320,House,August 2017,3222,2017,8,SPRINGS,320,House
216,216,"30 CARAVEL AVENUE, CLIFTON SPRINGS",-38.1481356,144.5739724,3.0,2.0,1,$350,House,October 2017,3222,2017,10,SPRINGS,350,House
217,217,"30 CARAVEL AVENUE, CLIFTON SPRINGS",-38.1481356,144.5739724,3.0,2.0,1,$340_pw,House,August 2017,3222,2017,8,SPRINGS,340,House
218,218,"30 CARAVEL AVE, CLIFTON SPRINGS",-38.1481356,144.5739724,3.0,2.0,1,$350_Weekly,House,October 2017,3222,2017,10,SPRINGS,350,House
219,219,"65 MIRRABOOKA DRIVE, CLIFTON SPRINGS",-38.162112,144.558659,3.0,2.0,3,$395_per_week,none,August 2017,3222,2017,8,SPRINGS,395,Other
220,220,"65 MIRRABOOKA DRIVE, CLIFTON SPRINGS",-38.162112,144.558659,3.0,2.0,3,$395_pw,none,July 2017,3222,2017,7,SPRINGS,395,Other
221,221,"6 HANNAH STREET, CLUNES",-37.295479,143.78396,2.0,1.0,0,$230,Rental_residential,October 2017,3370,2017,10,CLUNES,230,Other
222,222,"58 TALBOT ROAD, CLUNES",-37.293255,143.779097,1.0,1.0,0,$230,House,November 2017,3370,2017,11,CLUNES,230,House
223,223,"58 TALBOT ROAD, CLUNES",-37.293255,143.779097,1.0,1.0,0,$230,House,October 2017,3370,2017,10,CLUNES,230,House
224,224,"38 TALBOT ROAD, CLUNES",-37.292486,143.777038,3.0,1.0,1,$260,House,January 2017,3370,2017,1,CLUNES,260,House
225,225,"47 SERVICE STREET, CLUNES",-37.2992574,143.7838899,3.0,2.0,0,$270_pw,House,March 2017,3370,2017,3,CLUNES,270,House
226,226,"85 BAILEY STREET, CLUNES",-37.2939486,143.78524,3.0,1.0,0,$260,House,September 2017,3370,2017,9,CLUNES,260,House
227,227,"45 THORNTON STREET, CLUNES",-37.300119,143.782084,3.0,1.0,1,$260,none,December 2017,3370,2017,12,CLUNES,260,Other
228,228,"88A BAILEY STREET, CLUNES",-37.294301,143.784245,2.0,1.0,0,$280,House,October 2017,3370,2017,10,CLUNES,280,House
229,229,"88A BAILEY STREET, CLUNES",-37.294301,143.784245,2.0,1.0,0,$280,House,November 2017,3370,2017,11,CLUNES,280,House
230,230,"88A BAILEY STREET, CLUNES",-37.294301,143.784245,2.0,1.0,0,$280,House,September 2017,3370,2017,9,CLUNES,280,House
231,231,"76 FRASER STREET, CLUNES",-37.297688,143.788508,4.0,1.0,1,$280_pw,House,October 2017,3370,2017,10,CLUNES,280,House
232,232,"76 FRASER STREET, CLUNES",-37.297688,143.788508,4.0,1.0,1,$230_per_week,House,February 2017,3370,2017,2,CLUNES,230,House
233,233,"76 FRASER STREET, CLUNES",-37.297688,143.788508,4.0,1.0,1,$260_per_week,House,January 2017,3370,2017,1,CLUNES,260,House
234,234,"64 SERVICE STREET, CLUNES",-37.3001882,143.7827429,2.0,1.0,1,$230_pw,House,October 2017,3370,2017,10,CLUNES,230,House
235,235,"64 SERVICE STREET, CLUNES",-37.3001882,143.7827429,2.0,1.0,1,$230_pw,House,July 2017,3370,2017,7,CLUNES,230,House
236,236,"15 BECKWITH STREET, CLUNES",-37.298842,143.78253,3.0,1.0,2,$230,House,October 2017,3370,2017,10,CLUNES,230,House
237,237,"120 LEARMONTH ROAD, CLUNES",-37.302631,143.773293,4.0,2.0,2,$325,House,October 2017,3370,2017,10,CLUNES,325,House
238,238,"15 SUBURBAN STREET, CLUNES",-37.29528,143.778701,3.0,1.0,3,$300_pw,House,October 2017,3370,2017,10,CLUNES,300,House
239,239,"2 SMEATON ROAD, CLUNES",-37.295809,143.79094,3.0,1.0,2,$260_per_week,House,July 2017,3370,2017,7,CLUNES,260,House
240,240,"53 CRITERION COURT, CLUNES",-37.2859058,143.7742777,3.0,1.0,0,$270_pw,House,February 2017,3370,2017,2,CLUNES,270,House
241,241,"53 CRITERION COURT, CLUNES",-37.2859058,143.7742777,3.0,1.0,0,$270_pw,House,March 2017,3370,2017,3,CLUNES,270,House
242,242,"6 CAMERON STREET, CLUNES",-37.292247,143.791814,2.0,1.0,2,$215_per_week,none,February 2017,3370,2017,2,CLUNES,215,Other
243,243,"25 CANTERBURY STREET, CLUNES",-37.2947937,143.7949085,3.0,1.0,0,$260,House,February 2017,3370,2017,2,CLUNES,260,House
244,244,"16 VANTAGE AVENUE, CLYDE NORTH",-38.104467,145.3234526,4.0,2.0,2,$400_Weekly,House,June 2017,3978,2017,6,NORTH,400,House
245,245,"16 VANTAGE AVENUE, CLYDE NORTH",-38.104467,145.3234526,4.0,2.0,2,$400,House,May 2017,3978,2017,5,NORTH,400,House
246,246,"58 ELLAROO CIRCUIT, CLYDE NORTH",-38.0784,145.3555753,4.0,2.0,2,$460_per_week,House,October 2017,3978,2017,10,NORTH,460,House
247,247,"11 TRAINERS WAY, CLYDE NORTH",-38.0325473,145.3429522,4.0,2.0,1,$380_per_week,House,December 2017,3978,2017,12,NORTH,380,House
248,248,"11 TRAINERS WAY, CLYDE NORTH",-38.0325473,145.3429522,4.0,2.0,1,$380_per_week,House,April 2017,3978,2017,4,NORTH,380,House
249,249,"11 TRAINERS WAY, CLYDE NORTH",-38.0325473,145.3429522,4.0,2.0,1,$390_per_week,House,March 2017,3978,2017,3,NORTH,390,House
250,250,"5 SIKES ROAD, CLYDE NORTH",-38.0827755,145.3595921,4.0,2.0,2,$430_Week,House,August 2017,3978,2017,8,NORTH,430,House
251,251,"5 SIKES ROAD, CLYDE NORTH",-38.0827755,145.3595921,4.0,2.0,2,$450_pw,House,July 2017,3978,2017,7,NORTH,450,House
252,252,"7 JUTLAND CLOSE, CLYDE NORTH",-38.1061639,145.323373,4.0,2.0,2,$390_per_week,House,April 2017,3978,2017,4,NORTH,390,House
253,253,"50 CLYDEVALE AVENUE, CLYDE NORTH",-38.1076947,145.3339446,4.0,2.0,2,$400_per_week,House,December 2017,3978,2017,12,NORTH,400,House
254,254,"50 CLYDEVALE AVENUE, CLYDE NORTH",-38.1076947,145.3339446,4.0,2.0,2,$410_per_week,House,October 2017,3978,2017,10,NORTH,410,House
255,255,"84 BIMBERRY CIRCUIT, CLYDE",-38.1247122,145.3230869,3.0,2.0,1,$355_Wk,House,February 2017,3978,2017,2,CLYDE,355,House
256,256,"235 CLYDE-FIVE WAYS ROAD, CLYDE",-38.13985,145.319078,4.0,3.0,2,$600_Wk,none,December 2017,3978,2017,12,CLYDE,600,Other
257,257,"235 CLYDE-FIVE WAYS ROAD, CLYDE",-38.13985,145.319078,4.0,3.0,2,$600_Wk,none,November 2017,3978,2017,11,CLYDE,600,Other
258,258,"235 CLYDE-FIVE WAYS ROAD, CLYDE",-38.13985,145.319078,4.0,3.0,2,$600_Wk,none,October 2017,3978,2017,10,CLYDE,600,Other
259,259,"82 GREEN GULLY ROAD, CLYDE",-38.1199516,145.3224339,2.0,2.0,2,$350_per_week,Townhouse,September 2017,3978,2017,9,CLYDE,350,House
260,260,"82 GREEN GULLY ROAD, CLYDE",-38.1199516,145.3224339,2.0,2.0,2,$350_per_week,Townhouse,August 2017,3978,2017,8,CLYDE,350,House
261,261,"501 COBAINS ROAD, COBAINS",-38.0930969,147.1269298,3.0,1.0,2,$225_p.w.,House,August 2017,3851,2017,8,COBAINS,225,House
262,262,"328 BENGWORDEN ROAD, COBAINS",-38.072845,147.110754,2.0,1.0,2,$240_per_week,Rental_residential,August 2017,3851,2017,8,COBAINS,240,Other
263,263,"53 BOUNDARY ROAD, COBDEN",-38.3378426,143.0727248,2.0,1.0,0,$200,House,December 2017,3266,2017,12,COBDEN,200,House
264,264,"397 STONEYFORD ROAD, COBDEN",-38.332701,143.126845,3.0,1.0,1,$240_per_week,none,February 2017,3266,2017,2,COBDEN,240,Other
265,265,"397 STONEYFORD ROAD, COBDEN",-38.332701,143.126845,3.0,1.0,1,$240_per_week,none,January 2017,3266,2017,1,COBDEN,240,Other
266,266,"2599 MURRAY VALLEY HIGHWAY, COBRAM EAST",-35.979657,145.735896,3.0,1.0,0,$285_per_week,none,September 2017,3644,2017,9,EAST,285,Other
267,267,"2599 MURRAY VALLEY HIGHWAY, COBRAM EAST",-35.979657,145.735896,3.0,1.0,0,$285_per_week,none,August 2017,3644,2017,8,EAST,285,Other
268,268,"21 WILLS STREET, COBRAM EAST",-35.927378,145.655126,4.0,2.0,1,$330,House,August 2017,3644,2017,8,EAST,330,House
269,269,"21 WILLS STREET, COBRAM EAST",-35.927378,145.655126,4.0,2.0,1,$330,House,July 2017,3644,2017,7,EAST,330,House
270,270,"21 WILLS STREET, COBRAM EAST",-35.927378,145.655126,4.0,2.0,1,$330,House,June 2017,3644,2017,6,EAST,330,House
271,271,"49 CHURR STREET, COBRAM",-35.91491885,145.66215576,4.0,2.0,2,$360,House,August 2017,3644,2017,8,COBRAM,360,House
272,272,"49 CHURR STREET, COBRAM",-35.91491885,145.66215576,4.0,2.0,2,$360,House,July 2017,3644,2017,7,COBRAM,360,House
273,273,"49 CHURR STREET, COBRAM",-35.91491885,145.66215576,4.0,2.0,2,$360,House,June 2017,3644,2017,6,COBRAM,360,House
274,274,"49 CHURR ST, COBRAM",-35.9149188,145.6621558,4.0,2.0,0,$360,House,July 2017,3644,2017,7,COBRAM,360,House
275,275,"23 GATTUSO DRIVE, COBRAM",-35.925188,145.669623,4.0,2.0,2,$450,Rental_residential,June 2017,3644,2017,6,COBRAM,450,Other
276,276,"3/2A IVY STREET, COBRAM",-35.9224251,145.6514887,2.0,1.0,1,$200,Rental_residential,December 2017,3644,2017,12,COBRAM,200,Other
277,277,"39 BISOGNI DRIVE, COBRAM",-35.9233042,145.6658788,3.0,2.0,2,$380,House,May 2017,3644,2017,5,COBRAM,380,House
278,278,"1/15 QUEEN STREET, COBRAM",-35.92183,145.647508,3.0,1.0,1,$270,Townhouse,June 2017,3644,2017,6,COBRAM,270,House
279,279,"42 MOOKARII ST, COBRAM",-35.9172338,145.6594354,3.0,1.0,1,$280_Weekly,House,April 2017,3644,2017,4,COBRAM,280,House
280,280,"42 MOOKARII STREET, COBRAM",-35.9172338,145.6594354,3.0,1.0,1,$280,none,April 2017,3644,2017,4,COBRAM,280,Other
281,281,"2443 GREAT ALPINE ROAD, COBUNGRA",-37.0931793,147.388943,1.0,1.0,1,$250_per_week,House,November 2017,3898,2017,11,COBUNGRA,250,House
282,282,"2443 GREAT ALPINE ROAD, COBUNGRA",-37.0931793,147.388943,1.0,1.0,1,$250_p.w.,House,October 2017,3898,2017,10,COBUNGRA,250,House
283,283,"2443 GREAT ALPINE ROAD, COBUNGRA",-37.0931793,147.388943,1.0,1.0,1,$250_per_week,House,July 2017,3898,2017,7,COBUNGRA,250,House
284,284,"20-22 DELTA AVENUE, COBURG NORTH",-37.721387,144.958497,1.0,1.0,0,$150_per_week,House,September 2017,3058,2017,9,NORTH,150,House
285,285,"60 CAMERA WALK, COBURG NORTH",-37.7287374,144.9807689,3.0,2.0,2,$520,Unit,November 2017,3058,2017,11,NORTH,520,Apartment
286,286,"32 ORVIETO STREET, COBURG NORTH",-37.720564,144.958338,3.0,2.0,2,$540_per_week,House,July 2017,3058,2017,7,NORTH,540,House
287,287,"38A MASHOOBRA STREET, COBURG NORTH",-37.7208715,144.9563606,3.0,2.0,1,$450,none,October 2017,3058,2017,10,NORTH,450,Other
288,288,"7 ANZAC AVENUE, COBURG NORTH",-37.722258,144.964566,3.0,1.0,1,$430_Weekly,House,June 2017,3058,2017,6,NORTH,430,House
289,289,"7 ANZAC AVE, COBURG NORTH",-37.722258,144.964566,3.0,1.0,1,$430_Weekly,House,June 2017,3058,2017,6,NORTH,430,House
290,290,"21 BOYD CRESCENT, COBURG NORTH",-37.733193,144.979128,4.0,2.0,1,$550,House,October 2017,3058,2017,10,NORTH,550,House
291,291,"21 BOYD CRES, COBURG NORTH",-37.733143,144.979189,4.0,2.0,1,$550_Weekly,House,October 2017,3058,2017,10,NORTH,550,House
292,292,"4/8 MATHIESON STREET, COBURG NORTH",-37.720588,144.96443,2.0,1.0,1,$415_per_week,Rental_residential,March 2017,3058,2017,3,NORTH,415,Other
293,293,"11 RED BOX STREET, COBURG NORTH",-37.7279113,144.9824989,4.0,3.0,2,$595,House,January 2017,3058,2017,1,NORTH,595,House
294,294,"132 NICHOLSON STREET, COBURG",-37.747235,144.977455,3.0,1.0,2,$500_per_week,none,May 2017,3058,2017,5,COBURG,500,Other
295,295,"3/7 JESSIE STREET, COBURG",-37.754077,144.960323,2.0,1.0,1,$350_Weekly,none,December 2017,3058,2017,12,COBURG,350,Other
296,296,"1 CONNOLLY AVENUE, COBURG",-37.735905,144.980822,3.0,1.0,1,$430_pw,none,January 2017,3058,2017,1,COBURG,430,Other
297,297,"1/1 GLADSTONE STREET, COBURG",-37.742853,144.9760918,3.0,1.0,1,$450,Rental_residential,May 2017,3058,2017,5,COBURG,450,Other
298,298,"1/1 GLADSTONE STREET, COBURG",-37.742853,144.9760918,3.0,1.0,1,$450_per_week,Rental_residential,April 2017,3058,2017,4,COBURG,450,Other
299,299,"5 ANKETELL STREET, COBURG",-37.745631,144.959669,4.0,1.0,1,$580_per_week,House,September 2017,3058,2017,9,COBURG,580,House
300,300,"40 HIGINBOTHAM STREET, COBURG",-37.734373,144.958503,3.0,1.0,2,$600_Weekly,House,April 2017,3058,2017,4,COBURG,600,House
301,301,"177 URQUHART STREET, COBURG",-37.741016,144.975769,3.0,2.0,1,$580,House,December 2017,3058,2017,12,COBURG,580,House
302,302,"177 URQUHART STREET, COBURG",-37.741016,144.975769,3.0,2.0,1,$600_p.w.,House,November 2017,3058,2017,11,COBURG,600,House
303,303,"55 SOUDAN STREET, COBURG",-37.739079,144.951259,5.0,3.0,2,$440,Townhouse,September 2017,3058,2017,9,COBURG,440,House
304,304,"4/11 METHVEN STREET, COBURG",-37.746901,144.963811,2.0,1.0,1,$400_per_week,Rental_residential,September 2017,3058,2017,9,COBURG,400,Other
305,305,"23 MARANOA CRESCENT, COBURG",-37.7519653,144.9550004,3.0,1.0,1,$450_Week,none,October 2017,3058,2017,10,COBURG,450,Other
306,306,"9 WATCHTOWER ROAD, COBURG",-37.73804815,144.97273345,4.0,2.0,2,$665_Weekly,House,January 2017,3058,2017,1,COBURG,665,House
307,307,"31 FOWLER STREET, COBURG",-37.7471566,144.969696,2.0,1.0,1,$450_per_week,House,March 2017,3058,2017,3,COBURG,450,House
308,308,"9 WATCHTOWER RD, COBURG",-37.7380481,144.9727335,4.0,2.0,2,$665_Weekly,House,January 2017,3058,2017,1,COBURG,665,House
309,309,"4/79 BELL STREET, COBURG",-37.741964,144.970699,3.0,1.0,1,$370_per_week,Rental_residential,September 2017,3058,2017,9,COBURG,370,Other
310,310,"49 SOUDAN STREET, COBURG",-37.739114,144.951791,3.0,1.0,1,$520_Week,none,December 2017,3058,2017,12,COBURG,520,Other
311,311,"4/85 GAFFNEY STREET, COBURG",-37.733725,144.959773,2.0,1.0,1,$425,House,September 2017,3058,2017,9,COBURG,425,House
312,312,"4/85 GAFFNEY STREET, COBURG",-37.733725,144.959773,2.0,1.0,1,$450_pw,House,July 2017,3058,2017,7,COBURG,450,House
313,313,"47 MOORE STREET, COBURG",-37.7542503,144.9695382,2.0,1.0,1,$520_per_week,Townhouse,May 2017,3058,2017,5,COBURG,520,House
314,314,"4/85 GAFFNEY ST, COBURG",-37.733725,144.959773,2.0,1.0,1,$425_Weekly,House,September 2017,3058,2017,9,COBURG,425,House
315,315,"1/626 SYDNEY ROAD, COBURG",-37.735539,144.96646,2.0,1.0,1,$310_Weekly,none,September 2017,3058,2017,9,COBURG,310,Other
316,316,"1/626 SYDNEY ROAD, COBURG",-37.735539,144.96646,2.0,1.0,1,$310_Weekly,none,August 2017,3058,2017,8,COBURG,310,Other
317,317,"10 QUEEN STREET, COBURG",-37.752913,144.949833,2.0,1.0,1,$430_Weekly,House,May 2017,3058,2017,5,COBURG,430,House
318,318,"237A BELL STREET, COBURG",-37.740342,144.953851,3.0,1.0,1,$420_Week,Rental_residential,May 2017,3058,2017,5,COBURG,420,Other
319,319,"41 MAIN STREET, COBURG",-37.738306,144.96269,2.0,2.0,0,$510_per_week,House,August 2017,3058,2017,8,COBURG,510,House
320,320,"207/37-41 MUNRO STREET, COBURG",-37.744967,144.963371,2.0,1.0,1,$370_per_week,Rental_residential,October 2017,3058,2017,10,COBURG,370,Other
321,321,"2/17-18 CHAMP STREET, COBURG",-37.735876,144.967325,2.0,1.0,2,$350_per_week,Rental_residential,April 2017,3058,2017,4,COBURG,350,Other
322,322,"59 THE AVENUE, COBURG",-37.752457,144.967722,2.0,1.0,2,$550,House,May 2017,3058,2017,5,COBURG,550,House
323,323,"59 THE AVENUE, COBURG",-37.752457,144.967722,2.0,1.0,2,$480,House,April 2017,3058,2017,4,COBURG,480,House
324,324,"5/15 NICHOLSON STREET, COBURG",-37.7559782,144.9748667,2.0,1.0,1,$430_per_week,Townhouse,February 2017,3058,2017,2,COBURG,430,House
325,325,"2/56 THE AVENUE, COBURG",-37.752826,144.968178,2.0,2.0,1,$440_-_$460_per_week,none,May 2017,3058,2017,5,COBURG,460,Other
326,326,"9A MILLER STREET, COBURG",-37.750111,144.969125,3.0,1.0,0,$450,House,January 2017,3058,2017,1,COBURG,450,House
327,327,"2/3 SHAFTSBURY STREET, COBURG",-37.75354,144.953103,2.0,1.0,1,$480_per_week,Townhouse,April 2017,3058,2017,4,COBURG,480,House
328,328,"2/3 SHAFTSBURY STREET, COBURG",-37.75354,144.953103,2.0,1.0,1,$480,Townhouse,March 2017,3058,2017,3,COBURG,480,House
329,329,"4/36 THE GROVE, COBURG",-37.751916,144.969914,2.0,1.0,1,$450,Townhouse,February 2017,3058,2017,2,COBURG,450,House
330,330,"4/110 MOORE STREET, COBURG",-37.755106,144.976605,3.0,1.0,2,$480_per_week,Townhouse,November 2017,3058,2017,11,COBURG,480,House
331,331,"4/110 MOORE STREET, COBURG",-37.755106,144.976605,3.0,1.0,2,$480,Townhouse,June 2017,3058,2017,6,COBURG,480,House
332,332,"35A GLADSTONE STREET, COBURG",-37.745237,144.97611,2.0,1.0,1,$400_pw,House,August 2017,3058,2017,8,COBURG,400,House
333,333,"11/40-50 STOCKADE AVENUE, COBURG",-37.737521,144.970247,2.0,1.0,1,$440_pw,Townhouse,May 2017,3058,2017,5,COBURG,440,House
334,334,"39 FISCHER STREET, COBURG",-37.733824,144.953878,3.0,1.0,1,$550_per_week,House,August 2017,3058,2017,8,COBURG,550,House
335,335,"2/5 FLORENCE STREET, COBURG",-37.752035,144.960492,3.0,2.0,2,$275_per_week,Townhouse,March 2017,3058,2017,3,COBURG,275,House
336,336,"1/119 RENNIE STREET, COBURG",-37.7514095,144.976389,2.0,1.0,2,$410_per_week,Townhouse,June 2017,3058,2017,6,COBURG,410,House
337,337,"237/14-20 NICHOLSON STREET, COBURG",-37.755441,144.975716,1.0,1.0,0,$310_Weekly,Available Now,May 2017,3058,2017,5,COBURG,310,Other
338,338,"2/33 SHAFTSBURY STREET, COBURG",-37.751325,144.953636,3.0,1.0,1,$370_per_week,none,November 2017,3058,2017,11,COBURG,370,Other
339,339,"2/33 SHAFTSBURY STREET, COBURG",-37.751325,144.953636,3.0,1.0,1,$370_p.w.,none,October 2017,3058,2017,10,COBURG,370,Other
340,340,"2/33 SHAFTSBURY STREET, COBURG",-37.751325,144.953636,3.0,1.0,1,$370_pw,none,August 2017,3058,2017,8,COBURG,370,Other
341,341,"2/185 MORELAND ROAD, COBURG",-37.755137,144.964836,3.0,1.0,1,$500,Townhouse,September 2017,3058,2017,9,COBURG,500,House
342,342,"2/70 LOCH STREET, COBURG",-37.7448939,144.9625477,2.0,1.0,1,$350_per_week,Townhouse,October 2017,3058,2017,10,COBURG,350,House
343,343,"1/5 DARLINGTON GROVE, COBURG",-37.75034,144.97297,3.0,1.0,1,$500,Townhouse,April 2017,3058,2017,4,COBURG,500,House
344,344,"1/5 DARLINGTON GROVE, COBURG",-37.75034,144.97297,3.0,1.0,1,$500,Townhouse,March 2017,3058,2017,3,COBURG,500,House
345,345,"31 RODDA STREET, COBURG",-37.743612,144.970075,2.0,1.0,1,$420_pw,none,December 2017,3058,2017,12,COBURG,420,Other
346,346,"109A/41-43 STOCKADE AVENUE, COBURG",-37.7390664,144.9698398,1.0,1.0,1,$270_per_week,none,October 2017,3058,2017,10,COBURG,270,Other
347,347,"109A/41-43 STOCKADE AVENUE, COBURG",-37.7390664,144.9698398,1.0,1.0,1,$270_per_week,none,January 2017,3058,2017,1,COBURG,270,Other
348,348,"68 BRUCE STREET, COBURG",-37.743287,144.948467,3.0,1.0,1,$495_per_week,none,May 2017,3058,2017,5,COBURG,495,Other
349,349,"69A MORELAND ROAD, COBURG",-37.756399,144.97422,3.0,1.0,1,$400_pw,none,November 2017,3058,2017,11,COBURG,400,Other
350,350,"1D ALFRED STREET, COBURG",-37.750094,144.963985,2.0,2.0,2,$520_pw,House,October 2017,3058,2017,10,COBURG,520,House
351,351,"102A/1 MANNA GUM COURT, COBURG",-37.737353,144.976093,1.0,1.0,1,$350_per_week,Available Now,May 2017,3058,2017,5,COBURG,350,Other
352,352,"1 CLARENDON STREET, COBURG",-37.753546,144.952063,3.0,1.0,0,$590_Weekly,House,February 2017,3058,2017,2,COBURG,590,House
353,353,"4/5 JESSIE STREET, COBURG",-37.754099,144.960515,2.0,1.0,1,$340,Unit,July 2017,3058,2017,7,COBURG,340,Apartment
354,354,"4/5 JESSIE STREET, COBURG",-37.754099,144.960515,2.0,1.0,1,$340,Unit,June 2017,3058,2017,6,COBURG,340,Apartment
355,355,"3/91 HARDING STREET, COBURG",-37.745813,144.974906,2.0,2.0,1,$550_per_week,Townhouse,November 2017,3058,2017,11,COBURG,550,House
356,356,"3/91 HARDING STREET, COBURG",-37.745813,144.974906,2.0,2.0,1,$600_pw,Townhouse,October 2017,3058,2017,10,COBURG,600,House
357,357,"30 CAMERON STREET, COBURG",-37.753486,144.962782,3.0,1.0,1,$550_pw,House,April 2017,3058,2017,4,COBURG,550,House
358,358,"30 CAMERON STREET, COBURG",-37.753486,144.962782,3.0,1.0,1,$550_pw,House,March 2017,3058,2017,3,COBURG,550,House
359,359,"5/144 NICHOLSON STREET, COBURG",-37.745681,144.977713,2.0,1.0,1,$290_pw,none,April 2017,3058,2017,4,COBURG,290,Other
360,360,"5/144 NICHOLSON STREET, COBURG",-37.745681,144.977713,2.0,1.0,1,$290_pw,none,March 2017,3058,2017,3,COBURG,290,Other
361,361,"37 AUTUMN STREET, COBURG",-37.733057,144.950234,3.0,1.0,2,$450_per_week,House,December 2017,3058,2017,12,COBURG,450,House
362,362,"2/145 BELL STREET, COBURG",-37.741058,144.962065,2.0,2.0,1,$440_-_$460_per_week,Townhouse,May 2017,3058,2017,5,COBURG,460,House
363,363,"37 AUTUMN ST, COBURG",-37.7330545,144.9502773,3.0,1.0,2,$450_Weekly,House,December 2017,3058,2017,12,COBURG,450,House
364,364,"28 PRESTON STREET, COBURG",-37.745224,144.954059,3.0,1.0,2,$590_-_$620_per_week,Available Now,July 2017,3058,2017,7,COBURG,620,Other
365,365,"28 PRESTON STREET, COBURG",-37.745224,144.954059,3.0,1.0,2,$590_-_$620_per_week,Available Now,June 2017,3058,2017,6,COBURG,620,Other
366,366,"41A RENNIE STREET, COBURG",-37.750558,144.969431,2.0,1.0,1,$440_per_week,none,July 2017,3058,2017,7,COBURG,440,Other
367,367,"17/110-117 MOORE STREET, COBURG",-37.755106,144.976605,2.0,1.0,1,$400,Townhouse,October 2017,3058,2017,10,COBURG,400,House
368,368,"1/1 INDUSTRY LANE, COBURG",-37.7369442,144.9699153,1.0,1.0,1,$340_per_week,none,March 2017,3058,2017,3,COBURG,340,Other
369,369,"74 LINDA STREET, COBURG",-37.7504653,144.9566657,3.0,2.0,1,$650_-_$670_per_week,Available Now,November 2017,3058,2017,11,COBURG,670,Other
370,370,"74 LINDA STREET, COBURG",-37.7504653,144.9566657,3.0,2.0,1,$620_-_$650_per_week,Available Now,January 2017,3058,2017,1,COBURG,650,Other
371,371,"2/27 GLADSTONE STREET, COBURG",-37.74468,144.976117,2.0,1.0,1,$380_per_week,Rental_residential,January 2017,3058,2017,1,COBURG,380,Other
372,372,"1/179 GORDON STREET, COBURG",-37.7419981,144.9492972,2.0,1.0,2,$390_Week,Available Now,November 2017,3058,2017,11,COBURG,390,Other
373,373,"27 SAUNDERS STREET, COBURG",-37.751542,144.950563,2.0,1.0,0,$440,none,April 2017,3058,2017,4,COBURG,440,Other
374,374,"27 SAUNDERS STREET, COBURG",-37.751542,144.950563,2.0,1.0,0,$440,none,March 2017,3058,2017,3,COBURG,440,Other
375,375,"3/9 SHEFFIELD STREET, COBURG",-37.746179,144.966674,2.0,1.0,1,$330,none,August 2017,3058,2017,8,COBURG,330,Other
376,376,"3/9 SHEFFIELD STREET, COBURG",-37.746179,144.966674,2.0,1.0,1,$330,none,July 2017,3058,2017,7,COBURG,330,Other
377,377,"25A FISCHER STREET, COBURG",-37.734543,144.953756,2.0,1.0,1,$370_p.w.,Rental_residential,November 2017,3058,2017,11,COBURG,370,Other
378,378,"1/22 CHAMBERS STREET, COBURG",-37.748545,144.968059,2.0,1.0,1,$350_pw,Rental_residential,October 2017,3058,2017,10,COBURG,350,Other
379,379,"27 HIGINBOTHAM STREET, COBURG",-37.735014,144.958066,4.0,2.0,1,$600_pw,House,April 2017,3058,2017,4,COBURG,600,House
380,380,"27 HIGINBOTHAM STREET, COBURG",-37.735014,144.958066,4.0,2.0,1,$600_pw,House,March 2017,3058,2017,3,COBURG,600,House
381,381,"25 CLIFTON GROVE, COBURG",-37.737821,144.958503,3.0,1.0,1,$470_per_week,none,June 2017,3058,2017,6,COBURG,470,Other
382,382,"1 HAVEN COURT, COCKATOO",-37.948073,145.496363,2.0,1.0,2,$340_per_week,House,May 2017,3781,2017,5,COCKATOO,340,House
383,383,"5 BORONIA CRESCENT, COCKATOO",-37.936985,145.493334,3.0,1.0,1,$350_per_week,Rental_residential,June 2017,3781,2017,6,COCKATOO,350,Other
384,384,"22 BELGRAVE-GEMBROOK ROAD, COCKATOO",-37.936065,145.494084,3.0,1.0,0,$350_per_week,Rental_residential,May 2017,3781,2017,5,COCKATOO,350,Other
385,385,"2 BELGRAVE AVENUE, COCKATOO",-37.92732,145.495818,4.0,2.0,6,$390_per_week,Rental_residential,November 2017,3781,2017,11,COCKATOO,390,Other
386,386,"18 DEVON AVENUE, COCKATOO",-37.933329,145.495013,3.0,1.0,2,$330,House,April 2017,3781,2017,4,COCKATOO,330,House
387,387,"18 DEVON AVENUE, COCKATOO",-37.933329,145.495013,3.0,1.0,2,$330,House,March 2017,3781,2017,3,COCKATOO,330,House
388,388,"23 JEANNE STREET, COCKATOO",-37.947436,145.483254,3.0,1.0,0,$400_per_week,House,December 2017,3781,2017,12,COCKATOO,400,House
389,389,"18 CARAWA STREET, COCKATOO",-37.926109,145.49772,3.0,2.0,1,$350_per_week,Rental_residential,November 2017,3781,2017,11,COCKATOO,350,Other
390,390,"18 CARAWA STREET, COCKATOO",-37.926109,145.49772,3.0,2.0,1,$350,Rental_residential,March 2017,3781,2017,3,COCKATOO,350,Other
391,391,"66 WOORI YALLOCK ROAD, COCKATOO",-37.928419,145.492924,3.0,2.0,2,$365_per_week,Rental_residential,May 2017,3781,2017,5,COCKATOO,365,Other
392,392,"CONTACT AGENT, COHUNA",-35.8094724,144.2223753,3.0,1.0,2,$190_pw,House,October 2017,3568,2017,10,COHUNA,190,House
393,393,"CONTACT AGENT, COHUNA",-35.8094724,144.2223753,3.0,1.0,2,$160_pw,House,September 2017,3568,2017,9,COHUNA,160,House
394,394,"CONTACT AGENT, COHUNA",-35.8094724,144.2223753,3.0,1.0,2,$190_pw,House,July 2017,3568,2017,7,COHUNA,190,House
395,395,"CONTACT AGENT, COHUNA",-35.8094724,144.2223753,3.0,1.0,2,$230_pw,House,June 2017,3568,2017,6,COHUNA,230,House
396,396,"35 MARKET STREET, COHUNA",-35.812621,144.22028,4.0,2.0,2,$250_pw,House,December 2017,3568,2017,12,COHUNA,250,House
397,397,"35 MARKET STREET, COHUNA",-35.812621,144.22028,4.0,2.0,2,$250_p.w.,House,November 2017,3568,2017,11,COHUNA,250,House
398,398,"59 ROVIRAS ROAD, COHUNA",-35.810055,144.204788,5.0,2.0,2,$250_pw,House,December 2017,3568,2017,12,COHUNA,250,House
399,399,"59 ROVIRAS ROAD, COHUNA",-35.810055,144.204788,5.0,2.0,2,$250_p.w.,House,November 2017,3568,2017,11,COHUNA,250,House
400,400,"59 ROVIRAS ROAD, COHUNA",-35.810055,144.204788,5.0,2.0,2,$250_per_week,House,October 2017,3568,2017,10,COHUNA,250,House
401,401,"129 WESTS ROAD, COHUNA",-35.8075212,144.2094638,2.0,1.0,0,$150_pw,House,December 2017,3568,2017,12,COHUNA,150,House
402,402,"129 WESTS ROAD, COHUNA",-35.8075212,144.2094638,2.0,1.0,0,$150,House,November 2017,3568,2017,11,COHUNA,150,House
403,403,"76 CHANNEL STREET, COHUNA",-35.805608,144.215925,3.0,1.0,2,$200_pw,House,November 2017,3568,2017,11,COHUNA,200,House
404,404,"461 MCMILLANS ROAD, COHUNA",-35.8351162,144.1802107,3.0,1.0,0,$150_pw,House,November 2017,3568,2017,11,COHUNA,150,House
405,405,"KING GEORGE STREET, COHUNA",-35.8048482,144.21848,3.0,1.0,0,$190_pw,House,October 2017,3568,2017,10,COHUNA,190,House
406,406,"24 GEORGE STREET, COHUNA",-35.8044499,144.2108099,3.0,2.0,2,$250_pw,House,October 2017,3568,2017,10,COHUNA,250,House
407,407,"24 WESTERN ROAD, COHUNA",-35.801232,144.210308,3.0,1.0,0,$220_pw,House,August 2017,3568,2017,8,COHUNA,220,House
408,408,"42 42 WILLIAM STREET, COHUNA",-35.8143907,144.2164951,3.0,1.0,2,$240_pw,House,August 2017,3568,2017,8,COHUNA,240,House
409,409,"ADDRESS ON REQUEST, COHUNA",-35.809355,144.219469,2.0,1.0,1,$230_pw,House,June 2017,3568,2017,6,COHUNA,230,House
410,410,"246 ANTIMONY MINE ROAD, COIMADAI",-37.592606,144.504339,3.0,1.0,2,$600_pw,House,October 2017,3340,2017,10,COIMADAI,600,House
411,411,"3/2 MOORE STREET, COLAC EAST",-38.3350619,143.5807681,2.0,1.0,1,$280_per_week,none,November 2017,3250,2017,11,EAST,280,Other
412,412,"94 MARRINER STREET, COLAC EAST",-38.3288703,143.6186838,4.0,2.0,2,$360_per_week,none,September 2017,3250,2017,9,EAST,360,Other
413,413,"155 QUEEN STREET, COLAC",-38.349234,143.590964,3.0,1.0,1,$310,House,February 2017,3250,2017,2,COLAC,310,House
414,414,"155 QUEEN STREET, COLAC",-38.349234,143.590964,3.0,1.0,1,$310_per_week,House,January 2017,3250,2017,1,COLAC,310,House
415,415,"26 WYNNE STREET, COLAC",-38.334893,143.571488,3.0,1.0,3,$290_per_week,House,June 2017,3250,2017,6,COLAC,290,House
416,416,"3/371 MURRAY STREET, COLAC",-38.337227,143.572886,2.0,1.0,1,$250_per_week,Available Now,January 2017,3250,2017,1,COLAC,250,Other
417,417,"4 SELWOOD STREET, COLAC",-38.347277,143.592928,2.0,1.0,0,$230_per_week,none,November 2017,3250,2017,11,COLAC,230,Other
418,418,"29 NELSON STREET, COLAC",-38.341895,143.571744,3.0,1.0,2,$310_pw,House,August 2017,3250,2017,8,COLAC,310,House
419,419,"90 MURRAY STREET EAST, COLAC",-38.3367928,143.6019912,3.0,1.0,1,$300_Wk,House,November 2017,3250,2017,11,COLAC,300,House
420,420,"20 MORRISON STREET, COLAC",-38.3466395,143.5877225,2.0,1.0,0,$220_Wk,House,October 2017,3250,2017,10,COLAC,220,House
421,421,"20 MORRISON STREET, COLAC",-38.3466395,143.5877225,2.0,1.0,0,$220_Wk,House,September 2017,3250,2017,9,COLAC,220,House
422,422,"20 MORRISON STREET, COLAC",-38.3466395,143.5877225,2.0,1.0,0,$220_Weekly,House,February 2017,3250,2017,2,COLAC,220,House
423,423,"15 QUAMBY AVENUE, COLAC",-38.333898,143.595916,3.0,2.0,1,$270_Weekly,House,February 2017,3250,2017,2,COLAC,270,House
424,424,"22 GRAVESEND STREET, COLAC",-38.346357,143.5853,3.0,2.0,1,$300_-_$1300_per_week,none,February 2017,3250,2017,2,COLAC,1300,Other
425,425,"22 GRAVESEND STREET, COLAC",-38.346357,143.5853,3.0,2.0,1,$300_per_week,none,February 2017,3250,2017,2,COLAC,300,Other
426,426,"17 NORTH GATEWAY, COLDSTREAM",-37.727807,145.380801,3.0,2.0,1,$420,House,November 2017,3770,2017,11,COLDSTREAM,420,House
427,427,"17 NORTH GATEWAY, COLDSTREAM",-37.727807,145.380801,3.0,2.0,1,$420_per_week,House,October 2017,3770,2017,10,COLDSTREAM,420,House
428,428,"21 KILLARA ROAD, COLDSTREAM",-37.722431,145.390804,4.0,1.0,2,$435,Rental_residential,January 2017,3770,2017,1,COLDSTREAM,435,Other
429,429,"18A CHEVIOT AVENUE, COLDSTREAM",-37.72822,145.38466,2.0,2.0,1,$350_Weekly,House,March 2017,3770,2017,3,COLDSTREAM,350,House
430,430,"18A CHEVIOT AVE, COLDSTREAM",-37.72822,145.38466,2.0,2.0,1,$350_Weekly,House,March 2017,3770,2017,3,COLDSTREAM,350,House
431,431,"26 SOUTH GATEWAY, COLDSTREAM",-37.730695,145.380738,4.0,1.0,1,$425_Weekly,House,November 2017,3770,2017,11,COLDSTREAM,425,House
432,432,"19 CHEVIOT AVENUE, COLDSTREAM",-37.727983,145.384155,3.0,1.0,1,$390,none,October 2017,3770,2017,10,COLDSTREAM,390,Other
433,433,"19 CHEVIOT AVENUE, COLDSTREAM",-37.727983,145.384155,3.0,1.0,1,$400,none,October 2017,3770,2017,10,COLDSTREAM,400,Other
434,434,"19 CHEVIOT AVENUE, COLDSTREAM",-37.727983,145.384155,3.0,1.0,1,$400_p.w.,none,August 2017,3770,2017,8,COLDSTREAM,400,Other
435,435,"60 KILLARA ROAD, COLDSTREAM",-37.724734,145.3852,4.0,2.0,1,$450_pw,House,October 2017,3770,2017,10,COLDSTREAM,450,House
436,436,"60 KILLARA ROAD, COLDSTREAM",-37.724734,145.3852,4.0,2.0,1,$450_pw,House,July 2017,3770,2017,7,COLDSTREAM,450,House
437,437,"33 CHURCH STREET, COLERAINE",-37.60373,141.696369,3.0,1.0,1,$170_per_week,none,December 2017,3315,2017,12,COLERAINE,170,Other
438,438,"33 CHURCH STREET, COLERAINE",-37.60373,141.696369,3.0,1.0,1,$170_per_week,none,October 2017,3315,2017,10,COLERAINE,170,Other
439,439,"33 CHURCH STREET, COLERAINE",-37.60373,141.696369,3.0,1.0,1,$170_per_week,none,September 2017,3315,2017,9,COLERAINE,170,Other
440,440,"9 MCCONOCHIE STREET, COLERAINE",-37.6028556,141.6993735,4.0,1.0,2,$200_per_week,none,December 2017,3315,2017,12,COLERAINE,200,Other
441,441,"94 MCCONOCHIE STREET, COLERAINE",-37.6014209,141.6890355,3.0,1.0,1,$200_per_week,House,August 2017,3315,2017,8,COLERAINE,200,House
442,442,"94 MCCONOCHIE STREET, COLERAINE",-37.6014209,141.6890355,3.0,1.0,1,$200_per_week,House,April 2017,3315,2017,4,COLERAINE,200,House
443,443,"3 MCCONOCHIE STREET, COLERAINE",-37.603077,141.700024,2.0,1.0,1,$150_p.w.,House,November 2017,3315,2017,11,COLERAINE,150,House
444,444,"43 GAGE STREET, COLERAINE",-37.6020253,141.6878179,3.0,1.0,2,$160_per_week,none,November 2017,3315,2017,11,COLERAINE,160,Other
445,445,"404/40 STANLEY STREET, COLLINGWOOD",-37.8021818,144.9853665,1.0,1.0,1,$430_per_week,none,January 2017,3066,2017,1,COLLINGWOOD,430,Other
446,446,"501/41 PEEL STREET, COLLINGWOOD",-37.8054248,144.985715,2.0,2.0,1,$585_Week,Rental_residential,November 2017,3066,2017,11,COLLINGWOOD,585,Other
447,447,"5/1 PEEL STREET, COLLINGWOOD",-37.805274,144.983734,1.0,1.0,1,$370_pw,Rental_residential,January 2017,3066,2017,1,COLLINGWOOD,370,Other
448,448,"325 WELLINGTON STREET, COLLINGWOOD",-37.795356,144.987795,3.0,1.0,2,$750_per_week,House,October 2017,3066,2017,10,COLLINGWOOD,750,House
450,450,"506/45 VICTORIA PARADE, COLLINGWOOD",-37.808694,144.984082,1.0,1.0,0,$265_per_week,Rental_residential,January 2017,3066,2017,1,COLLINGWOOD,265,Other
451,451,"18/34 SMITH STREET, COLLINGWOOD",-37.807413,144.983606,1.0,1.0,1,$395_pw,Rental_residential,February 2017,3066,2017,2,COLLINGWOOD,395,Other
452,452,"5/15-17 BENDIGO STREET, COLLINGWOOD",-37.796087,144.992632,1.0,1.0,1,$265_per_week,Rental_residential,August 2017,3066,2017,8,COLLINGWOOD,265,Other
453,453,"217/132 SMITH STREET, COLLINGWOOD",-37.804475,144.983604,2.0,2.0,1,$570_p.w.,none,October 2017,3066,2017,10,COLLINGWOOD,570,Other
454,454,"14/34 SMITH STREET, COLLINGWOOD",-37.8072953,144.9828207,1.0,1.0,1,$410_pw,Rental_residential,March 2017,3066,2017,3,COLLINGWOOD,410,Other
455,455,"26 CAMPBELL STREET, COLLINGWOOD",-37.803517,144.989147,2.0,1.0,0,$530_-_$550_pw,Rental_residential,March 2017,3066,2017,3,COLLINGWOOD,550,Other
456,456,"9/1 PEEL STREET, COLLINGWOOD",-37.805201,144.983757,1.0,1.0,1,$390_pw,Rental_residential,March 2017,3066,2017,3,COLLINGWOOD,390,Other
457,457,"601/45 VICTORIA PARADE, COLLINGWOOD",-37.808699,144.98413,2.0,1.0,0,$400_pw,House,February 2017,3066,2017,2,COLLINGWOOD,400,House
458,458,"507/107 CAMBRIDGE STREET, COLLINGWOOD",-37.8035817,144.9854989,2.0,1.0,1,$495_per_week,none,January 2017,3066,2017,1,COLLINGWOOD,495,Other
459,459,"2/45 DERBY STREET, COLLINGWOOD",-37.807164,144.984949,2.0,1.0,0,$460_pw,Rental_residential,September 2017,3066,2017,9,COLLINGWOOD,460,Other
460,460,"2/17 ALEXANDER STREET, COLLINGWOOD",-37.795758,144.991069,1.0,1.0,1,$280_pw,none,December 2017,3066,2017,12,COLLINGWOOD,280,Other
461,461,"407/45 VICTORIA PARADE, COLLINGWOOD",-37.8099026,144.9849844,1.0,1.0,0,$270_pw,Rental_residential,April 2017,3066,2017,4,COLLINGWOOD,270,Other
462,462,"117/3 HODDLE STREET, COLLINGWOOD",-37.8089283,144.9913524,2.0,1.0,2,$505_per_week,none,October 2017,3066,2017,10,COLLINGWOOD,505,Other
463,463,"1/1 PEEL STREET, COLLINGWOOD",-37.8050584,144.9837832,1.0,1.0,1,$400_pw,Rental_residential,June 2017,3066,2017,6,COLLINGWOOD,400,Other
464,464,"304/44 BEDFORD STREET, COLLINGWOOD",-37.801579,144.98484,2.0,1.0,1,$530_per_week,Available Now,May 2017,3066,2017,5,COLLINGWOOD,530,Other
465,465,"304/44 BEDFORD STREET, COLLINGWOOD",-37.801579,144.98484,2.0,1.0,1,$540_per_week,Available Now,May 2017,3066,2017,5,COLLINGWOOD,540,Other
466,466,"17/115 OXFORD STREET, COLLINGWOOD",-37.80752,144.983944,2.0,1.0,1,$690_per_week,Unit,August 2017,3066,2017,8,COLLINGWOOD,690,Apartment
467,467,"303/45 VICTORIA PARADE, COLLINGWOOD",-37.808699,144.98413,1.0,1.0,1,$260_pw,House,January 2017,3066,2017,1,COLLINGWOOD,260,House
468,468,"102/6 MATER STREET, COLLINGWOOD",-37.7953892,144.985423,2.0,2.0,1,$500_pw,Unit,October 2017,3066,2017,10,COLLINGWOOD,500,Apartment
469,469,"6/104 GOLD STREET, COLLINGWOOD",-37.7952364,144.990071,1.0,1.0,1,$370_p.w.,Unit,October 2017,3066,2017,10,COLLINGWOOD,370,Apartment
470,470,"6/104 GOLD STREET, COLLINGWOOD",-37.7952364,144.990071,1.0,1.0,1,$390_per_week,Unit,March 2017,3066,2017,3,COLLINGWOOD,390,Apartment
471,471,"3/104 GOLD STREET, COLLINGWOOD",-37.7952364,144.990071,1.0,1.0,1,$290_p.w.,Unit,September 2017,3066,2017,9,COLLINGWOOD,290,Apartment
472,472,"3/104 GOLD STREET, COLLINGWOOD",-37.7952364,144.990071,1.0,1.0,1,$290_per_week,Unit,April 2017,3066,2017,4,COLLINGWOOD,290,Apartment
473,473,"303/77A LITLLE OXFORD ST, COLLINGWOOD",-37.8031761,144.9842179,2.0,1.0,1,$500_per_week,Unit,April 2017,3066,2017,4,COLLINGWOOD,500,Apartment
474,474,"303/77A LITLLE OXFORD ST, COLLINGWOOD",-37.8031761,144.9842179,2.0,1.0,1,$500_per_week,Unit,February 2017,3066,2017,2,COLLINGWOOD,500,Apartment
475,475,"327/3 HODDLE STREET, COLLINGWOOD",-37.808908,144.991122,2.0,2.0,2,$550,Unit,July 2017,3066,2017,7,COLLINGWOOD,550,Apartment
476,476,"106T/70 STANLEY STREET, COLLINGWOOD",-37.8020642,144.9857329,2.0,1.0,1,$490_pw,Unit,August 2017,3066,2017,8,COLLINGWOOD,490,Apartment
477,477,"506/103-107 OXFORD STREET, COLLINGWOOD",-37.80316,144.984807,2.0,1.0,1,$610_pw,Rental_residential,October 2017,3066,2017,10,COLLINGWOOD,610,Other
478,478,"506/103-107 OXFORD STREET, COLLINGWOOD",-37.80316,144.984807,2.0,1.0,1,$610_Week,Rental_residential,June 2017,3066,2017,6,COLLINGWOOD,610,Other
479,479,"158 KEELE STREET, COLLINGWOOD",-37.797516,144.992393,3.0,1.0,0,$750_Week,House,August 2017,3066,2017,8,COLLINGWOOD,750,House
480,480,"9/78 OXFORD STREET, COLLINGWOOD",-37.807815,144.983906,1.0,1.0,1,$395_per_week,Available Now,February 2017,3066,2017,2,COLLINGWOOD,395,Other
481,481,"504/107 CAMBRIDGE STREET, COLLINGWOOD",-37.8035817,144.9854989,2.0,2.0,1,$575_per_week,none,January 2017,3066,2017,1,COLLINGWOOD,575,Other
482,482,"201/45 VICTORIA PARADE, COLLINGWOOD",-37.808694,144.984082,1.0,1.0,0,$265_per_week,Rental_residential,January 2017,3066,2017,1,COLLINGWOOD,265,Other
483,483,"96 DIGHT, COLLINGWOOD",-37.800055,144.989037,3.0,1.0,0,$620_per_week,House,May 2017,3066,2017,5,COLLINGWOOD,620,House
484,484,"378 WELLINGTON STREET, COLLINGWOOD",-37.795419,144.988285,2.0,1.0,1,$600_per_week,Rental_residential,June 2017,3066,2017,6,COLLINGWOOD,600,Other
485,485,"378 WELLINGTON STREET, COLLINGWOOD",-37.795419,144.988285,2.0,1.0,1,$615_per_week,Rental_residential,June 2017,3066,2017,6,COLLINGWOOD,615,Other
486,486,"92 PERRY STREET, COLLINGWOOD",-37.800237,144.989064,2.0,1.0,0,$550_pw,none,September 2017,3066,2017,9,COLLINGWOOD,550,Other
487,487,"92 PERRY STREET, COLLINGWOOD",-37.800237,144.989064,2.0,1.0,0,$550_Week,none,May 2017,3066,2017,5,COLLINGWOOD,550,Other
488,488,"113 EASEY STREET, COLLINGWOOD",-37.798445,144.990887,3.0,1.0,1,$750_Week,none,August 2017,3066,2017,8,COLLINGWOOD,750,Other
489,489,"9/109 OXFORD STREET, COLLINGWOOD",-37.802889,144.984737,2.0,1.0,1,$540_pw,none,April 2017,3066,2017,4,COLLINGWOOD,540,Other
490,490,"105/40 STANLEY STREET, COLLINGWOOD",-37.8021801,144.9853655,2.0,1.0,1,$525_pw,Rental_residential,April 2017,3066,2017,4,COLLINGWOOD,525,Other
491,491,"105/40 STANLEY STREET, COLLINGWOOD",-37.8021801,144.9853655,2.0,1.0,1,$525_pw,Rental_residential,March 2017,3066,2017,3,COLLINGWOOD,525,Other
492,492,"114 PIANTAS LANE, CONCONGELLA",-37.0650187,142.849144,3.0,1.0,0,$260,House,October 2017,3381,2017,10,CONCONGELLA,260,House
493,493,"134 LANDSBOROUGH ROAD, CONCONGELLA",-37.0548998,142.8190164,5.0,2.0,6,$395_per_week,House,March 2017,3381,2017,3,CONCONGELLA,395,House
494,494,"900 GOULBURN VALLEY HIGHWAY, CONGUPNA",-36.3064253,145.4291116,3.0,1.0,2,$230_pw,House,July 2017,3633,2017,7,CONGUPNA,230,House
495,495,"42 OLD GRAHAMVALE ROAD, CONGUPNA",-36.3133507,145.4317932,3.0,1.0,3,$280_per_week,House,December 2017,3633,2017,12,CONGUPNA,280,House
496,496,"42 OLD GRAHAMVALE ROAD, CONGUPNA",-36.3133507,145.4317932,3.0,1.0,3,$280_per_week,House,November 2017,3633,2017,11,CONGUPNA,280,House
497,497,"42 OLD GRAHAMVALE ROAD, CONGUPNA",-36.3133507,145.4317932,3.0,1.0,3,$250_Reduced,House,March 2017,3633,2017,3,CONGUPNA,250,House
498,498,"85 VERNEY NORTH ROAD, CONGUPNA",-36.2972518,145.4157802,2.0,1.0,2,$210_per_week,House,February 2017,3633,2017,2,CONGUPNA,210,House
499,499,"85 VERNEY NORTH ROAD, CONGUPNA",-36.2972518,145.4157802,2.0,1.0,2,$210_per_week,House,March 2017,3633,2017,3,CONGUPNA,210,House
500,500,"4 BAENSCHS LANE, CONNEWARRE",-38.2503967,144.3887244,3.0,2.0,2,$450_per_week,House,December 2017,3228,2017,12,CONNEWARRE,450,House
501,501,"3 LAWN COURT, CONNEWARRE",-38.261088,144.398992,4.0,2.0,2,$500_pw,House,February 2017,3228,2017,2,CONNEWARRE,500,House
502,502,"9A WESTMERE CRESCENT, COOLAROO",-37.664659,144.93586,1.0,1.0,1,$255_per_week,Unit,October 2017,3048,2017,10,COOLAROO,255,Apartment
503,503,"9A WESTMERE CRESCENT, COOLAROO",-37.664659,144.93586,1.0,1.0,1,$265_per_week,Unit,October 2017,3048,2017,10,COOLAROO,265,Apartment
504,504,"10 CROSSLEY CRESCENT, COOLAROO",-37.660361,144.935429,3.0,1.0,2,$310_per_week,House,January 2017,3048,2017,1,COOLAROO,310,House
505,505,"45 BUSHFIELD CRESCENT, COOLAROO",-37.662135,144.932207,3.0,1.0,1,$320_per_week,House,July 2017,3048,2017,7,COOLAROO,320,House
506,506,"1/4-8 MLADEN COURT, COOLAROO",-37.657292,144.930596,2.0,1.0,1,$315_per_week,Townhouse,August 2017,3048,2017,8,COOLAROO,315,House
507,507,"1/4-8 MLADEN COURT, COOLAROO",-37.657292,144.930596,2.0,1.0,1,$325_per_week,Townhouse,August 2017,3048,2017,8,COOLAROO,325,House
508,508,"27 PEARSON CRESCENT, COOLAROO",-37.657836,144.932751,3.0,1.0,2,$360,none,November 2017,3048,2017,11,COOLAROO,360,Other
509,509,"27 PEARSON CRESCENT, COOLAROO",-37.657836,144.932751,3.0,1.0,2,$370_per_week,none,November 2017,3048,2017,11,COOLAROO,370,Other
510,510,"13 CHILDERS CRESCENT, COOLAROO",-37.661619,144.929052,3.0,1.0,2,$300,House,July 2017,3048,2017,7,COOLAROO,300,House
511,511,"112 LONGFORD CRESCENT, COOLAROO",-37.655438,144.929122,3.0,1.0,4,$360,Rental_residential,July 2017,3048,2017,7,COOLAROO,360,Other
512,512,"40 FLYNN CRESCENT, COOLAROO",-37.658332,144.931762,3.0,1.0,0,$370_Weekly,Rental_residential,December 2017,3048,2017,12,COOLAROO,370,Other
513,513,"40 FLYNN CRESCENT, COOLAROO",-37.658332,144.931762,3.0,1.0,0,$370_Weekly,Rental_residential,November 2017,3048,2017,11,COOLAROO,370,Other
514,514,"6 LOVAT COURT, COOLAROO",-37.654336,144.930513,3.0,1.0,2,$295_per_week,Rental_residential,April 2017,3048,2017,4,COOLAROO,295,Other
515,515,"44 LONGFORD CRESCENT, COOLAROO",-37.661346,144.92736,3.0,1.0,1,$320_per_week,House,January 2017,3048,2017,1,COOLAROO,320,House
516,516,"29 BEN CRAUCHAN PARADE, COONGULLA",-37.8950839,146.7870288,3.0,1.0,2,$250_per_week,House,October 2017,3860,2017,10,COONGULLA,250,House
517,517,"29 BEN CRAUCHAN PARADE, COONGULLA",-37.8950839,146.7870288,3.0,1.0,2,$250_pw,House,June 2017,3860,2017,6,COONGULLA,250,House
518,518,"231 RYANS ROAD, COONGULLA",-37.8938349,146.7884342,3.0,1.0,2,$250_per_week,House,August 2017,3860,2017,8,COONGULLA,250,House
519,519,"14 WOOLENOOK WAY, COONGULLA",-37.894727,146.7815896,3.0,2.0,4,$270_per_week,House,June 2017,3860,2017,6,COONGULLA,270,House
520,520,"8 MCALISTER DRIVE, COONGULLA",-37.8936178,146.783273,3.0,1.0,2,$250_per_week,House,October 2017,3860,2017,10,COONGULLA,250,House
521,521,"275 RYANS ROAD, COONGULLA",-37.8938349,146.7884342,3.0,1.0,4,$300_pw,House,January 2017,3860,2017,1,COONGULLA,300,House
522,522,"470 GALLUM ROAD, COORIEMUNGLE",-38.550238,143.134526,4.0,1.0,0,$230_p.w.,House,February 2017,3268,2017,2,COORIEMUNGLE,230,House
523,523,"41 MOORINGS PLACE, CORINELLA",-38.411505,145.430496,3.0,2.0,6,$400,none,October 2017,3984,2017,10,CORINELLA,400,Other
524,524,"13 KILBURN STREET, CORINELLA",-38.414375,145.434683,3.0,1.0,1,$260,none,October 2017,3984,2017,10,CORINELLA,260,Other
525,525,"23 MOORINGS PLACE, CORINELLA",-38.4124682,145.4306845,4.0,2.0,2,$330_Wk,Rental_residential,June 2017,3984,2017,6,CORINELLA,330,Other
526,526,"23 MOORINGS PLACE, CORINELLA",-38.4124682,145.4306845,4.0,2.0,2,$345_Weekly,Rental_residential,May 2017,3984,2017,5,CORINELLA,345,Other
527,527,"11 MOORINGS PLACE, CORINELLA",-38.4131412,145.4304677,3.0,2.0,2,$310_per_week,House,September 2017,3984,2017,9,CORINELLA,310,House
528,528,"22 MICHIGAN AVENUE, CORIO",-38.077455,144.36473,3.0,1.0,1,$250_per_week,House,December 2017,3214,2017,12,CORIO,250,House
529,529,"3/13 ONTARIO AVENUE, CORIO",-38.0811036,144.3595703,2.0,2.0,1,$300_per_week,none,November 2017,3214,2017,11,CORIO,300,Other
530,530,"12 GRANAULT PARADE, CORIO",-38.075683,144.365084,3.0,1.0,2,$290_per_week,none,June 2017,3214,2017,6,CORIO,290,Other
531,531,"189 BACCHUS MARSH ROAD, CORIO",-38.068617,144.358095,3.0,1.0,1,$295_per_week,House,November 2017,3214,2017,11,CORIO,295,House
532,532,"6 VICKERS COURT, CORIO",-38.066614,144.354408,3.0,2.0,2,$340,House,November 2017,3214,2017,11,CORIO,340,House
533,533,"6 VICKERS COURT, CORIO",-38.066614,144.354408,3.0,2.0,2,$340_per_week,House,October 2017,3214,2017,10,CORIO,340,House
534,534,"42 MICHIGAN AVENUE, CORIO",-38.075924,144.366588,3.0,1.0,3,$250_pw,none,May 2017,3214,2017,5,CORIO,250,Other
535,535,"42 MICHIGAN AVENUE, CORIO",-38.075924,144.366588,3.0,1.0,3,$250_per_week,none,April 2017,3214,2017,4,CORIO,250,Other
536,536,"5 TAMBO COURT, CORIO",-38.07539839,144.34893905,3.0,1.0,1,$300_pw,none,November 2017,3214,2017,11,CORIO,300,Other
537,537,"10 CANADIAN PARADE, CORIO",-38.076496,144.364674,3.0,1.0,1,$240_per_week,House,July 2017,3214,2017,7,CORIO,240,House
538,538,"14 HARDING STREET, CORIO",-38.0669616,144.3700206,3.0,1.0,1,$300_pw,House,June 2017,3214,2017,6,CORIO,300,House
539,539,"1/23 PAULSON STREET, CORIO",-38.075535,144.343519,3.0,1.0,1,$300,House,December 2017,3214,2017,12,CORIO,300,House
540,540,"1/23 PAULSON STREET, CORIO",-38.075535,144.343519,3.0,1.0,1,$310_p.w.,House,November 2017,3214,2017,11,CORIO,310,House
541,541,"1/23 PAULSON STREET, CORIO",-38.075535,144.343519,3.0,1.0,1,$320_pw,House,November 2017,3214,2017,11,CORIO,320,House
542,542,"1/23 PAULSON STREET, CORIO",-38.075535,144.343519,3.0,1.0,1,$320_per_week,House,October 2017,3214,2017,10,CORIO,320,House
543,543,"1/23 PAULSON ST, CORIO",-38.0756277,144.3434346,3.0,1.0,1,$300_Weekly,House,December 2017,3214,2017,12,CORIO,300,House
544,544,"143 PURNELL ROAD, CORIO",-38.0728085,144.3460787,3.0,1.0,5,$320_pw,House,October 2017,3214,2017,10,CORIO,320,House
545,545,"14 CORANGAMITE DRIVE, CORIO",-38.067773,144.34357,4.0,1.0,2,$295_Weekly,House,February 2017,3214,2017,2,CORIO,295,House
546,546,"16C WILKINS CLOSE, CORIO",-38.0785193,144.3447955,3.0,2.0,1,$320_per_week,none,October 2017,3214,2017,10,CORIO,320,Other
547,547,"6 ARMALITE COURT, CORIO",-38.069292,144.351343,3.0,1.0,2,$285_per_week,Rental_residential,October 2017,3214,2017,10,CORIO,285,Other
548,548,"14 FRONSAC AVENUE, CORIO",-38.079509,144.360348,3.0,1.0,2,$260_per_week,none,December 2017,3214,2017,12,CORIO,260,Other
549,549,"10 GOODWIN COURT, CORIO",-38.064296,144.377219,3.0,1.0,1,$270,House,August 2017,3214,2017,8,CORIO,270,House
550,550,"10 GOODWIN CT, CORIO",-38.0642339,144.3772305,3.0,1.0,1,$270_Weekly,House,August 2017,3214,2017,8,CORIO,270,House
551,551,"4 CHESHIRE STREET, CORIO",-38.073003,144.353327,3.0,1.0,4,$285_per_week,none,July 2017,3214,2017,7,CORIO,285,Other
552,552,"36 BUFFALO AVENUE, CORIO",-38.074243,144.366944,3.0,1.0,1,$300,none,August 2017,3214,2017,8,CORIO,300,Other
553,553,"36 BUFFALO AVENUE, CORIO",-38.074243,144.366944,3.0,1.0,1,$300,none,July 2017,3214,2017,7,CORIO,300,Other
554,554,"79 GELLIBRAND STREET, CORONET BAY",-38.4312979,145.44152,3.0,1.0,1,$260_Weekly,House,August 2017,3984,2017,8,BAY,260,House
555,555,"4 OCEANAIRES AVENUE, CORONET BAY",-38.434819,145.444068,3.0,1.0,0,$280_per_week,House,February 2017,3984,2017,2,BAY,280,House
556,556,"61 GELLIBRAND STREET, CORONET BAY",-38.4330955,145.4412521,3.0,3.0,1,$290_per_week,House,May 2017,3984,2017,5,BAY,290,House
557,557,"33 BASS HORIZON PROMENADE, CORONET BAY",-38.4358418,145.4453099,4.0,1.0,2,$300_per_week,House,November 2017,3984,2017,11,BAY,300,House
558,558,"33 BASS HORIZON PROMENADE, CORONET BAY",-38.4358418,145.4453099,4.0,1.0,2,$300,House,June 2017,3984,2017,6,BAY,300,House
559,559,"19 LORNA DOONE DRIVE, CORONET BAY",-38.4380569,145.4428592,3.0,1.0,2,$280,House,January 2017,3984,2017,1,BAY,280,House
560,560,"25 GREENWICH GRANGE, CORONET BAY",-38.433751,145.443706,4.0,2.0,1,$335,House,March 2017,3984,2017,3,BAY,335,House
561,561,"31 CUTTY SARK ROAD, CORONET BAY",-38.43893,145.442569,3.0,1.0,1,$275,House,November 2017,3984,2017,11,BAY,275,House
562,562,"523 CORANGAMITE LAKE ROAD, COROROOKE",-38.2890562,143.5225133,3.0,1.0,2,$190_per_week,none,March 2017,3254,2017,3,COROROOKE,190,Other
563,563,"65 TOWONG ROAD, CORRYONG",-36.1906622,147.9124236,3.0,1.0,2,$230_per_week,House,November 2017,3707,2017,11,CORRYONG,230,House
564,564,"65 TOWONG ROAD, CORRYONG",-36.1906622,147.9124236,3.0,1.0,2,$230,House,June 2017,3707,2017,6,CORRYONG,230,House
565,565,"2 WALTER PLACE, VALLEY VIEW ESTATE, CORRYONG",-36.196814,147.905135,2.0,1.0,1,$200_per_week,House,November 2017,3707,2017,11,CORRYONG,200,House
566,566,"2 WALTER PLACE, VALLEY VIEW ESTATE, CORRYONG",-36.196814,147.905135,2.0,1.0,1,$200_p.w.,House,September 2017,3707,2017,9,CORRYONG,200,House
567,567,"2 WALTER PLACE, CORRYONG",-36.196815490723,147.905136108398,2.0,1.0,1,$200_per_week,House,August 2017,3707,2017,8,CORRYONG,200,House
568,568,"116 HANSON STREET, CORRYONG",-36.197664,147.898817,3.0,1.0,1,$300_per_week,House,March 2017,3707,2017,3,CORRYONG,300,House
569,569,"28 HAMILTON CRESCENT, CORRYONG",-36.195183,147.90018,3.0,1.0,2,$170,House,December 2017,3707,2017,12,CORRYONG,170,House
570,570,"28 HAMILTON CRESCENT, CORRYONG",-36.195183,147.90018,3.0,1.0,2,$170,House,November 2017,3707,2017,11,CORRYONG,170,House
571,571,"28 HAMILTON CRESCENT, CORRYONG",-36.195183,147.90018,3.0,1.0,2,$170,House,October 2017,3707,2017,10,CORRYONG,170,House
572,572,"4/154 HARRIS STREET, CORRYONG",-36.198582,147.89388,1.0,1.0,1,$110_per_week,none,November 2017,3707,2017,11,CORRYONG,110,Other
573,573,"4/154 HARRIS STREET, CORRYONG",-36.198582,147.89388,1.0,1.0,1,$105_per_week,none,June 2017,3707,2017,6,CORRYONG,105,Other
574,574,"5/154 HARRIS STREET ST, CORRYONG",-36.1985817,147.8938804,2.0,1.0,1,$130_per_week,none,November 2017,3707,2017,11,CORRYONG,130,Other
575,575,"2570 MIDLAND HIGHWAY, COSGROVE SOUTH",-36.430718,145.674333,3.0,1.0,1,$260_per_week,House,May 2017,3631,2017,5,SOUTH,260,House
576,576,"29 THE ROCKS BOULEVARD, COSGROVE",-19.2681462,146.7089284,3.0,2.0,2,$390_p.w.,House,December 2017,3631,2017,12,COSGROVE,390,House
577,577,"185 MINE ROAD, COTTLES BRIDGE",-37.602208,145.199906,4.0,2.0,2,$850_per_week,none,August 2017,3099,2017,8,BRIDGE,850,Other
578,578,"145 BARREENONG ROAD, COTTLES BRIDGE",-37.612064,145.205832,3.0,2.0,0,$625_per_week,none,June 2017,3099,2017,6,BRIDGE,625,Other
579,579,"10 SKARDON ROAD, COTTLES BRIDGE",-37.610259,145.239748,3.0,2.0,3,$850_per_week,none,April 2017,3099,2017,4,BRIDGE,850,Other
580,580,"24 ROBERT DRIVE, COWES",-38.454765,145.232476,3.0,2.0,2,$1200_per_week,House,March 2017,3922,2017,3,COWES,1200,House
581,581,"28 VENTNOR ROAD, COWES",-38.463208,145.203356,3.0,1.0,0,$270,House,April 2017,3922,2017,4,COWES,270,House
582,582,"18 ROBERT DRIVE, COWES",-38.454835,145.231753,3.0,2.0,2,$285,House,February 2017,3922,2017,2,COWES,285,House
583,583,"11 POBBLEBONK PLACE, COWES",-38.4567102,145.2240183,3.0,2.0,2,$390,House,April 2017,3922,2017,4,COWES,390,House
584,584,"219 CHURCH STREET, COWES",-38.452489,145.2232542,4.0,2.0,0,$400,House,October 2017,3922,2017,10,COWES,400,House
585,585,"26 DUNSMORE ROAD, COWES",-38.451872,145.248602,3.0,1.0,1,$330_per_week,House,November 2017,3922,2017,11,COWES,330,House
586,586,"26 DUNSMORE ROAD, COWES",-38.451872,145.248602,3.0,1.0,1,$330_per_week,House,October 2017,3922,2017,10,COWES,330,House
587,587,"585 SETTLEMENT ROAD, COWES",-38.45639,145.204298,3.0,1.0,2,$280_per_week,House,April 2017,3922,2017,4,COWES,280,House
588,588,"3 YARRAMUNDI WAY, COWES",-38.458185,145.234296,3.0,2.0,2,$1050_per_week,House,March 2017,3922,2017,3,COWES,1050,House
589,589,"4/16-18 CHURCH STREET, COWES",-38.45201,145.245336,2.0,1.0,1,$265,none,October 2017,3922,2017,10,COWES,265,Other
590,590,"13 ROYDON ROAD, COWES",-38.453742,145.232441,2.0,1.0,0,$250,House,July 2017,3922,2017,7,COWES,250,House
591,591,"13 ROYDON ROAD, COWES",-38.453742,145.232441,2.0,1.0,0,$250,House,June 2017,3922,2017,6,COWES,250,House
592,592,"2/64 JUSTICE ROAD, COWES",-38.4557179,145.2106686,3.0,2.0,2,$280,Townhouse,February 2017,3922,2017,2,COWES,280,House
593,593,"6 MONASH AVENUE, COWES",-38.453238,145.245135,2.0,2.0,3,$300,House,October 2017,3922,2017,10,COWES,300,House
594,594,"2/5 LORIKEET LANE, COWES",-38.4596533,145.2246414,2.0,1.0,1,$270,House,October 2017,3922,2017,10,COWES,270,House
595,595,"79 CHAPEL STREET, COWES",-38.450631,145.237243,3.0,1.0,2,$270,House,March 2017,3922,2017,3,COWES,270,House
596,596,"22 SEASCAPE AVE, COWES",-38.454694,145.222903,3.0,2.0,1,$340,House,June 2017,3922,2017,6,COWES,340,House
597,597,"22 SEASCAPE AVENUE, COWES",-38.454694,145.222903,3.0,2.0,1,$340_Weekly,none,June 2017,3922,2017,6,COWES,340,Other
598,598,"1/4 GRANDVIEW GROVE, COWES",-38.45692444,145.23738098,3.0,2.0,1,$280_pw,none,November 2017,3922,2017,11,COWES,280,Other
599,599,"6 WATCHORN ROAD, COWES",-38.455275,145.240012,4.0,2.0,2,$330_Weekly,House,April 2017,3922,2017,4,COWES,330,House
600,600,"6 WATCHORN ROAD, COWES",-38.455275,145.240012,4.0,2.0,2,$340_per_week,House,April 2017,3922,2017,4,COWES,340,House
601,601,"6 WATCHORN RD, COWES",-38.455275,145.240012,4.0,2.0,2,$330_Weekly,House,April 2017,3922,2017,4,COWES,330,House
602,602,"31 CRICKET STREET, COWWARR",-38.0108539,146.6979599,4.0,2.0,2,$250_pw,House,July 2017,3857,2017,7,COWWARR,250,House
603,603,"2813 TRARALGON-MAFFRA ROAD, COWWARR",-38.0146325,146.7008645,3.0,1.0,2,$295_Wk,none,January 2017,3857,2017,1,COWWARR,295,Other
604,604,"2813 TRARALGON-MAFFRA RD, COWWARR",-38.0144003,146.70088,3.0,1.0,2,$295_Wk,House,January 2017,3857,2017,1,COWWARR,295,House
605,605,"17A PARMELIA WAY, CRAIGIE",-31.78557,115.76819,3.0,1.0,1,$280_p.w.,House,April 2017,3465,2017,4,CRAIGIE,280,House
606,606,"21 WARRANDYTE DRIVE, CRAIGIE",-31.77927,115.76965,3.0,1.0,0,$350_p.w.,House,April 2017,3465,2017,4,CRAIGIE,350,House
607,607,"165 CAMBERWARRA DRIVE, CRAIGIE",-31.78558,115.76469,4.0,1.0,1,$360_p.w.,House,January 2017,3465,2017,1,CRAIGIE,360,House
608,608,"16 VANTAGE BOULEVARD, CRAIGIEBURN",-37.5929766,144.8941242,3.0,2.0,2,$420,House,December 2017,3064,2017,12,CRAIGIEBURN,420,House
609,609,"16 VANTAGE BOULEVARD, CRAIGIEBURN",-37.5929766,144.8941242,3.0,2.0,2,$420_pw,House,November 2017,3064,2017,11,CRAIGIEBURN,420,House
610,610,"3 VERSANT DRIVE, CRAIGIEBURN",-37.5965768,144.896224,3.0,2.0,2,$350_Wk,Townhouse,February 2017,3064,2017,2,CRAIGIEBURN,350,House
611,611,"9 ROSLEIGH DRIVE, CRAIGIEBURN",-37.581745,144.927932,4.0,2.0,2,$410_pw,House,December 2017,3064,2017,12,CRAIGIEBURN,410,House
612,612,"28 ALEXANDER CIRCUIT, CRAIGIEBURN",-37.5984433,144.9418164,3.0,2.0,2,$340_pw,Townhouse,August 2017,3064,2017,8,CRAIGIEBURN,340,House
613,613,"22 STOCKTON STREET, CRAIGIEBURN",-37.605254,144.941661,3.0,1.0,1,$320_per_week,Rental_residential,January 2017,3064,2017,1,CRAIGIEBURN,320,Other
614,614,"64 CORRINGA WAY, CRAIGIEBURN",-37.585886,144.91407,3.0,2.0,2,$340,Available Now,January 2017,3064,2017,1,CRAIGIEBURN,340,Other
615,615,"22/1-11 TROWARD HARVEY WAY, CRAIGIEBURN",-37.5761539,144.9322587,2.0,1.0,1,$330,Townhouse,March 2017,3064,2017,3,CRAIGIEBURN,330,House
616,616,"28 GRATTAN COVE, CRAIGIEBURN",-37.5887388,144.9167663,4.0,2.0,2,$370_per_week,Townhouse,October 2017,3064,2017,10,CRAIGIEBURN,370,House
617,617,"37 BRICKWOOD CCT, CRAIGIEBURN",-37.5816705,144.9111607,4.0,2.0,2,$430_Wk,House,June 2017,3064,2017,6,CRAIGIEBURN,430,House
618,618,"5/11 TROWARD HARVEY WAY, CRAIGIEBURN",-37.5761539,144.9322587,3.0,2.0,2,$370_pw,Rental_residential,June 2017,3064,2017,6,CRAIGIEBURN,370,Other
619,619,"37 BRICKWOOD CIRCUIT, CRAIGIEBURN",-37.5816705,144.9111607,4.0,2.0,2,$430_Wk,Available Now,June 2017,3064,2017,6,CRAIGIEBURN,430,Other
620,620,"13 PROGRESSION ROAD, CRAIGIEBURN",-37.5885636,144.8980425,4.0,2.0,2,$370_pw,House,July 2017,3064,2017,7,CRAIGIEBURN,370,House
621,621,"13 PROGRESSION ROAD, CRAIGIEBURN",-37.5885636,144.8980425,4.0,2.0,2,$370_Weekly,House,June 2017,3064,2017,6,CRAIGIEBURN,370,House
622,622,"13 PROGRESSION ROAD, CRAIGIEBURN",-37.5885636,144.8980425,4.0,2.0,2,$370,House,May 2017,3064,2017,5,CRAIGIEBURN,370,House
623,623,"13 PROGRESSION RD, CRAIGIEBURN",-37.5885636,144.8980425,4.0,2.0,2,$370_Weekly,House,June 2017,3064,2017,6,CRAIGIEBURN,370,House
624,624,"3/5 FALMER PLACE, CRAIGIEBURN",-37.601596,144.93039,2.0,1.0,1,$320_per_week,Rental_residential,April 2017,3064,2017,4,CRAIGIEBURN,320,Other
625,625,"9/29 ARDSLEY CIRCUIT, CRAIGIEBURN",-37.5766669,144.9284753,2.0,1.0,1,$310,Rental_residential,December 2017,3064,2017,12,CRAIGIEBURN,310,Other
626,626,"2/6 SPRING VALLEY AVENUE, CRAIGIEBURN",-37.5934233,144.9390039,3.0,1.0,1,$310_pw,Rental_residential,November 2017,3064,2017,11,CRAIGIEBURN,310,Other
627,627,"8 BRECON NOOK, CRAIGIEBURN",-37.608906,144.924308,3.0,1.0,0,$320_per_week,House,September 2017,3064,2017,9,CRAIGIEBURN,320,House
628,628,"49 MOOR PARK DRIVE, CRAIGIEBURN",-37.5730682,144.9063966,3.0,2.0,1,$350_Weekly,House,May 2017,3064,2017,5,CRAIGIEBURN,350,House
629,629,"49 MOOR PARK DRIVE, CRAIGIEBURN",-37.5730682,144.9063966,3.0,2.0,1,$350_per_week,House,April 2017,3064,2017,4,CRAIGIEBURN,350,House
630,630,"274 WATERVIEW BOULEVARD, CRAIGIEBURN",-37.582363,144.907861,4.0,2.0,2,$390,House,July 2017,3064,2017,7,CRAIGIEBURN,390,House
631,631,"274 WATERVIEW BOULEVARD, CRAIGIEBURN",-37.582363,144.907861,4.0,2.0,2,$390,House,June 2017,3064,2017,6,CRAIGIEBURN,390,House
632,632,"274 WATERVIEW BOULEVARD, CRAIGIEBURN",-37.582363,144.907861,4.0,2.0,2,$400_pw,House,June 2017,3064,2017,6,CRAIGIEBURN,400,House
633,633,"12 HUMBER STREET, CRAIGIEBURN",-37.5714937,144.9168606,4.0,2.0,2,$390,House,August 2017,3064,2017,8,CRAIGIEBURN,390,House
634,634,"12 HUMBER STREET, CRAIGIEBURN",-37.5714937,144.9168606,4.0,2.0,2,$390,House,July 2017,3064,2017,7,CRAIGIEBURN,390,House
635,635,"21 CLENDON WAY, CRAIGIEBURN",-37.5692469,144.9232212,2.0,1.0,1,$340,Townhouse,November 2017,3064,2017,11,CRAIGIEBURN,340,House
636,636,"42 EXMOUTH ROAD, CRAIGIEBURN",-37.603453,144.924575,4.0,2.0,2,$430,House,November 2017,3064,2017,11,CRAIGIEBURN,430,House
637,637,"1 DIABLO PLACE, CRAIGIEBURN",-37.6064503,144.9150499,4.0,2.0,2,$410,House,May 2017,3064,2017,5,CRAIGIEBURN,410,House
638,638,"1 DIABLO PLACE, CRAIGIEBURN",-37.6064503,144.9150499,4.0,2.0,2,$410,House,April 2017,3064,2017,4,CRAIGIEBURN,410,House
639,639,"8 BRISTOL MEWS, CRAIGIEBURN",-37.610847,144.923885,3.0,2.0,2,$360_Wk,House,July 2017,3064,2017,7,CRAIGIEBURN,360,House
640,640,"8 BRISTOL MEWS, CRAIGIEBURN",-37.610847,144.923885,3.0,2.0,2,$360_Wk,House,June 2017,3064,2017,6,CRAIGIEBURN,360,House
641,641,"8 OLYMPIC WAY, CRAIGIEBURN",-37.585186,144.9359,4.0,2.0,2,$430,House,November 2017,3064,2017,11,CRAIGIEBURN,430,House
642,642,"8 OLYMPIC WAY, CRAIGIEBURN",-37.585186,144.9359,4.0,2.0,2,$390_pw,House,July 2017,3064,2017,7,CRAIGIEBURN,390,House
643,643,"22 DAN MORGAN DRIVE, CRANBOURNE EAST",-38.099713,145.318784,4.0,2.0,2,$415_per_week,House,March 2017,3977,2017,3,EAST,415,House
644,644,"22 DAN MORGAN DRIVE, CRANBOURNE EAST",-38.099713,145.318784,4.0,2.0,2,$415_per_week,House,February 2017,3977,2017,2,EAST,415,House
645,645,"27 BRITTLE GUM ROAD, CRANBOURNE EAST",-38.1255769,145.3045802,3.0,2.0,2,$380,House,November 2017,3977,2017,11,EAST,380,House
648,648,"75 DONOHUE STREET, CRANBOURNE EAST",-38.097261,145.3214186,3.0,2.0,2,$380_per_week,House,November 2017,3977,2017,11,EAST,380,House
649,649,"75 DONOHUE STREET, CRANBOURNE EAST",-38.097261,145.3214186,3.0,2.0,2,$380_per_week,House,June 2017,3977,2017,6,EAST,380,House
650,650,"177 MOUNTAINVIEW BOULEVARD, CRANBOURNE NORTH",-38.0752856,145.324049,4.0,2.0,2,$430_Weekly,House,March 2017,3977,2017,3,NORTH,430,House
651,651,"177 MOUNTAINVIEW BVD, CRANBOURNE NORTH",-38.0752856,145.324049,4.0,2.0,2,$430_Weekly,House,March 2017,3977,2017,3,NORTH,430,House
652,652,"6 AJUGA LANE, CRANBOURNE NORTH",-38.07932,145.3184165,3.0,2.0,2,$385_p.w.,none,February 2017,3977,2017,2,NORTH,385,Other
653,653,"6 AJUGA LANE, CRANBOURNE NORTH",-38.07932,145.3184165,3.0,2.0,2,$385_p.w.,none,January 2017,3977,2017,1,NORTH,385,Other
654,654,"86 MOUNTAINVIEW BOULEVARD, CRANBOURNE NORTH",-38.081956,145.322394,4.0,2.0,2,$390,House,July 2017,3977,2017,7,NORTH,390,House
655,655,"13 JEFFERSON AVE, CRANBOURNE NORTH",-38.072573,145.307761,3.0,2.0,2,$400_p.w.,House,November 2017,3977,2017,11,NORTH,400,House
656,656,"16 KINDRED AVENUE, CRANBOURNE NORTH",-38.072941,145.317208,3.0,2.0,2,$430_per_week,House,May 2017,3977,2017,5,NORTH,430,House
657,657,"47 CHARLBURY CRESCENT, CRANBOURNE NORTH",-38.0809114,145.3163638,5.0,2.0,2,$520_per_week,House,November 2017,3977,2017,11,NORTH,520,House
658,658,"47 CHARLBURY CRESCENT, CRANBOURNE NORTH",-38.0809114,145.3163638,5.0,2.0,2,$520_p.w.,House,August 2017,3977,2017,8,NORTH,520,House
659,659,"47 CHARLBURY CRESCENT, CRANBOURNE NORTH",-38.0809114,145.3163638,5.0,2.0,2,$520_per_week,House,July 2017,3977,2017,7,NORTH,520,House
660,660,"47 ARBOURLEA BOULEVARD, CRANBOURNE NORTH",-38.0818315,145.3306043,3.0,2.0,2,$400_per_week,House,October 2017,3977,2017,10,NORTH,400,House
661,661,"47 ARBOURLEA BOULEVARD, CRANBOURNE NORTH",-38.0818315,145.3306043,3.0,2.0,2,$400_per_week,House,August 2017,3977,2017,8,NORTH,400,House
662,662,"47 ARBOURLEA BOULEVARD, CRANBOURNE NORTH",-38.0818315,145.3306043,3.0,2.0,2,$400_per_week,House,July 2017,3977,2017,7,NORTH,400,House
663,663,"47 ARBOURLEA BOULEVARD, CRANBOURNE NORTH",-38.0818315,145.3306043,3.0,2.0,2,$400_per_week,House,June 2017,3977,2017,6,NORTH,400,House
664,664,"134 WILLIAM THWAITES BOULEVARD, CRANBOURNE NORTH",-38.0827141,145.3153402,4.0,2.0,2,$410_pw,House,July 2017,3977,2017,7,NORTH,410,House
665,665,"46 BRENTWOOD DRIVE, CRANBOURNE NORTH",-38.080288,145.286315,3.0,2.0,2,$350_per_week,House,April 2017,3977,2017,4,NORTH,350,House
666,666,"14 ASPERA PLACE, CRANBOURNE NORTH",-38.0822575,145.2790713,4.0,2.0,2,$400_pw,House,February 2017,3977,2017,2,NORTH,400,House
667,667,"37 HUON PARK ROAD, CRANBOURNE NORTH",-38.074541,145.275972,4.0,2.0,4,$360_per_week,House,November 2017,3977,2017,11,NORTH,360,House
668,668,"19 CERBERA BEND, CRANBOURNE NORTH",-38.0822575,145.2790713,4.0,2.0,2,$400_p.w.,House,July 2017,3977,2017,7,NORTH,400,House
669,669,"19 CERBERA BEND, CRANBOURNE NORTH",-38.0822575,145.2790713,4.0,2.0,2,$410_p.w.,House,July 2017,3977,2017,7,NORTH,410,House
670,670,"19 CERBERA BEND, CRANBOURNE NORTH",-38.0822575,145.2790713,4.0,2.0,2,$410_p.w.,House,June 2017,3977,2017,6,NORTH,410,House
671,671,"12 ISLINGTON AVENUE, CRANBOURNE NORTH",-38.069538,145.289037,4.0,2.0,2,$400_per_week,House,November 2017,3977,2017,11,NORTH,400,House
672,672,"12 ISLINGTON AVENUE, CRANBOURNE NORTH",-38.069538,145.289037,4.0,2.0,2,$400,House,June 2017,3977,2017,6,NORTH,400,House
673,673,"9 LUMINA AVENUE, CRANBOURNE NORTH",-38.073867,145.311814,4.0,2.0,2,$410_per_week,House,September 2017,3977,2017,9,NORTH,410,House
674,674,"9 LUMINA AVENUE, CRANBOURNE NORTH",-38.073867,145.311814,4.0,2.0,2,$400_per_week,House,March 2017,3977,2017,3,NORTH,400,House
675,675,"33 JOSEPHINE AVENUE, CRANBOURNE NORTH",-38.08147,145.2907,3.0,1.0,2,$310_per_week,House,May 2017,3977,2017,5,NORTH,310,House
676,676,"5 MCMILLAN COURT, CRANBOURNE NORTH",-38.07646,145.265519,3.0,1.0,2,$315,House,August 2017,3977,2017,8,NORTH,315,House
677,677,"5 MCMILLAN COURT, CRANBOURNE NORTH",-38.07646,145.265519,3.0,1.0,2,$315,House,July 2017,3977,2017,7,NORTH,315,House
678,678,"134 BROWNS ROAD, CRANBOURNE SOUTH",-38.151027,145.251109,5.0,2.0,1,$500_per_week,House,August 2017,3977,2017,8,SOUTH,500,House
679,679,"195 PEARCEDALE ROAD, CRANBOURNE SOUTH",-38.167914,145.241448,3.0,2.0,2,$600_Wk,House,February 2017,3977,2017,2,SOUTH,600,House
680,680,"7 BAYLEY PLACE, CRANBOURNE WEST",-38.0960867,145.2678755,3.0,2.0,2,$390_per_week,House,May 2017,3977,2017,5,WEST,390,House
681,681,"15 NOBEL DRIVE, CRANBOURNE WEST",-38.0966917,145.2514255,4.0,2.0,2,$390_Weekly,House,May 2017,3977,2017,5,WEST,390,House
682,682,"2 ASHBROOK WAY, CRANBOURNE WEST",-38.1083944,145.2654124,4.0,2.0,4,$490_Wk,House,June 2017,3977,2017,6,WEST,490,House
683,683,"2 ASHBROOK WAY, CRANBOURNE WEST",-38.1083944,145.2654124,4.0,2.0,4,$520_Weekly,House,May 2017,3977,2017,5,WEST,520,House
684,684,"1 ASHBROOK WAY, CRANBOURNE WEST",-38.10861,145.265177,4.0,2.0,2,$400_Weekly,House,January 2017,3977,2017,1,WEST,400,House
685,685,"147 MONAHANS ROAD, CRANBOURNE WEST",-38.098833,145.267111,3.0,1.0,4,$320_per_week,House,July 2017,3977,2017,7,WEST,320,House
686,686,"5 KULKAMI WAY, CRANBOURNE WEST",-38.089754,145.261571,3.0,1.0,1,$330_per_week,House,October 2017,3977,2017,10,WEST,330,House
687,687,"5 KULKAMI WAY, CRANBOURNE WEST",-38.089754,145.261571,3.0,1.0,1,$330_Weekly,House,June 2017,3977,2017,6,WEST,330,House
688,688,"15 CLAIRMONT AVENUE, CRANBOURNE",-38.093026,145.277978,3.0,1.0,2,$350_per_week,House,September 2017,3977,2017,9,CRANBOURNE,350,House
689,689,"15 CLAIRMONT AVENUE, CRANBOURNE",-38.093026,145.277978,3.0,1.0,2,$340_per_week,House,January 2017,3977,2017,1,CRANBOURNE,340,House
690,690,"42 PHOENIX AVENUE, CRANBOURNE",-38.094137,145.287666,5.0,2.0,2,$400_per_week,none,July 2017,3977,2017,7,CRANBOURNE,400,Other
691,691,"39 BELLBRAE CRESCENT, CRANBOURNE",-38.092001,145.260427,3.0,2.0,2,$340_Wk,House,May 2017,3977,2017,5,CRANBOURNE,340,House
692,692,"39 BELLBRAE CRESCENT, CRANBOURNE",-38.092001,145.260427,3.0,2.0,2,$340_Wk,House,April 2017,3977,2017,4,CRANBOURNE,340,House
693,693,"4/205 SLADEN STREET, CRANBOURNE",-38.113304,145.288071,2.0,1.0,1,$250_p.w.,none,October 2017,3977,2017,10,CRANBOURNE,250,Other
694,694,"56 CIRCLE DRIVE, CRANBOURNE",-38.093838,145.278379,3.0,2.0,3,$355_per_week,House,October 2017,3977,2017,10,CRANBOURNE,355,House
695,695,"56 CIRCLE DRIVE, CRANBOURNE",-38.093838,145.278379,3.0,2.0,3,$355_per_week,House,September 2017,3977,2017,9,CRANBOURNE,355,House
696,696,"2/36 VIRGINIA STREET, CRANBOURNE",-38.094064,145.274541,3.0,2.0,1,$310_per_week,Unit,May 2017,3977,2017,5,CRANBOURNE,310,Apartment
697,697,"2/36 VIRGINIA STREET, CRANBOURNE",-38.094064,145.274541,3.0,2.0,1,$310_per_week,Unit,April 2017,3977,2017,4,CRANBOURNE,310,Apartment
698,698,"2/36 VIRGINIA STREET, CRANBOURNE",-38.094064,145.274541,3.0,2.0,1,$310_per_week,Unit,March 2017,3977,2017,3,CRANBOURNE,310,Apartment
699,699,"2/55 SUNNINGDALE CRESCENT, CRANBOURNE",-38.117284,145.254713,3.0,2.0,2,$380_per_week,Townhouse,August 2017,3977,2017,8,CRANBOURNE,380,House
700,700,"2/55 SUNNINGDALE CRESCENT, CRANBOURNE",-38.117284,145.254713,3.0,2.0,2,$380_per_week,Townhouse,June 2017,3977,2017,6,CRANBOURNE,380,House
701,701,"19 JILLIAN STREET, CRANBOURNE",-38.107651,145.274156,3.0,1.0,1,$375_Weekly,Rental_residential,February 2017,3977,2017,2,CRANBOURNE,375,Other
702,702,"19 JILLIAN STREET, CRANBOURNE",-38.107651,145.274156,3.0,1.0,1,$375_Weekly,Rental_residential,January 2017,3977,2017,1,CRANBOURNE,375,Other
703,703,"23 BEAGLE STREET, CRANBOURNE",-38.1133612,145.3080792,4.0,2.0,2,$400_Wk,House,November 2017,3977,2017,11,CRANBOURNE,400,House
704,704,"23 BEAGLE STREET, CRANBOURNE",-38.1133612,145.3080792,4.0,2.0,2,$400_Wk,House,August 2017,3977,2017,8,CRANBOURNE,400,House
705,705,"23 BEAGLE STREET, CRANBOURNE",-38.1133612,145.3080792,4.0,2.0,2,$400_Wk,House,July 2017,3977,2017,7,CRANBOURNE,400,House
706,706,"22 DUNBAR AVENUE, CRANBOURNE",-38.102748,145.276779,4.0,1.0,2,$340_Weekly,House,November 2017,3977,2017,11,CRANBOURNE,340,House
707,707,"22 DUNBAR AVENUE, CRANBOURNE",-38.102748,145.276779,4.0,1.0,2,$340_Weekly,House,August 2017,3977,2017,8,CRANBOURNE,340,House
708,708,"22 DUNBAR AVENUE, CRANBOURNE",-38.102748,145.276779,4.0,1.0,2,$340_Weekly,House,June 2017,3977,2017,6,CRANBOURNE,340,House
709,709,"22 DUNBAR AVENUE, CRANBOURNE",-38.102748,145.276779,4.0,1.0,2,$340_Weekly,House,May 2017,3977,2017,5,CRANBOURNE,340,House
710,710,"22 DUNBAR AVENUE, CRANBOURNE",-38.102748,145.276779,4.0,1.0,2,$350_Wk,House,April 2017,3977,2017,4,CRANBOURNE,350,House
711,711,"25 WATERBURY STREET, CRANBOURNE",-38.084145,145.287472,3.0,1.0,2,$360_Wk,House,November 2017,3977,2017,11,CRANBOURNE,360,House
712,712,"25 WATERBURY STREET, CRANBOURNE",-38.084145,145.287472,3.0,1.0,2,$360_Wk,House,July 2017,3977,2017,7,CRANBOURNE,360,House
713,713,"25 WATERBURY STREET, CRANBOURNE",-38.084145,145.287472,3.0,1.0,2,$370_Wk,House,June 2017,3977,2017,6,CRANBOURNE,370,House
714,714,"302 CASEY FIELDS BOULEVARD, CRANBOURNE",-38.1162918,145.3070398,3.0,2.0,2,$370_Wk,House,November 2017,3977,2017,11,CRANBOURNE,370,House
715,715,"302 CASEY FIELDS BOULEVARD, CRANBOURNE",-38.1162918,145.3070398,3.0,2.0,2,$360_Wk,House,August 2017,3977,2017,8,CRANBOURNE,360,House
716,716,"302 CASEY FIELDS BOULEVARD, CRANBOURNE",-38.1162918,145.3070398,3.0,2.0,2,$370_Wk,House,August 2017,3977,2017,8,CRANBOURNE,370,House
717,717,"302 CASEY FIELDS BOULEVARD, CRANBOURNE",-38.1162918,145.3070398,3.0,2.0,2,$370_Wk,House,July 2017,3977,2017,7,CRANBOURNE,370,House
718,718,"10 TATTLE GROVE, CRANBOURNE",-38.111782,145.306619,3.0,2.0,2,$370_Wk,House,November 2017,3977,2017,11,CRANBOURNE,370,House
719,719,"10 TATTLE GROVE, CRANBOURNE",-38.111782,145.306619,3.0,2.0,2,$370_Wk,House,May 2017,3977,2017,5,CRANBOURNE,370,House
720,720,"10 TATTLE GROVE, CRANBOURNE",-38.111782,145.306619,3.0,2.0,2,$370_Wk,House,April 2017,3977,2017,4,CRANBOURNE,370,House
721,721,"10 HELMSDALE COURT, CRANBOURNE",-38.094009,145.26451,3.0,1.0,2,$360_Wk,House,November 2017,3977,2017,11,CRANBOURNE,360,House
722,722,"10 HELMSDALE COURT, CRANBOURNE",-38.094009,145.26451,3.0,1.0,2,$360_Wk,House,July 2017,3977,2017,7,CRANBOURNE,360,House
723,723,"10 HELMSDALE COURT, CRANBOURNE",-38.094009,145.26451,3.0,1.0,2,$365_Wk,House,July 2017,3977,2017,7,CRANBOURNE,365,House
724,724,"10 HELMSDALE COURT, CRANBOURNE",-38.094009,145.26451,3.0,1.0,2,$365_Wk,House,June 2017,3977,2017,6,CRANBOURNE,365,House
725,725,"10 HELMSDALE COURT, CRANBOURNE",-38.094009,145.26451,3.0,1.0,2,$370_Wk,House,June 2017,3977,2017,6,CRANBOURNE,370,House
726,726,"10 HELMSDALE COURT, CRANBOURNE",-38.094009,145.26451,3.0,1.0,2,$375_Wk,House,May 2017,3977,2017,5,CRANBOURNE,375,House
727,727,"10 HELMSDALE COURT, CRANBOURNE",-38.094009,145.26451,3.0,1.0,2,$375_Wk,House,April 2017,3977,2017,4,CRANBOURNE,375,House
728,728,"3 PIPETRACK CIRCUIT, CRANBOURNE",-38.107546,145.299711,4.0,2.0,2,$395_Wk,House,November 2017,3977,2017,11,CRANBOURNE,395,House
729,729,"3 PIPETRACK CIRCUIT, CRANBOURNE",-38.107546,145.299711,4.0,2.0,2,$395_Wk,House,August 2017,3977,2017,8,CRANBOURNE,395,House
730,730,"3 PIPETRACK CIRCUIT, CRANBOURNE",-38.107546,145.299711,4.0,2.0,2,$395_Wk,House,July 2017,3977,2017,7,CRANBOURNE,395,House
731,731,"3 PIPETRACK CIRCUIT, CRANBOURNE",-38.107546,145.299711,4.0,2.0,2,$395_Wk,House,January 2017,3977,2017,1,CRANBOURNE,395,House
732,732,"31 ELCAN AVENUE, CRANBOURNE",-38.105439,145.264786,3.0,2.0,2,$385_Wk,House,November 2017,3977,2017,11,CRANBOURNE,385,House
733,733,"31 ELCAN AVENUE, CRANBOURNE",-38.105439,145.264786,3.0,2.0,2,$385_Wk,House,May 2017,3977,2017,5,CRANBOURNE,385,House
734,734,"31 ELCAN AVENUE, CRANBOURNE",-38.105439,145.264786,3.0,2.0,2,$385_Wk,House,April 2017,3977,2017,4,CRANBOURNE,385,House
735,735,"77 CIRCLE DRIVE SOUTH, CRANBOURNE",-38.096505,145.279505,3.0,2.0,4,$345_Weekly,House,June 2017,3977,2017,6,CRANBOURNE,345,House
736,736,"77 CIRCLE DRIVE SOUTH, CRANBOURNE",-38.096505,145.279505,3.0,2.0,4,$345,House,May 2017,3977,2017,5,CRANBOURNE,345,House
737,737,"108 MAJESTIC BLVD, CRANBOURNE",-38.0887352,145.2850529,3.0,1.0,2,$350_Wk,House,November 2017,3977,2017,11,CRANBOURNE,350,House
738,738,"108 MAJESTIC BLVD, CRANBOURNE",-38.0887352,145.2850529,3.0,1.0,2,$340_Wk,House,September 2017,3977,2017,9,CRANBOURNE,340,House
739,739,"108 MAJESTIC BLVD, CRANBOURNE",-38.0887352,145.2850529,3.0,1.0,2,$350_Wk,House,September 2017,3977,2017,9,CRANBOURNE,350,House
740,740,"24 CIRCLE DRIVE, CRANBOURNE",-38.094853,145.280819,3.0,1.0,2,$310_Wk,House,December 2017,3977,2017,12,CRANBOURNE,310,House
741,741,"24 CIRCLE DRIVE, CRANBOURNE",-38.094853,145.280819,3.0,1.0,2,$325_Wk,House,November 2017,3977,2017,11,CRANBOURNE,325,House
742,742,"24 CIRCLE DRIVE, CRANBOURNE",-38.094853,145.280819,3.0,1.0,2,$320_Wk,House,November 2017,3977,2017,11,CRANBOURNE,320,House
743,743,"24 CIRCLE DRIVE, CRANBOURNE",-38.094853,145.280819,3.0,1.0,2,$320_Wk,House,October 2017,3977,2017,10,CRANBOURNE,320,House
744,744,"24 CIRCLE DRIVE, CRANBOURNE",-38.094853,145.280819,3.0,1.0,2,$320_Wk,House,August 2017,3977,2017,8,CRANBOURNE,320,House
745,745,"24 CIRCLE DRIVE, CRANBOURNE",-38.094853,145.280819,3.0,1.0,2,$330_Wk,House,July 2017,3977,2017,7,CRANBOURNE,330,House
746,746,"12 QUATTRO AVENUE, CRANBOURNE",-38.1533601,145.1652713,3.0,2.0,1,$380_Wk,House,November 2017,3977,2017,11,CRANBOURNE,380,House
747,747,"12 QUATTRO AVENUE, CRANBOURNE",-38.1533601,145.1652713,3.0,2.0,1,$380_Wk,House,July 2017,3977,2017,7,CRANBOURNE,380,House
748,748,"4 CLARENCE PLACE, CRANBOURNE",-38.1166302,145.297475,4.0,2.0,2,$400_Wk,House,November 2017,3977,2017,11,CRANBOURNE,400,House
749,749,"4 CLARENCE PLACE, CRANBOURNE",-38.1166302,145.297475,4.0,2.0,2,$390_Wk,House,July 2017,3977,2017,7,CRANBOURNE,390,House
750,750,"4 CLARENCE PLACE, CRANBOURNE",-38.1166302,145.297475,4.0,2.0,2,$400_Wk,House,July 2017,3977,2017,7,CRANBOURNE,400,House
751,751,"36 CHOMLEY STREET, CRANBOURNE",-38.10019,145.270557,3.0,1.0,1,$310_per_week,House,April 2017,3977,2017,4,CRANBOURNE,310,House
752,752,"36 CHOMLEY STREET, CRANBOURNE",-38.10019,145.270557,3.0,1.0,1,$320_per_week,House,March 2017,3977,2017,3,CRANBOURNE,320,House
753,753,"3 RUFFY DRIVE, CRANBOURNE",-38.098842,145.274585,3.0,1.0,2,$350_per_week,House,September 2017,3977,2017,9,CRANBOURNE,350,House
754,754,"9 MULLIN COURT, CRANBOURNE",-38.098927,145.269868,4.0,2.0,3,$370,House,November 2017,3977,2017,11,CRANBOURNE,370,House
755,755,"9 MULLIN COURT, CRANBOURNE",-38.098927,145.269868,4.0,2.0,3,$380,House,July 2017,3977,2017,7,CRANBOURNE,380,House
756,756,"8 CANMORE STREET, CRANBOURNE",-38.1168196,145.2978668,3.0,2.0,1,$370_Wk,House,June 2017,3977,2017,6,CRANBOURNE,370,House
