,Unnamed: 0.2,Unnamed: 0.1,address,latitude,longitude,nbed,nbath,ncar,price,type,historical_dates,postcode,year,month,suburb,weekly_rent,residence_type
0,0,0,"31 EUREKA STREET, CHEWTON",-37.080654,144.244698,4.0,1.0,1,$375_per_week,House,May 2018,3451,2018,5,CHEWTON,375,House
1,1,1,"31 EUREKA STREET, CHEWTON",-37.080654,144.244698,4.0,1.0,1,$375,House,April 2018,3451,2018,4,CHEWTON,375,House
2,2,2,"208 MAIN ROAD, CHEWTON",-37.080111,144.261809,3.0,1.0,2,$340_pw,House,November 2018,3451,2018,11,CHEWTON,340,House
3,3,3,"18 SINNETT STREET, CHEWTON",-37.0846502,144.2685186,2.0,2.0,0,$350_per_week,House,August 2018,3451,2018,8,CHEWTON,350,House
4,4,4,"19 ALBERT STREET, CHEWTON",-37.092224,144.258533,3.0,1.0,0,$330_per_week,House,December 2018,3451,2018,12,CHEWTON,330,House
5,5,5,"19 ALBERT STREET, CHEWTON",-37.092224,144.258533,3.0,1.0,0,$330_per_week,House,September 2018,3451,2018,9,CHEWTON,330,House
6,6,6,"19 ALBERT STREET, CHEWTON",-37.092224,144.258533,3.0,1.0,0,$330_per_week,House,January 2018,3451,2018,1,CHEWTON,330,House
7,7,7,"12 FRYERS ROAD, CHEWTON",-37.082726,144.256496,3.0,1.0,1,$305,House,December 2018,3451,2018,12,CHEWTON,305,House
8,8,8,"239 MAIN ROAD, CHEWTON",-37.081393,144.266198,2.0,1.0,2,$375_pw,House,November 2018,3451,2018,11,CHEWTON,375,House
9,9,9,"52 FRYERS ROAD, CHEWTON",-37.087738,144.257555,3.0,1.0,2,$450,House,September 2018,3451,2018,9,CHEWTON,450,House
10,10,10,"101 MAIN ROAD, CHEWTON",-37.079631,144.252468,3.0,1.0,0,$295_per_week,House,September 2018,3451,2018,9,CHEWTON,295,House
11,11,11,"171 MAIN ROAD, CHEWTON",-37.081326,144.259245,3.0,1.0,8,$335,House,July 2018,3451,2018,7,CHEWTON,335,House
12,12,12,"171 MAIN ROAD, CHEWTON",-37.081326,144.259245,3.0,1.0,8,$335_pw,House,May 2018,3451,2018,5,CHEWTON,335,House
13,13,13,"175 MAIN ROAD, CHEWTON",-37.080913,144.259581,1.0,1.0,1,$195_pw,House,February 2018,3451,2018,2,CHEWTON,195,House
14,14,14,"2794 MCDONALDS TRACK, CHILDERS",-38.30491021,146.12198199,3.0,1.0,4,$280,Rental_residential,September 2018,3824,2018,9,CHILDERS,280,Other
15,15,15,"2/20 NICKLESS STREET, CHILTERN",-36.154038,146.602977,2.0,1.0,2,$220,Rental_residential,December 2018,3683,2018,12,CHILTERN,220,Other
16,16,16,"1 HIGH STREET, CHILTERN",-36.1505744,146.5991617,3.0,2.0,2,$290,House,December 2018,3683,2018,12,CHILTERN,290,House
17,17,17,"1 HIGH STREET, CHILTERN",-36.1505744,146.5991617,3.0,2.0,2,$290,House,November 2018,3683,2018,11,CHILTERN,290,House
18,18,18,"134 NORTH ROAD, CHILTERN",-36.1457233,146.6071478,3.0,2.0,1,$270,House,May 2018,3683,2018,5,CHILTERN,270,House
19,19,19,"65 MAIN STREET, CHILTERN",-36.149418,146.609623,3.0,2.0,2,$310_p.w.,House,November 2018,3683,2018,11,CHILTERN,310,House
20,20,20,"29-31 ALBERT ROAD, CHILTERN",-36.1499141,146.5995142,4.0,2.0,4,$450,none,December 2018,3683,2018,12,CHILTERN,450,Other
21,21,21,"101 CONNESS STREET, CHILTERN",-36.1508561,146.6150245,3.0,1.0,0,$280,House,December 2018,3683,2018,12,CHILTERN,280,House
22,22,22,"8 SKERRY STREET, CHILTERN",-36.151158,146.598197,3.0,2.0,2,$320_Weekly,House,October 2018,3683,2018,10,CHILTERN,320,House
23,23,23,"17 OXFORD STREET, CHILTERN",-36.1488301,146.6060818,2.0,1.0,1,$280_p.w.,House,October 2018,3683,2018,10,CHILTERN,280,House
24,24,24,"17 OXFORD STREET, CHILTERN",-36.1488301,146.6060818,2.0,1.0,1,$280_p.w.,House,August 2018,3683,2018,8,CHILTERN,280,House
25,25,25,"16 CONNESS STREET, CHILTERN",-36.1517478,146.6065113,2.0,1.0,2,$240_per_week,House,August 2018,3683,2018,8,CHILTERN,240,House
26,26,26,"2/6 SKERRY STREET, CHILTERN",-36.151343,146.598303,2.0,1.0,2,$180_Weekly,Townhouse,February 2018,3683,2018,2,CHILTERN,180,House
27,27,27,"2/6 SKERRY ST, CHILTERN",-36.1512744,146.5981724,2.0,1.0,1,$180_Weekly,Townhouse,February 2018,3683,2018,2,CHILTERN,180,House
28,28,28,"7 SCOTT STREET, CHILTERN",-36.153794,146.592627,2.0,1.0,4,$200_per_week,none,January 2018,3683,2018,1,CHILTERN,200,Other
29,29,29,"13 HUNTINGDALE DRIVE, CHIRNSIDE PARK",-37.755373,145.323258,3.0,2.0,1,$450_pw,House,May 2018,3116,2018,5,PARK,450,House
30,30,30,"1 KIMBERLEY DRIVE, CHIRNSIDE PARK",-37.75733143,145.31101741,2.0,1.0,1,$380_pw,none,April 2018,3116,2018,4,PARK,380,Other
31,31,31,"63 BELSAY CHASE, CHIRNSIDE PARK",-37.7585258,145.3095159,2.0,1.0,2,$400_pw,House,April 2018,3116,2018,4,PARK,400,House
32,32,32,"66 ROSEMAN ROAD, CHIRNSIDE PARK",-37.746928,145.33598,3.0,1.0,1,$370_pw,House,May 2018,3116,2018,5,PARK,370,House
33,33,33,"9 ALLY TERRACE, CHIRNSIDE PARK",-37.756061,145.295076,4.0,2.0,2,$550_per_week,House,March 2018,3116,2018,3,PARK,550,House
34,34,34,"27A HUNTINGDALE DRIVE, CHIRNSIDE PARK",-37.754248,145.3227,3.0,2.0,2,$460,House,May 2018,3116,2018,5,PARK,460,House
35,35,35,"14 ST ANDREWS COURT, CHIRNSIDE PARK",-37.75457,145.334348,2.0,2.0,2,$400,Townhouse,December 2018,3116,2018,12,PARK,400,House
36,36,36,"14 ST ANDREWS COURT, CHIRNSIDE PARK",-37.75457,145.334348,2.0,2.0,2,$400,Townhouse,November 2018,3116,2018,11,PARK,400,House
37,37,37,"28 VIEW POINT DRIVE, CHIRNSIDE PARK",-37.756876,145.314788,3.0,1.0,2,$390,House,August 2018,3116,2018,8,PARK,390,House
38,38,38,"28 VIEW POINT DRIVE, CHIRNSIDE PARK",-37.756876,145.314788,3.0,1.0,2,$400_pw,House,May 2018,3116,2018,5,PARK,400,House
39,39,39,"734 RIDGE ROAD, CHRISTMAS HILLS",-37.658364,145.317834,3.0,1.0,0,$380_per_week,none,January 2018,3775,2018,1,HILLS,380,Other
40,40,40,"CONTACT AGENT, CHRISTMAS HILLS",-37.653666,145.3050781,2.0,1.0,2,$390_per_week,House,May 2018,3775,2018,5,HILLS,390,House
41,41,41,"511-525 RIDGE ROAD, CHRISTMAS HILLS",-37.6593641,145.3008935,3.0,1.0,0,$390_per_week,none,May 2018,3775,2018,5,HILLS,390,Other
42,42,42,"733 CHUM CREEK ROAD, CHUM CREEK",-37.64491085,145.49757232,3.0,1.0,2,$380_per_week,none,December 2018,3777,2018,12,CREEK,380,Other
43,43,43,"585 HEALESVILLE-KINGLAKE ROAD, CHUM CREEK",-37.61377,145.4960994,4.0,2.0,4,$650,House,August 2018,3777,2018,8,CREEK,650,House
44,44,44,"2 CEDAR COURT, CHURCHILL",-38.3068266,146.4188842,3.0,1.0,2,$260_pw,House,July 2018,3842,2018,7,CHURCHILL,260,House
45,45,45,"26 MC DONALD WAY, CHURCHILL",-38.31249,146.414764,3.0,1.0,1,$250_pw,House,March 2018,3842,2018,3,CHURCHILL,250,House
46,46,46,"5 INALA CLOSE, CHURCHILL",-38.323757,146.424585,4.0,1.0,0,$225_pw,none,July 2018,3842,2018,7,CHURCHILL,225,Other
47,47,47,"15 CURRINGA COURT, CHURCHILL",-38.319109,146.420642,4.0,2.0,2,$310,none,February 2018,3842,2018,2,CHURCHILL,310,Other
48,48,48,"13 GUNDAROO PLACE, CHURCHILL",-38.320975,146.423926,3.0,1.0,0,$270,House,August 2018,3842,2018,8,CHURCHILL,270,House
49,49,49,"27 CHURINGA DRIVE, CHURCHILL",-38.3210366,146.4247311,3.0,1.0,1,$280_per_week,none,January 2018,3842,2018,1,CHURCHILL,280,Other
50,50,50,"6370 MIDLAND HIGHWAY, CLARENDON",-37.691946,143.973609,3.0,1.0,6,$430_p.w.,Rental_residential,June 2018,3352,2018,6,CLARENDON,430,Other
51,51,51,"6320 MIDLAND HIGHWAY, CLARENDON",-37.695823,143.975766,5.0,2.0,2,$335_per_week,House,April 2018,3352,2018,4,CLARENDON,335,House
52,52,52,"3/34 INVERNESS ST, CLARINDA",-37.931864,145.108164,3.0,2.0,1,$515_Weekly,Townhouse,February 2018,3169,2018,2,CLARINDA,515,House
53,53,53,"1 ELDER STREET, CLARINDA",-37.927122,145.104208,3.0,1.0,2,$420,House,April 2018,3169,2018,4,CLARINDA,420,House
54,54,54,"1 ELDER STREET, CLARINDA",-37.927122,145.104208,3.0,1.0,2,$400,House,February 2018,3169,2018,2,CLARINDA,400,House
55,55,55,"1 ELDER ST, CLARINDA",-37.927113,145.104236,3.0,1.0,1,$420,House,April 2018,3169,2018,4,CLARINDA,420,House
56,56,56,"1/21 ELDER STREET, CLARINDA",-37.9291625,145.1038649,2.0,1.0,1,$320,Unit,March 2018,3169,2018,3,CLARINDA,320,Apartment
57,57,57,"26 SPRINGS ROAD, CLARINDA",-37.929852,145.109228,3.0,2.0,3,$620,House,January 2018,3169,2018,1,CLARINDA,620,House
58,58,58,"UNIT 1/19 ELDER STREET, CLARINDA",-37.928967,145.103913,2.0,1.0,1,$340_per_week,Unit,November 2018,3169,2018,11,CLARINDA,340,Apartment
59,59,59,"35 INVERNESS STREET, CLARINDA",-37.931388,145.108324,3.0,1.0,1,$460_p.w.,House,December 2018,3169,2018,12,CLARINDA,460,House
60,60,60,"1 / 55 VINEY STREET, CLARINDA",-37.93875,145.101891,3.0,1.0,3,$460_pw,Townhouse,January 2018,3169,2018,1,CLARINDA,460,House
61,61,61,"1 DAVANZO AVENUE, CLARINDA",-37.944349,145.102336,4.0,2.0,2,$550,none,July 2018,3169,2018,7,CLARINDA,550,Other
62,62,62,"1 DAVANZO AVENUE, CLARINDA",-37.944349,145.102336,4.0,2.0,2,$550,none,January 2018,3169,2018,1,CLARINDA,550,Other
63,63,63,"3/69 SCHNEIDER CRESCENT, CLARINDA",-37.938692,145.101428,2.0,1.0,2,$425,Townhouse,January 2018,3169,2018,1,CLARINDA,425,House
64,64,64,"3/69 SCHNEIDER CRESCENT, CLARINDA",-37.938692,145.101428,2.0,1.0,2,$430,Townhouse,January 2018,3169,2018,1,CLARINDA,430,House
65,65,65,"3/69 SCHNEIDER CRES, CLARINDA",-37.938852,145.1014084,2.0,1.0,2,$425_Weekly,Townhouse,January 2018,3169,2018,1,CLARINDA,425,House
66,66,66,"3/69 SCHNEIDER CRES, CLARINDA",-37.938852,145.1014084,2.0,1.0,2,$430,Townhouse,January 2018,3169,2018,1,CLARINDA,430,House
67,67,67,"1/45 BUNNEY ROAD, CLARINDA",-37.93339,145.100827,3.0,1.0,2,$365,House,April 2018,3169,2018,4,CLARINDA,365,House
68,68,68,"34 JACOBS DRIVE, CLARINDA",-37.944424,145.107486,3.0,1.0,2,$400_Wk,House,May 2018,3169,2018,5,CLARINDA,400,House
69,69,69,"38 CRAWFORD ROAD, CLARINDA",-37.931652,145.101336,4.0,1.0,3,$440,House,October 2018,3169,2018,10,CLARINDA,440,House
70,70,70,"38 CRAWFORD ROAD, CLARINDA",-37.931652,145.101336,4.0,1.0,3,$440_Wk,House,January 2018,3169,2018,1,CLARINDA,440,House
71,71,71,"3 THE PARADE, CLARINDA",-37.929745,145.100914,3.0,1.0,1,$445,House,November 2018,3169,2018,11,CLARINDA,445,House
72,72,72,"7 BODLEY STREET, CLARINDA",-37.944388,145.113306,3.0,1.0,1,$430_p.w.,House,March 2018,3169,2018,3,CLARINDA,430,House
73,73,73,"7 BODLEY STREET, CLARINDA",-37.944388,145.113306,3.0,1.0,1,$430_p.w.,House,February 2018,3169,2018,2,CLARINDA,430,House
74,74,74,"1556 LANCEFIELD ROAD, CLARKEFIELD",-37.5143296,144.7615042,2.0,1.0,2,$300,none,July 2018,3430,2018,7,CLARKEFIELD,300,Other
75,75,75,"1556 LANCE LANCEFIELD ROAD, CLARKEFIELD",-37.5143296,144.7615042,2.0,1.0,2,$300,House,July 2018,3430,2018,7,CLARKEFIELD,300,House
76,76,76,"1556 ""GROOMS COTTAGE"" LANCEFIELD ROAD, CLARKEFIELD",-37.5143296,144.7615042,2.0,1.0,2,$300_per_week,House,June 2018,3430,2018,6,CLARKEFIELD,300,House
77,77,77,"1556 ""GROOMS COTTAGE"" LANCEFIELD ROAD, CLARKEFIELD",-37.5143296,144.7615042,2.0,1.0,2,$300_per_week,House,July 2018,3430,2018,7,CLARKEFIELD,300,House
78,78,78,"1/19 BURNS AVENUE, CLAYTON SOUTH",-37.936444,145.134354,2.0,1.0,1,$300_Week,none,March 2018,3169,2018,3,SOUTH,300,Other
79,79,79,"1/31 SPRINGS ROAD, CLAYTON SOUTH",-37.930285,145.109556,2.0,1.0,1,$355_pw,none,November 2018,3169,2018,11,SOUTH,355,Other
80,80,80,"1/31 SPRINGS ROAD, CLAYTON SOUTH",-37.930285,145.109556,2.0,1.0,1,$355,none,October 2018,3169,2018,10,SOUTH,355,Other
81,81,81,"1/31 BEVAN AVENUE, CLAYTON SOUTH",-37.934415,145.128568,3.0,1.0,1,$410_pw,House,September 2018,3169,2018,9,SOUTH,410,House
82,82,82,"1/31 BEVAN AVENUE, CLAYTON SOUTH",-37.934415,145.128568,3.0,1.0,1,$430,House,July 2018,3169,2018,7,SOUTH,430,House
83,83,83,"2 / 17 TENNYSON AVENUE, CLAYTON SOUTH",-37.934178,145.129704,2.0,1.0,1,$425_pw,Unit,July 2018,3169,2018,7,SOUTH,425,Apartment
84,84,84,"3 GLENN COURT, CLAYTON SOUTH",-37.955304,145.136471,3.0,1.0,2,$420,House,February 2018,3169,2018,2,SOUTH,420,House
85,85,85,"3 GLENN CT, CLAYTON SOUTH",-37.955304,145.136471,3.0,1.0,0,$420,House,February 2018,3169,2018,2,SOUTH,420,House
86,86,86,"2C HELENA STREET, CLAYTON SOUTH",-37.932583,145.123881,3.0,2.0,1,$595,Rental_residential,December 2018,3169,2018,12,SOUTH,595,Other
87,87,87,"8/31-33 FIRST STREET, CLAYTON SOUTH",-37.933051,145.134866,2.0,1.0,1,$300,none,January 2018,3169,2018,1,SOUTH,300,Other
88,88,88,"51 GLENCANNON CRESCENT, CLAYTON SOUTH",-37.936405,145.116593,3.0,1.0,1,$400_pw,House,October 2018,3169,2018,10,SOUTH,400,House
89,89,89,"51 GLENCANNON CRESCENT, CLAYTON SOUTH",-37.936405,145.116593,3.0,1.0,1,$420,House,October 2018,3169,2018,10,SOUTH,420,House
90,90,90,"51 GLENCANNON CRESCENT, CLAYTON SOUTH",-37.936405,145.116593,3.0,1.0,1,$390_Wk,House,May 2018,3169,2018,5,SOUTH,390,House
91,91,91,"37 MONASH CRESCENT, CLAYTON SOUTH",-37.944059,145.133323,3.0,1.0,2,$480_Weekly,House,May 2018,3169,2018,5,SOUTH,480,House
92,92,92,"37 MONASH CRESCENT, CLAYTON SOUTH",-37.944059,145.133323,3.0,1.0,2,$450_Wk,House,May 2018,3169,2018,5,SOUTH,450,House
93,93,93,"5C TENNYSON AVENUE, CLAYTON SOUTH",-37.9333826,145.1302077,3.0,2.0,1,$500,Townhouse,August 2018,3169,2018,8,SOUTH,500,House
94,94,94,"30C OAKES AVENUE, CLAYTON SOUTH",-37.935829,145.131729,3.0,2.0,1,$480,Townhouse,June 2018,3169,2018,6,SOUTH,480,House
95,95,95,"63 ROSEBANK AVENUE, CLAYTON SOUTH",-37.939755,145.135925,3.0,2.0,2,$520_pw,Rental_residential,December 2018,3169,2018,12,SOUTH,520,Other
96,96,96,"63 ROSEBANK AVENUE, CLAYTON SOUTH",-37.939755,145.135925,3.0,2.0,2,$520,Rental_residential,November 2018,3169,2018,11,SOUTH,520,Other
97,97,97,"3/31 SPRINGS ROAD, CLAYTON SOUTH",-37.930285,145.109556,2.0,1.0,1,$350,none,March 2018,3169,2018,3,SOUTH,350,Other
98,98,98,"2/687 HEATHERTON ROAD, CLAYTON SOUTH",-37.959362,145.132126,3.0,2.0,4,$450_Weekly,Townhouse,September 2018,3169,2018,9,SOUTH,450,House
99,99,99,"2/687 HEATHERTON RD, CLAYTON SOUTH",-37.959362,145.132126,3.0,2.0,4,$450_Weekly,Townhouse,September 2018,3169,2018,9,SOUTH,450,House
100,100,100,"A202/59 AUTUMN TERRACE, CLAYTON SOUTH",-37.9391661,145.1385972,1.0,1.0,1,$350_per_week,Rental_residential,March 2018,3169,2018,3,SOUTH,350,Other
101,101,101,"10 WARRAWEENA ROAD, CLAYTON SOUTH",-37.941496,145.11352,3.0,1.0,2,$410,House,November 2018,3169,2018,11,SOUTH,410,House
102,102,102,"10 WARRAWEENA ROAD, CLAYTON SOUTH",-37.941496,145.11352,3.0,1.0,2,$410,House,October 2018,3169,2018,10,SOUTH,410,House
103,103,103,"2/55 MAIN ROAD, CLAYTON SOUTH",-37.937472,145.12717,3.0,2.0,2,$470,Unit,December 2018,3169,2018,12,SOUTH,470,Apartment
104,104,104,"2/55 MAIN ROAD, CLAYTON SOUTH",-37.937472,145.12717,3.0,2.0,2,$470,Unit,November 2018,3169,2018,11,SOUTH,470,Apartment
105,105,105,"UNIT 11/38 WORDSWORTH AVENUE, CLAYTON SOUTH",-37.939192,145.132069,2.0,1.0,1,$340_Wk,Unit,May 2018,3169,2018,5,SOUTH,340,Apartment
106,106,106,"UNIT 1/21 ROSEBANK AVENUE, CLAYTON SOUTH",-37.938946,145.13002,2.0,1.0,1,$350_per_week,Unit,May 2018,3169,2018,5,SOUTH,350,Apartment
107,107,107,"UNIT 1/21 ROSEBANK AVENUE, CLAYTON SOUTH",-37.938946,145.13002,2.0,1.0,1,$350_Wk,Unit,April 2018,3169,2018,4,SOUTH,350,Apartment
108,108,108,"2/17 OAKES AVENUE, CLAYTON SOUTH",-37.935187,145.130118,2.0,1.0,1,$350,Unit,May 2018,3169,2018,5,SOUTH,350,Apartment
109,109,109,"UNIT 1/21 MERLYN AVENUE, CLAYTON SOUTH",-37.935608,145.117216,2.0,1.0,1,$290_per_week,Unit,August 2018,3169,2018,8,SOUTH,290,Apartment
110,110,110,"1/14 MURRAY STREET, CLAYTON",-37.918512,145.122881,2.0,1.0,1,$400,Unit,March 2018,3168,2018,3,CLAYTON,400,Apartment
111,111,111,"1/37 STOCKDALE AVENUE, CLAYTON",-37.910137,145.125737,1.0,1.0,0,$200,House,July 2018,3168,2018,7,CLAYTON,200,House
112,112,112,"1/37 STOCKDALE AVENUE, CLAYTON",-37.910137,145.125737,1.0,1.0,0,$200,House,February 2018,3168,2018,2,CLAYTON,200,House
113,113,113,"1/34 WELLINGTON ROAD, CLAYTON",-37.915779,145.133915,1.0,1.0,1,$255,Unit,January 2018,3168,2018,1,CLAYTON,255,Apartment
114,114,114,"1266 CENTRE ROAD, CLAYTON",-37.9278306,145.1130031,2.0,1.0,2,$350_per_week,House,August 2018,3168,2018,8,CLAYTON,350,House
115,115,115,"1266 CENTRE ROAD, CLAYTON",-37.9278306,145.1130031,2.0,1.0,2,$350,House,July 2018,3168,2018,7,CLAYTON,350,House
116,116,116,"UNIT 3/10 DENNIS STREET, CLAYTON",-37.9181978,145.1365816,2.0,1.0,1,$400_per_week,Unit,January 2018,3168,2018,1,CLAYTON,400,Apartment
117,117,117,"UNIT 2/91 MORIAH STREET, CLAYTON",-37.9251699,145.1296013,4.0,2.0,3,$610_Wk,Unit,January 2018,3168,2018,1,CLAYTON,610,Apartment
118,118,118,"2/37 STOCKDALE AVENUE, CLAYTON",-37.910137,145.125737,1.0,1.0,2,$280,Unit,March 2018,3168,2018,3,CLAYTON,280,Apartment
119,119,119,"UNIT 1/4 HOURIGAN AVENUE, CLAYTON",-37.91756,145.121865,2.0,1.0,2,$400_Wk,Unit,January 2018,3168,2018,1,CLAYTON,400,Apartment
120,120,120,"1/14 BETTINA STREET, CLAYTON",-37.91898,145.136706,2.0,1.0,1,$375,Unit,March 2018,3168,2018,3,CLAYTON,375,Apartment
121,121,121,"3/14-16 WRIGHT STREET, CLAYTON",-37.921946,145.12376,4.0,2.0,1,$620_per_week,Townhouse,February 2018,3168,2018,2,CLAYTON,620,House
122,122,122,"33 ALICE STREET, CLAYTON",-37.917622,145.115287,4.0,2.0,1,$475_Wk,House,February 2018,3168,2018,2,CLAYTON,475,House
123,123,123,"UNIT 1/47 JAGUAR DRIVE, CLAYTON",-37.926876,145.131638,3.0,1.0,2,$420_Wk,Unit,February 2018,3168,2018,2,CLAYTON,420,Apartment
124,124,124,"UNIT 2/20 BETTINA STREET, CLAYTON",-37.919178,145.137236,4.0,1.0,2,$560_Wk,Townhouse,March 2018,3168,2018,3,CLAYTON,560,House
125,125,125,"10/2 MONASH GREEN DRIVE, CLAYTON",-37.918788,145.127626,2.0,1.0,1,$370_Wk,Unit,June 2018,3168,2018,6,CLAYTON,370,Apartment
126,126,126,"UNIT 1/5-7 THOMAS STREET, CLAYTON",-37.926088,145.12026,2.0,1.0,1,$420_per_week,Unit,August 2018,3168,2018,8,CLAYTON,420,Apartment
127,127,127,"UNIT 1/5-7 THOMAS STREET, CLAYTON",-37.926088,145.12026,2.0,1.0,1,$420_per_week,Unit,July 2018,3168,2018,7,CLAYTON,420,Apartment
128,128,128,"UNIT 1/5-7 THOMAS STREET, CLAYTON",-37.926088,145.12026,2.0,1.0,1,$450,Unit,June 2018,3168,2018,6,CLAYTON,450,Apartment
129,129,129,"2/10 RENVER ROAD, CLAYTON",-37.918093,145.14382,3.0,2.0,1,$465_Weekly,Unit,July 2018,3168,2018,7,CLAYTON,465,Apartment
130,130,130,"2/10 RENVER ROAD, CLAYTON",-37.918093,145.14382,3.0,2.0,1,$465,Unit,June 2018,3168,2018,6,CLAYTON,465,Apartment
131,131,131,"4/58 KANOOKA GROVE, CLAYTON",-37.921733,145.126157,3.0,2.0,1,$520_per_week,Townhouse,October 2018,3168,2018,10,CLAYTON,520,House
132,132,132,"UNIT 1/450 HAUGHTON ROAD, CLAYTON",-37.928723,145.125148,2.0,1.0,2,$410_per_week,Unit,August 2018,3168,2018,8,CLAYTON,410,Apartment
133,133,133,"71 CLAYTON ROAD, CLAYTON",-37.9139021,145.1218545,4.0,2.0,2,$420,House,October 2018,3168,2018,10,CLAYTON,420,House
134,134,134,"7/18-20 FRANCIS STREET, CLAYTON",-37.925169,145.12312,2.0,1.0,2,$400_per_week,Unit,August 2018,3168,2018,8,CLAYTON,400,Apartment
135,135,135,"7/18-20 FRANCIS STREET, CLAYTON",-37.925169,145.12312,2.0,1.0,2,$420,Unit,August 2018,3168,2018,8,CLAYTON,420,Apartment
136,136,136,"1/8 MARSHALL AVENUE, CLAYTON",-37.907741,145.127956,4.0,2.0,1,$560,Townhouse,July 2018,3168,2018,7,CLAYTON,560,House
137,137,137,"5 PRINCE STREET, CLAYTON",-37.916188,145.124287,4.0,2.0,1,$520_p.w.,House,May 2018,3168,2018,5,CLAYTON,520,House
138,138,138,"5 PRINCE STREET, CLAYTON",-37.916188,145.124287,4.0,2.0,1,$520_p.w.,House,April 2018,3168,2018,4,CLAYTON,520,House
139,139,139,"2/54 PANORAMA STREET, CLAYTON",-37.921554,145.129661,3.0,2.0,2,$500,Townhouse,October 2018,3168,2018,10,CLAYTON,500,House
140,140,140,"2/54 PANORAMA STREET, CLAYTON",-37.921554,145.129661,3.0,2.0,2,$500,Townhouse,September 2018,3168,2018,9,CLAYTON,500,House
141,141,141,"2/54 PANORAMA STREET, CLAYTON",-37.921554,145.129661,3.0,2.0,2,$515_pw,Townhouse,August 2018,3168,2018,8,CLAYTON,515,House
142,142,142,"1/83 KIONGA STREET, CLAYTON",-37.929193,145.129986,5.0,2.0,1,$550,Townhouse,October 2018,3168,2018,10,CLAYTON,550,House
143,143,143,"1/83 KIONGA STREET, CLAYTON",-37.929193,145.129986,5.0,2.0,1,$550,Townhouse,September 2018,3168,2018,9,CLAYTON,550,House
144,144,144,"1/83 KIONGA STREET, CLAYTON",-37.929193,145.129986,5.0,2.0,1,$550_p.w.,Townhouse,May 2018,3168,2018,5,CLAYTON,550,House
145,145,145,"1/83 KIONGA STREET, CLAYTON",-37.929193,145.129986,5.0,2.0,1,$550_p.w.,Townhouse,March 2018,3168,2018,3,CLAYTON,550,House
146,146,146,"3/17 FRANCIS STREET, CLAYTON",-37.924666,145.123304,2.0,1.0,1,$380_p.w.,Unit,June 2018,3168,2018,6,CLAYTON,380,Apartment
147,147,147,"1/6 ATLANTIC STREET, CLAYTON",-37.918015,145.128456,1.0,1.0,1,$195,House,November 2018,3168,2018,11,CLAYTON,195,House
148,148,148,"1/6 ATLANTIC STREET, CLAYTON",-37.918015,145.128456,1.0,1.0,1,$195,House,October 2018,3168,2018,10,CLAYTON,195,House
149,149,149,"1/6 ATLANTIC STREET, CLAYTON",-37.918015,145.128456,1.0,1.0,1,$195,House,June 2018,3168,2018,6,CLAYTON,195,House
150,150,150,"1/6 ATLANTIC STREET, CLAYTON",-37.918015,145.128456,1.0,1.0,1,$195,House,January 2018,3168,2018,1,CLAYTON,195,House
151,151,151,"5/645 BLACKBURN ROAD, CLAYTON",-37.917981,145.139598,1.0,1.0,1,$270,Unit,January 2018,3168,2018,1,CLAYTON,270,Apartment
152,152,152,"43 HARLINGTON STREET, CLAYTON",-37.923241,145.110846,3.0,1.0,1,$470_per_week,House,September 2018,3168,2018,9,CLAYTON,470,House
153,153,153,"43 HARLINGTON STREET, CLAYTON",-37.923241,145.110846,3.0,1.0,1,$470_per_week,House,August 2018,3168,2018,8,CLAYTON,470,House
154,154,154,"43 HARLINGTON STREET, CLAYTON",-37.923241,145.110846,3.0,1.0,1,$470,House,July 2018,3168,2018,7,CLAYTON,470,House
155,155,155,"43 HARLINGTON STREET, CLAYTON",-37.923241,145.110846,3.0,1.0,1,$400_Wk,House,May 2018,3168,2018,5,CLAYTON,400,House
156,156,156,"43 HARLINGTON STREET, CLAYTON",-37.923241,145.110846,3.0,1.0,1,$400_Wk,House,January 2018,3168,2018,1,CLAYTON,400,House
157,157,157,"2/109 KANOOKA GROVE, CLAYTON",-37.926383,145.124975,3.0,1.0,2,$460_per_week,Townhouse,June 2018,3168,2018,6,CLAYTON,460,House
158,158,158,"2/109 KANOOKA GROVE, CLAYTON",-37.926383,145.124975,3.0,1.0,2,$490,Townhouse,May 2018,3168,2018,5,CLAYTON,490,House
159,159,159,"35 DENNIS STREET, CLAYTON",-37.91795,145.138633,5.0,2.0,1,$600_Weekly,House,February 2018,3168,2018,2,CLAYTON,600,House
160,160,160,"1953 DANDENONG ROAD, CLAYTON",-37.91327,145.126079,5.0,4.0,3,$820,Townhouse,December 2018,3168,2018,12,CLAYTON,820,House
161,161,161,"2/33 HOURIGAN AVENUE, CLAYTON",-37.917699,145.125807,4.0,2.0,1,$750_p.w.,Townhouse,November 2018,3168,2018,11,CLAYTON,750,House
162,162,162,"27 / 2 GREENFIELD DRIVE, CLAYTON",-37.9231817,145.1286232,2.0,1.0,1,$370,Apartment,October 2018,3168,2018,10,CLAYTON,370,Apartment
163,163,163,"1/4 AUGUSTE AVENUE, CLAYTON",-37.9047461,145.1270941,4.0,3.0,4,$790_per_week,Townhouse,February 2018,3168,2018,2,CLAYTON,790,House
164,164,164,"3/21 FRANCIS STREET, CLAYTON",-37.924041,145.121709,2.0,1.0,1,$400,none,November 2018,3168,2018,11,CLAYTON,400,Other
165,165,165,"1/56 PANORAMA STREET, CLAYTON",-37.921779,145.129744,1.0,1.0,1,$210_p.w.,Available Now,December 2018,3168,2018,12,CLAYTON,210,Other
166,166,166,"1/56 PANORAMA STREET, CLAYTON",-37.921779,145.129744,1.0,1.0,1,$200,Available Now,February 2018,3168,2018,2,CLAYTON,200,Other
167,167,167,"3/67 CARINISH ROAD, CLAYTON",-37.920687,145.115993,2.0,1.0,1,$480,Townhouse,February 2018,3168,2018,2,CLAYTON,480,House
168,168,168,"9/34 WELLINGTON ROAD, CLAYTON",-37.915995,145.133951,1.0,1.0,1,$260,none,December 2018,3168,2018,12,CLAYTON,260,Other
169,169,169,"9/34 WELLINGTON ROAD, CLAYTON",-37.915995,145.133951,1.0,1.0,1,$260,none,January 2018,3168,2018,1,CLAYTON,260,Other
170,170,170,"1/189 CARINISH ROAD, CLAYTON",-37.926977,145.124433,3.0,1.0,1,$540_Weekly,Townhouse,July 2018,3168,2018,7,CLAYTON,540,House
171,171,171,"1/189 CARINISH RD, CLAYTON",-37.926977,145.124433,3.0,1.0,1,$540_Weekly,Townhouse,July 2018,3168,2018,7,CLAYTON,540,House
172,172,172,"4 / 63 CARINISH ROAD, CLAYTON",-37.920334,145.115395,2.0,1.0,1,$380_pw,Unit,March 2018,3168,2018,3,CLAYTON,380,Apartment
173,173,173,"4 / 63 CARINISH ROAD, CLAYTON",-37.920334,145.115395,2.0,1.0,1,$380,Unit,February 2018,3168,2018,2,CLAYTON,380,Apartment
174,174,174,"6/55 KOONAWARRA STREET, CLAYTON",-37.9111821,145.1243493,1.0,1.0,0,$295,none,June 2018,3168,2018,6,CLAYTON,295,Other
175,175,175,"220/1457 NORTH ROAD, CLAYTON",-37.913578,145.124129,1.0,1.0,0,$265_per_week,Rental_residential,November 2018,3168,2018,11,CLAYTON,265,Other
176,176,176,"3/320 HAUGHTON ROAD, CLAYTON",-37.919046,145.111712,2.0,1.0,2,$400_per_week,Available Now,November 2018,3168,2018,11,CLAYTON,400,Other
177,177,177,"3/320 HAUGHTON ROAD, CLAYTON",-37.919046,145.111712,2.0,1.0,2,$400_per_week,Available Now,October 2018,3168,2018,10,CLAYTON,400,Other
178,178,178,"2B HOURIGAN AVENUE, CLAYTON",-37.917265,145.121913,3.0,2.0,2,$580,Townhouse,February 2018,3168,2018,2,CLAYTON,580,House
179,179,179,"2/6 ATLANTIC STREET, CLAYTON",-37.918259,145.128437,1.0,1.0,0,$195,Townhouse,October 2018,3168,2018,10,CLAYTON,195,House
180,180,180,"2/6 ATLANTIC STREET, CLAYTON",-37.918259,145.128437,1.0,1.0,0,$195,Townhouse,September 2018,3168,2018,9,CLAYTON,195,House
181,181,181,"2/6 ATLANTIC STREET, CLAYTON",-37.918259,145.128437,1.0,1.0,0,$195,Townhouse,July 2018,3168,2018,7,CLAYTON,195,House
182,182,182,"2/6 ATLANTIC STREET, CLAYTON",-37.918259,145.128437,1.0,1.0,0,$195,Townhouse,January 2018,3168,2018,1,CLAYTON,195,House
183,183,183,"1 / 9 COLONEL STREET, CLAYTON",-37.919616,145.116875,3.0,2.0,1,$440,Unit,November 2018,3168,2018,11,CLAYTON,440,Apartment
184,184,184,"1 / 9 COLONEL STREET, CLAYTON",-37.919616,145.116875,3.0,2.0,1,$440_pw,Unit,February 2018,3168,2018,2,CLAYTON,440,Apartment
185,185,185,"2/5 HOURIGAN AVENUE, CLAYTON",-37.916695,145.122487,3.0,3.0,2,$595,Townhouse,June 2018,3168,2018,6,CLAYTON,595,House
186,186,186,"2/5 HOURIGAN AVENUE, CLAYTON",-37.916695,145.122487,3.0,3.0,2,$595,Townhouse,May 2018,3168,2018,5,CLAYTON,595,House
187,187,187,"23 MCBEAN STREET, CLAYTON",-37.923718,145.111716,2.0,1.0,2,$420,Townhouse,January 2018,3168,2018,1,CLAYTON,420,House
188,188,188,"16C BANKSIA STREET, CLAYTON",-37.915274,145.118986,2.0,1.0,2,$500_per_week,Townhouse,January 2018,3168,2018,1,CLAYTON,500,House
189,189,189,"59 MARSHALL AVENUE, CLAYTON",-37.91192,145.126379,4.0,1.0,4,$470,House,March 2018,3168,2018,3,CLAYTON,470,House
190,190,190,"59 MARSHALL AVENUE, CLAYTON",-37.91192,145.126379,4.0,1.0,4,$500,House,February 2018,3168,2018,2,CLAYTON,500,House
191,191,191,"9 PRINCE CHARLES STREET, CLAYTON",-37.921871,145.114627,3.0,1.0,2,$450,House,February 2018,3168,2018,2,CLAYTON,450,House
192,192,192,"9 PRINCE CHARLES STREET, CLAYTON",-37.921871,145.114627,3.0,1.0,2,$450_pw,House,January 2018,3168,2018,1,CLAYTON,450,House
193,193,193,"3/4 CANTALA STREET, CLAYTON",-37.918835,145.128098,5.0,3.0,2,$810,Townhouse,May 2018,3168,2018,5,CLAYTON,810,House
194,194,194,"3/4 CANTALA STREET, CLAYTON",-37.918835,145.128098,5.0,3.0,2,$810,Townhouse,April 2018,3168,2018,4,CLAYTON,810,House
195,195,195,"31 BEDDOE AVENUE, CLAYTON",-37.90991,145.12789,3.0,1.0,4,$500,House,January 2018,3168,2018,1,CLAYTON,500,House
196,196,196,"2/53 FULTON STREET, CLAYTON",-37.913881,145.114733,2.0,2.0,1,$530_Week,Townhouse,February 2018,3168,2018,2,CLAYTON,530,House
197,197,197,"30 KANOOKA GROVE, CLAYTON",-37.919628,145.126395,2.0,1.0,1,$420,House,December 2018,3168,2018,12,CLAYTON,420,House
198,198,198,"2/1 ROSE STREET, CLAYTON",-37.922359,145.122301,2.0,1.0,2,$410_pw,Townhouse,July 2018,3168,2018,7,CLAYTON,410,House
199,199,199,"2/1 ROSE STREET, CLAYTON",-37.922359,145.122301,2.0,1.0,2,$410,Townhouse,June 2018,3168,2018,6,CLAYTON,410,House
200,200,200,"2 BRUSHBOX COURT, CLAYTON",-37.925488,145.119662,3.0,1.0,2,$450_Weekly,Townhouse,September 2018,3168,2018,9,CLAYTON,450,House
201,201,201,"5 BEDDOE AVENUE, CLAYTON",-37.907652,145.128306,1.0,1.0,2,$310_per_week,House,October 2018,3168,2018,10,CLAYTON,310,House
202,202,202,"5 BEDDOE AVENUE, CLAYTON",-37.907652,145.128306,1.0,1.0,2,$310,House,August 2018,3168,2018,8,CLAYTON,310,House
203,203,203,"2/9 EVA STREET, CLAYTON",-37.921148,145.113797,4.0,3.0,2,$850,Townhouse,March 2018,3168,2018,3,CLAYTON,850,House
204,204,204,"2/9 EVA STREET, CLAYTON",-37.921148,145.113797,4.0,3.0,2,$850,Townhouse,February 2018,3168,2018,2,CLAYTON,850,House
205,205,205,"1/17 BEDDOE AVENUE, CLAYTON",-37.90863,145.128127,3.0,2.0,1,$575_p.w.,Townhouse,January 2018,3168,2018,1,CLAYTON,575,House
206,206,206,"10 DONALD STREET, CLAYTON",-37.923982,145.123656,5.0,2.0,2,$400_p.w.,House,June 2018,3168,2018,6,CLAYTON,400,House
207,207,207,"10 DONALD STREET, CLAYTON",-37.923982,145.123656,5.0,2.0,2,$550,House,March 2018,3168,2018,3,CLAYTON,550,House
208,208,208,"110 HOLLINGSWORTH ROAD, CLIFTON CREEK",-37.7422408,147.6328382,3.0,1.0,2,$350_Wk,House,March 2018,3875,2018,3,CREEK,350,House
209,209,209,"1/434 WELLINGTON STREET, CLIFTON HILL",-37.793054,144.988618,2.0,2.0,0,$560,Rental_residential,September 2018,3068,2018,9,HILL,560,Other
210,210,210,"33 RUTLAND STREET, CLIFTON HILL",-37.793422,144.995945,2.0,1.0,0,$590_per_week,none,October 2018,3068,2018,10,HILL,590,Other
211,211,211,"33 RUTLAND STREET, CLIFTON HILL",-37.793422,144.995945,2.0,1.0,0,$590_per_week,none,September 2018,3068,2018,9,HILL,590,Other
212,212,212,"12/82 ROSENEATH STREET, CLIFTON HILL",-37.793089,144.99717,3.0,2.0,1,$730_Week,none,December 2018,3068,2018,12,HILL,730,Other
213,213,213,"12/82 ROSENEATH STREET, CLIFTON HILL",-37.793089,144.99717,3.0,2.0,1,$730_Week,none,November 2018,3068,2018,11,HILL,730,Other
214,214,214,"25 HEIDELBERG ROAD, CLIFTON HILL",-37.787143,144.996092,4.0,2.0,1,$900_per_week,House,January 2018,3068,2018,1,HILL,900,House
215,215,215,"169 ROSENEATH STREET, CLIFTON HILL",-37.793091,145.000806,2.0,1.0,0,$560_per_week,House,June 2018,3068,2018,6,HILL,560,House
216,216,216,"56 ALEXANDRA PARADE, CLIFTON HILL",-37.793951,144.988923,4.0,3.0,3,$1100,House,August 2018,3068,2018,8,HILL,1100,House
217,217,217,"56 ALEXANDRA PARADE, CLIFTON HILL",-37.793951,144.988923,4.0,3.0,3,$950_per_week,House,February 2018,3068,2018,2,HILL,950,House
218,218,218,"47 CLIFFORD PLACE, CLIFTON HILL",-37.791779,145.001407,2.0,1.0,1,$550_per_week,Townhouse,December 2018,3068,2018,12,HILL,550,House
219,219,219,"7 CLIFFORD PLACE, CLIFTON HILL",-37.7927202,145.0013174,3.0,2.0,1,$850,Townhouse,August 2018,3068,2018,8,HILL,850,House
220,220,220,"2/57 CAROLINE STREET, CLIFTON HILL",-37.790209,145.00096,1.0,1.0,1,$310,Rental_residential,August 2018,3068,2018,8,HILL,310,Other
221,221,221,"18/14 THE ESPLANADE, CLIFTON HILL",-37.788057,145.005844,1.0,1.0,1,$330,Rental_residential,August 2018,3068,2018,8,HILL,330,Other
222,222,222,"18/14 THE ESPLANADE, CLIFTON HILL",-37.788057,145.005844,1.0,1.0,1,$330_Week,Rental_residential,July 2018,3068,2018,7,HILL,330,Other
223,223,223,"2/142 SPENSLEY STREET, CLIFTON HILL",-37.7867712,145.0030182,1.0,1.0,1,$330_pw,Rental_residential,November 2018,3068,2018,11,HILL,330,Other
224,224,224,"30A COUNCIL STREET, CLIFTON HILL",-37.792295,144.986832,4.0,2.0,0,$1075_pw,House,September 2018,3068,2018,9,HILL,1075,House
225,225,225,"11 DALLY STREET, CLIFTON HILL",-37.792519,144.999611,2.0,1.0,0,$520,none,April 2018,3068,2018,4,HILL,520,Other
226,226,226,"8B PECKVILLE STREET, CLIFTON HILL",-37.79306,144.9914803,2.0,1.0,1,$750_Week,Townhouse,January 2018,3068,2018,1,HILL,750,House
227,227,227,"10/9 SOUTH TERRACE, CLIFTON HILL",-37.79235,144.99226,1.0,1.0,1,$300,Flat,January 2018,3068,2018,1,HILL,300,Apartment
228,228,228,"7/2 ANDERSON STREET, CLIFTON HILL",-37.793144,144.993094,2.0,1.0,1,$380,Flat,May 2018,3068,2018,5,HILL,380,Apartment
229,229,229,"3/15 SOUTH TERRACE, CLIFTON HILL",-37.792417,144.992996,2.0,2.0,1,$530_Week,Rental_residential,July 2018,3068,2018,7,HILL,530,Other
230,230,230,"3/15 SOUTH TERRACE, CLIFTON HILL",-37.792417,144.992996,2.0,2.0,1,$530,Rental_residential,June 2018,3068,2018,6,HILL,530,Other
231,231,231,"7/57 CAROLINE STREET, CLIFTON HILL",-37.789892,144.998232,2.0,1.0,1,$360,Rental_residential,September 2018,3068,2018,9,HILL,360,Other
232,232,232,"1/81 FIELD STREET, CLIFTON HILL",-37.7921964,145.0022619,2.0,1.0,1,$530_pw,Rental_residential,December 2018,3068,2018,12,HILL,530,Other
233,233,233,"1/81 FIELD STREET, CLIFTON HILL",-37.7921964,145.0022619,2.0,1.0,1,$530_pw,Rental_residential,November 2018,3068,2018,11,HILL,530,Other
234,234,234,"4/15 ANDERSON STREET, CLIFTON HILL",-37.792677,144.99261,2.0,1.0,1,$400_Week,Rental_residential,November 2018,3068,2018,11,HILL,400,Other
235,235,235,"4/15 ANDERSON STREET, CLIFTON HILL",-37.792677,144.99261,2.0,1.0,1,$400_pw,Rental_residential,October 2018,3068,2018,10,HILL,400,Other
236,236,236,"9 O'GRADY STREET, CLIFTON HILL",-37.787643,144.997929,2.0,1.0,2,$610_per_week,House,September 2018,3068,2018,9,HILL,610,House
237,237,237,"22 GROOM STREET, CLIFTON HILL",-37.793529,144.997952,2.0,2.0,1,$465,Rental_residential,May 2018,3068,2018,5,HILL,465,Other
238,238,238,"57 CLIFFORD PLACE, CLIFTON HILL",-37.791503,145.001466,3.0,2.0,1,$695_pw,Townhouse,December 2018,3068,2018,12,HILL,695,House
239,239,239,"57 CLIFFORD PLACE, CLIFTON HILL",-37.791503,145.001466,3.0,2.0,1,$695_pw,Townhouse,November 2018,3068,2018,11,HILL,695,House
240,240,240,"11/56 JOHN STREET, CLIFTON HILL",-37.789298,144.995897,2.0,2.0,1,$430_per_week,none,December 2018,3068,2018,12,HILL,430,Other
241,241,241,"11/56 JOHN STREET, CLIFTON HILL",-37.789298,144.995897,2.0,2.0,1,$430,none,March 2018,3068,2018,3,HILL,430,Other
242,242,242,"10 ANDERSON ST, CLIFTON HILL",-37.792765,144.993104,2.0,1.0,1,$570,Rental_residential,July 2018,3068,2018,7,HILL,570,Other
243,243,243,"10 ANDERSON STREET, CLIFTON HILL",-37.792946,144.993254,2.0,1.0,1,$570,Available Now,July 2018,3068,2018,7,HILL,570,Other
244,244,244,"57 DALLY STREET, CLIFTON HILL",-37.792276,144.997986,2.0,1.0,1,$575_per_week,none,June 2018,3068,2018,6,HILL,575,Other
245,245,245,"8/56 JOHN STREET, CLIFTON HILL",-37.787359,144.995813,2.0,1.0,1,$450_per_week,none,December 2018,3068,2018,12,HILL,450,Other
246,246,246,"78 RAMSDEN STREET, CLIFTON HILL",-37.79056,144.999593,3.0,1.0,2,$800_pw,Rental_residential,October 2018,3068,2018,10,HILL,800,Other
247,247,247,"78 RAMSDEN STREET, CLIFTON HILL",-37.79056,144.999593,3.0,1.0,2,$800,Rental_residential,September 2018,3068,2018,9,HILL,800,Other
248,248,248,"45 HEIDELBERG ROAD, CLIFTON HILL",-37.786475,144.998131,3.0,2.0,1,$650_Week,Rental_residential,January 2018,3068,2018,1,HILL,650,Other
249,249,249,"6 RUTLAND STREET, CLIFTON HILL",-37.794625,144.996207,2.0,1.0,1,$500_pw,House,November 2018,3068,2018,11,HILL,500,House
250,250,250,"132 NOONE STREET, CLIFTON HILL",-37.793811,144.996547,2.0,1.0,0,$540_Week,House,August 2018,3068,2018,8,HILL,540,House
251,251,251,"363 WELLINGTON STREET, CLIFTON HILL",-37.793646,144.987995,3.0,2.0,1,$625,Rental_residential,November 2018,3068,2018,11,HILL,625,Other
252,252,252,"363 WELLINGTON STREET, CLIFTON HILL",-37.793646,144.987995,3.0,2.0,1,$650,Rental_residential,September 2018,3068,2018,9,HILL,650,Other
253,253,253,"20 BUNGANOWEE DRIVE, CLIFTON SPRINGS",-38.16039759,144.56663484,3.0,2.0,1,$360_per_week,House,June 2018,3222,2018,6,SPRINGS,360,House
254,254,254,"14 YARRAMUNDI DRIVE, CLIFTON SPRINGS",-38.1579965,144.5571227,3.0,1.0,2,$350_per_week,none,August 2018,3222,2018,8,SPRINGS,350,Other
255,255,255,"20 BUNGANOWEE DR, CLIFTON SPRINGS",-38.16039759,144.56663484,3.0,2.0,1,$360_Weekly,House,June 2018,3222,2018,6,SPRINGS,360,House
256,256,256,"30 CARAVEL AVENUE, CLIFTON SPRINGS",-38.1481356,144.5739724,3.0,2.0,1,$365_Weekly,House,September 2018,3222,2018,9,SPRINGS,365,House
257,257,257,"30 CARAVEL AVENUE, CLIFTON SPRINGS",-38.1481356,144.5739724,3.0,2.0,1,$350_Weekly,House,September 2018,3222,2018,9,SPRINGS,350,House
258,258,258,"30 CARAVEL AVENUE, CLIFTON SPRINGS",-38.1481356,144.5739724,3.0,2.0,1,$360_per_week,House,August 2018,3222,2018,8,SPRINGS,360,House
259,259,259,"30 CARAVEL AVE, CLIFTON SPRINGS",-38.1481356,144.5739724,3.0,2.0,1,$365_Weekly,House,September 2018,3222,2018,9,SPRINGS,365,House
260,260,260,"30 CARAVEL AVE, CLIFTON SPRINGS",-38.1481356,144.5739724,3.0,2.0,1,$350_Weekly,House,September 2018,3222,2018,9,SPRINGS,350,House
261,261,261,"56 BEACON POINT ROAD, CLIFTON SPRINGS",-38.1480888,144.5754182,2.0,1.0,2,$335_per_week,Rental_residential,December 2018,3222,2018,12,SPRINGS,335,Other
262,262,262,"31 CENTRAL ROAD, CLIFTON SPRINGS",-38.16107328,144.56106495,3.0,1.0,2,$360_Weekly,House,November 2018,3222,2018,11,SPRINGS,360,House
263,263,263,"31 CENTRAL RD, CLIFTON SPRINGS",-38.161015,144.561206,3.0,1.0,2,$360_Weekly,House,November 2018,3222,2018,11,SPRINGS,360,House
264,264,264,"10 LACORRA COURT, CLIFTON SPRINGS",-38.151941,144.576798,4.0,2.0,1,$380_per_week,Rental_residential,February 2018,3222,2018,2,SPRINGS,380,Other
265,265,265,"9 KIAMA WAY, CLIFTON SPRINGS",-38.160429,144.553527,3.0,2.0,4,$390_Wk,House,September 2018,3222,2018,9,SPRINGS,390,House
266,266,266,"1081 DARNUM ALLAMBEE, CLOVERLEA",-38.25367,146.007306,3.0,2.0,2,$430_pw,House,January 2018,3822,2018,1,CLOVERLEA,430,House
267,267,267,"19 SMEATON ROAD, CLUNES",-37.291657,143.803475,3.0,1.0,2,$270_pw,House,May 2018,3370,2018,5,CLUNES,270,House
268,268,268,"19 SMEATON ROAD, CLUNES",-37.291657,143.803475,3.0,1.0,2,$270,House,April 2018,3370,2018,4,CLUNES,270,House
269,269,269,"27A BECKWITH STREET, CLUNES",-37.299866,143.781619,3.0,1.0,1,$260,House,December 2018,3370,2018,12,CLUNES,260,House
270,270,270,"27A BECKWITH STREET, CLUNES",-37.299866,143.781619,3.0,1.0,1,$250_pw,House,January 2018,3370,2018,1,CLUNES,250,House
271,271,271,"45A THORNTON STREET, CLUNES",-37.300026,143.782154,2.0,1.0,1,$240_pw,House,February 2018,3370,2018,2,CLUNES,240,House
272,272,272,"45A THORNTON STREET, CLUNES",-37.300026,143.782154,2.0,1.0,1,$240_pw,House,January 2018,3370,2018,1,CLUNES,240,House
273,273,273,"15 BUTE CLOSE, CLUNES",-37.2861585,143.7624076,3.0,1.0,4,$300,Rental_residential,August 2018,3370,2018,8,CLUNES,300,Other
274,274,274,"41 ALLIANCE STREET, CLUNES",-37.295995,143.783581,3.0,1.0,1,$250,House,December 2018,3370,2018,12,CLUNES,250,House
275,275,275,"18 TALBOT ROAD, CLUNES",-37.291558,143.774007,3.0,1.0,2,$250_pw,House,December 2018,3370,2018,12,CLUNES,250,House
276,276,276,"10 ALBERT STREET, CLUNES",-37.287198,143.78807,3.0,2.0,1,$280_per_week,House,November 2018,3370,2018,11,CLUNES,280,House
277,277,277,"7 SUBURBAN STREET, CLUNES",-37.294901,143.77939,3.0,1.0,2,$275,House,May 2018,3370,2018,5,CLUNES,275,House
278,278,278,"47 SERVICE STREET, CLUNES",-37.2992574,143.7838899,3.0,2.0,0,$290_pw,House,August 2018,3370,2018,8,CLUNES,290,House
279,279,279,"47 SERVICE STREET, CLUNES",-37.2992574,143.7838899,3.0,2.0,0,$290_pw,House,July 2018,3370,2018,7,CLUNES,290,House
280,280,280,"17 LIGAR STREET, CLUNES",-37.294749,143.790146,3.0,1.0,0,$270_pw,House,June 2018,3370,2018,6,CLUNES,270,House
281,281,281,"85 BAILEY STREET, CLUNES",-37.2939486,143.78524,3.0,1.0,0,$260,House,May 2018,3370,2018,5,CLUNES,260,House
282,282,282,"85 BAILEY STREET, CLUNES",-37.2939486,143.78524,3.0,1.0,0,$260,House,April 2018,3370,2018,4,CLUNES,260,House
283,283,283,"19 TALBOT ROAD, CLUNES",-37.290704,143.773346,1.0,1.0,2,$260_pw,House,May 2018,3370,2018,5,CLUNES,260,House
284,284,284,"27A BECKWORTH STREET, CLUNES",-37.299866,143.781619,3.0,1.0,0,$250,House,February 2018,3370,2018,2,CLUNES,250,House
285,285,285,"25 BUTE CLOSE, CLUNES",-37.2857553,143.7644659,3.0,1.0,0,$270_pw,House,February 2018,3370,2018,2,CLUNES,270,House
286,286,286,"25 BUTE CLOSE, CLUNES",-37.2857553,143.7644659,3.0,1.0,0,$270,House,January 2018,3370,2018,1,CLUNES,270,House
287,287,287,"47 KERSHOPE VIEW, CLYDE NORTH",-38.1143435,145.3419847,3.0,2.0,2,$395_pw,none,August 2018,3978,2018,8,NORTH,395,Other
288,288,288,"47 KERSHOPE VIEW, CLYDE NORTH",-38.1143435,145.3419847,3.0,2.0,2,$385,none,August 2018,3978,2018,8,NORTH,385,Other
289,289,289,"6 COTTONGRASS AVENUE, CLYDE NORTH",-38.0799985,145.3399545,4.0,2.0,2,$395_per_week,Available Now,July 2018,3978,2018,7,NORTH,395,Other
290,290,290,"6 COTTONGRASS AVENUE, CLYDE NORTH",-38.0799985,145.3399545,4.0,2.0,2,$425,Available Now,June 2018,3978,2018,6,NORTH,425,Other
291,291,291,"16 VANTAGE AVENUE, CLYDE NORTH",-38.104467,145.3234526,4.0,2.0,2,$385,House,December 2018,3978,2018,12,NORTH,385,House
292,292,292,"11 TRAINERS WAY, CLYDE NORTH",-38.0325473,145.3429522,4.0,2.0,1,$380_per_week,House,July 2018,3978,2018,7,NORTH,380,House
293,293,293,"11 TRAINERS WAY, CLYDE NORTH",-38.0325473,145.3429522,4.0,2.0,1,$380_per_week,House,April 2018,3978,2018,4,NORTH,380,House
294,294,294,"11 TRAINERS WAY, CLYDE NORTH",-38.0325473,145.3429522,4.0,2.0,1,$380_per_week,House,March 2018,3978,2018,3,NORTH,380,House
295,295,295,"11 TRAINERS WAY, CLYDE NORTH",-38.0325473,145.3429522,4.0,2.0,1,$380,House,February 2018,3978,2018,2,NORTH,380,House
296,296,296,"22 SWALLOWTAIL AVENUE, CLYDE NORTH",-38.1062834,145.3484256,4.0,2.0,2,$400,House,May 2018,3978,2018,5,NORTH,400,House
297,297,297,"12 CLOVIS AVENUE, CLYDE NORTH",-38.1062834,145.3484256,4.0,2.0,2,$420,House,July 2018,3978,2018,7,NORTH,420,House
298,298,298,"12 CLOVIS AVENUE, CLYDE NORTH",-38.1062834,145.3484256,4.0,2.0,2,$420,House,June 2018,3978,2018,6,NORTH,420,House
299,299,299,"30 KITE STREET, CLYDE NORTH",-38.0789648,145.3367484,4.0,2.0,2,$465_per_week,House,September 2018,3978,2018,9,NORTH,465,House
300,300,300,"30 KITE STREET, CLYDE NORTH",-38.0789648,145.3367484,4.0,2.0,2,$475_per_week,House,September 2018,3978,2018,9,NORTH,475,House
301,301,301,"32 KITE STREET, CLYDE NORTH",-38.0789648,145.3367484,4.0,2.0,2,$400_per_week,House,September 2018,3978,2018,9,NORTH,400,House
302,302,302,"27 SPRINGBROOK DRIVE, CLYDE NORTH",-38.0787163,145.3403128,4.0,2.0,2,$430,House,December 2018,3978,2018,12,NORTH,430,House
303,303,303,"21 GRANDSTAND CRESCENT, CLYDE NORTH",-38.119168,145.3389177,4.0,2.0,3,$415,House,July 2018,3978,2018,7,NORTH,415,House
304,304,304,"30 ELLAROO CIRCUIT, CLYDE NORTH",-38.078546,145.355466,3.0,2.0,2,$380,House,December 2018,3978,2018,12,NORTH,380,House
305,305,305,"30 ELLAROO CIRCUIT, CLYDE NORTH",-38.078546,145.355466,3.0,2.0,2,$380,House,November 2018,3978,2018,11,NORTH,380,House
306,306,306,"5 SIKES ROAD, CLYDE NORTH",-38.0827755,145.3595921,4.0,2.0,2,$435,House,December 2018,3978,2018,12,NORTH,435,House
307,307,307,"10 BARCELONA AVE, CLYDE NORTH",-38.1096318,145.3341681,4.0,2.0,2,$440_pw,House,May 2018,3978,2018,5,NORTH,440,House
308,308,308,"84 BIMBERRY CIRCUIT, CLYDE",-38.1247122,145.3230869,3.0,2.0,1,$355_Wk,House,July 2018,3978,2018,7,CLYDE,355,House
309,309,309,"235 CLYDE-FIVE WAYS ROAD, CLYDE",-38.13985,145.319078,4.0,3.0,2,$600_Wk,none,January 2018,3978,2018,1,CLYDE,600,Other
310,310,310,"110 CLYDE FIVE WAYS ROAD, CLYDE",-38.1595057,145.3188431,4.0,3.0,3,$500,House,October 2018,3978,2018,10,CLYDE,500,House
311,311,311,"110 CLYDE FIVE WAYS ROAD, CLYDE",-38.1595057,145.3188431,4.0,3.0,3,$500_per_week,House,September 2018,3978,2018,9,CLYDE,500,House
312,312,312,"5 GOTCH PLACE, CLYDE",-38.1319999694824,145.326995849609,4.0,3.0,2,$470_per_week,House,October 2018,3978,2018,10,CLYDE,470,House
313,313,313,"5 GOTCH PLACE, CLYDE",-38.1319999694824,145.326995849609,4.0,3.0,2,$500_per_week,House,October 2018,3978,2018,10,CLYDE,500,House
314,314,314,"5 GOTCH PLACE, CLYDE",-38.1319999694824,145.326995849609,4.0,3.0,2,$540_per_week,House,October 2018,3978,2018,10,CLYDE,540,House
315,315,315,"5 GOTCH PLACE, CLYDE",-38.1319999694824,145.326995849609,4.0,3.0,2,$540_per_week,House,September 2018,3978,2018,9,CLYDE,540,House
316,316,316,"58 ABBEYARD DRIVE, CLYDE",-38.1310997009277,145.321823120117,4.0,2.0,2,$400_Wk,House,November 2018,3978,2018,11,CLYDE,400,House
317,317,317,"44 CRADLE AVENUE, CLYDE",-38.124696,145.3243096,4.0,2.0,2,$415_per_week,House,May 2018,3978,2018,5,CLYDE,415,House
318,318,318,"79 BONA VISTA RISE, CLYDE",-38.1292697,145.3216027,4.0,2.0,2,$425_per_week,House,September 2018,3978,2018,9,CLYDE,425,House
319,319,319,"79 BONA VISTA RISE, CLYDE",-38.1292697,145.3216027,4.0,2.0,2,$425_per_week,House,June 2018,3978,2018,6,CLYDE,425,House
320,320,320,"79 BONA VISTA RISE, CLYDE",-38.1292697,145.3216027,4.0,2.0,2,$425_per_week,House,May 2018,3978,2018,5,CLYDE,425,House
321,321,321,"79 BONA VISTA RISE, CLYDE",-38.1292697,145.3216027,4.0,2.0,2,$425_per_week,House,April 2018,3978,2018,4,CLYDE,425,House
322,322,322,"82 GREEN GULLY ROAD, CLYDE",-38.1199516,145.3224339,2.0,2.0,2,$350_per_week,Townhouse,June 2018,3978,2018,6,CLYDE,350,House
323,323,323,"82 GREEN GULLY ROAD, CLYDE",-38.1199516,145.3224339,2.0,2.0,2,$350_per_week,Townhouse,March 2018,3978,2018,3,CLYDE,350,House
324,324,324,"8 PELION AVENUE, CLYDE",-38.133137,145.330643,4.0,2.0,2,$420_Wk,none,January 2018,3978,2018,1,CLYDE,420,Other
325,325,325,"82 GREEN GULLY RD, CLYDE",-38.1199516,145.3224339,2.0,2.0,2,$350_per_week,Townhouse,March 2018,3978,2018,3,CLYDE,350,House
326,326,326,"650 CLYDEBANK ROAD, CLYDEBANK",-38.0432526,147.1301374,3.0,2.0,0,$350_per_week,House,July 2018,3850,2018,7,CLYDEBANK,350,House
327,327,327,"328 BENGWORDEN ROAD, COBAINS",-38.072845,147.110754,2.0,1.0,2,$240_per_week,Rental_residential,October 2018,3851,2018,10,COBAINS,240,Other
328,328,328,"328 BENGWORDEN ROAD, COBAINS",-38.072845,147.110754,2.0,1.0,2,$240_per_week,Rental_residential,September 2018,3851,2018,9,COBAINS,240,Other
329,329,329,"74 WALKER STREET, COBDEN",-38.32536,143.080733,2.0,1.0,1,$235_Weekly,House,October 2018,3266,2018,10,COBDEN,235,House
330,330,330,"74 WALKER STREET, COBDEN",-38.32536,143.080733,2.0,1.0,1,$225,House,April 2018,3266,2018,4,COBDEN,225,House
331,331,331,"74 WALKER STREET, COBDEN",-38.32536,143.080733,2.0,1.0,1,$225,House,March 2018,3266,2018,3,COBDEN,225,House
332,332,332,"74 WALKER ST, COBDEN",-38.32528739,143.08074131,2.0,1.0,1,$235_Weekly,House,October 2018,3266,2018,10,COBDEN,235,House
333,333,333,"22 PARROTT STREET, COBDEN",-38.32951,143.076719,4.0,1.0,3,$270_per_week,House,July 2018,3266,2018,7,COBDEN,270,House
334,334,334,"22 PARROTT STREET, COBDEN",-38.32951,143.076719,4.0,1.0,3,$270_per_week,House,March 2018,3266,2018,3,COBDEN,270,House
335,335,335,"2/65 CURDIE STREET, COBDEN",-38.328676,143.073802,3.0,2.0,2,$290_Weekly,House,December 2018,3266,2018,12,COBDEN,290,House
336,336,336,"78 SILVESTER STREET, COBDEN",-38.326388,143.070045,3.0,1.0,2,$310_per_week,House,October 2018,3266,2018,10,COBDEN,310,House
337,337,337,"2/46 SILVESTER STREET, COBDEN",-38.3265291,143.0741625,2.0,1.0,1,$240_per_week,none,March 2018,3266,2018,3,COBDEN,240,Other
338,338,338,"2/46 SILVESTER STREET, COBDEN",-38.3265291,143.0741625,2.0,1.0,1,$240_per_week,none,January 2018,3266,2018,1,COBDEN,240,Other
339,339,339,"397 STONEYFORD ROAD, COBDEN",-38.332701,143.126845,3.0,1.0,1,$240_per_week,none,March 2018,3266,2018,3,COBDEN,240,Other
340,340,340,"109 BARNES ROAD, COBRAM EAST",-35.98474259,145.73184148,3.0,1.0,4,$320,none,October 2018,3644,2018,10,EAST,320,Other
341,341,341,"109 BARNES ROAD, COBRAM EAST",-35.98474259,145.73184148,3.0,1.0,4,$320,none,September 2018,3644,2018,9,EAST,320,Other
342,342,342,"82 WILLIAM STREET, COBRAM EAST",-35.9248693,145.6509738,3.0,1.0,1,$230,House,April 2018,3644,2018,4,EAST,230,House
343,343,343,"1/6 THOMPSON AVENUE, COBRAM",-35.9158,145.653804,2.0,1.0,1,$190,House,July 2018,3644,2018,7,COBRAM,190,House
344,344,344,"1/6 THOMPSON AVE, COBRAM",-35.9158,145.653804,2.0,1.0,1,$190_per_week,House,July 2018,3644,2018,7,COBRAM,190,House
345,345,345,"49 CHURR STREET, COBRAM",-35.91491885,145.66215576,4.0,2.0,2,$350,House,July 2018,3644,2018,7,COBRAM,350,House
346,346,346,"23 GATTUSO DRIVE, COBRAM",-35.925188,145.669623,4.0,2.0,2,$430,Rental_residential,June 2018,3644,2018,6,COBRAM,430,Other
347,347,347,"39 BISOGNI DRIVE, COBRAM",-35.9233042,145.6658788,3.0,2.0,2,$385,House,April 2018,3644,2018,4,COBRAM,385,House
348,348,348,"42 GEMMELL STREET, COBRAM",-35.912563,145.6471428,3.0,2.0,2,$320_per_week,Rental_residential,May 2018,3644,2018,5,COBRAM,320,Other
349,349,349,"42 GEMMELL STREET, COBRAM",-35.912563,145.6471428,3.0,2.0,2,$320,Rental_residential,April 2018,3644,2018,4,COBRAM,320,Other
350,350,350,"42 GEMMELL STREET, COBRAM",-35.912563,145.6471428,3.0,2.0,2,$320_per_week,Rental_residential,March 2018,3644,2018,3,COBRAM,320,Other
351,351,351,"2443 GREAT ALPINE ROAD, COBUNGRA",-37.0931793,147.388943,1.0,1.0,1,$250_per_week,House,May 2018,3898,2018,5,COBUNGRA,250,House
352,352,352,"2443 GREAT ALPINE ROAD, COBUNGRA",-37.0931793,147.388943,1.0,1.0,1,$250,House,March 2018,3898,2018,3,COBUNGRA,250,House
353,353,353,"12 MCMAHONS ROAD, COBURG NORTH",-37.72818,144.971322,3.0,2.0,1,$620_pw,Townhouse,December 2018,3058,2018,12,NORTH,620,House
354,354,354,"12 MCMAHONS ROAD, COBURG NORTH",-37.72818,144.971322,3.0,2.0,1,$590_per_week,Townhouse,September 2018,3058,2018,9,NORTH,590,House
355,355,355,"46 CAMERA WALK, COBURG NORTH",-37.7287512,144.98089,2.0,2.0,2,$430,Unit,March 2018,3058,2018,3,NORTH,430,Apartment
356,356,356,"736 SYDNEY ROAD, COBURG NORTH",-37.731875,144.964677,3.0,1.0,3,$350_per_week,House,February 2018,3058,2018,2,NORTH,350,House
357,357,357,"10 EMMA COURT, COBURG NORTH",-37.720777,144.9685754,2.0,1.0,2,$420,House,September 2018,3058,2018,9,NORTH,420,House
358,358,358,"109 SPECTRUM WAY, COBURG NORTH",-37.7290495,144.9790651,3.0,2.0,2,$450,Available Now,March 2018,3058,2018,3,NORTH,450,Other
359,359,359,"802 SYDNEY ROAD, COBURG NORTH",-37.7292022,144.9639454,2.0,1.0,1,$380,Townhouse,January 2018,3058,2018,1,NORTH,380,House
360,360,360,"03 IMAGE WALK, COBURG NORTH",-37.726,144.96,2.0,2.0,1,$450,Townhouse,September 2018,3058,2018,9,NORTH,450,House
361,361,361,"21 BOYD CRESCENT, COBURG NORTH",-37.733193,144.979128,4.0,2.0,1,$520_per_week,House,December 2018,3058,2018,12,NORTH,520,House
362,362,362,"21 BOYD CRESCENT, COBURG NORTH",-37.733193,144.979128,4.0,2.0,1,$520,House,November 2018,3058,2018,11,NORTH,520,House
363,363,363,"21 BOYD CRESCENT, COBURG NORTH",-37.733193,144.979128,4.0,2.0,1,$550_per_week,House,September 2018,3058,2018,9,NORTH,550,House
364,364,364,"21 BOYD CRES, COBURG NORTH",-37.733143,144.979189,4.0,2.0,1,$520_Weekly,House,November 2018,3058,2018,11,NORTH,520,House
365,365,365,"65 BAKERS ROAD, COBURG NORTH",-37.727112,144.959713,2.0,1.0,2,$450_per_week,none,October 2018,3058,2018,10,NORTH,450,Other
366,366,366,"65 BAKERS ROAD, COBURG NORTH",-37.727112,144.959713,2.0,1.0,2,$450_per_week,none,September 2018,3058,2018,9,NORTH,450,Other
367,367,367,"2/20 GALEKA STREET, COBURG NORTH",-37.722051,144.95731,3.0,1.0,1,$420_-_$450_per_week,Rental_residential,March 2018,3058,2018,3,NORTH,450,Other
368,368,368,"4 COPE STREET, COBURG",-37.736649,144.961891,3.0,1.0,1,$480_per_week,none,February 2018,3058,2018,2,COBURG,480,Other
369,369,369,"2 BELGRAVE STREET, COBURG",-37.742793,144.974864,3.0,1.0,1,$500_pw,none,September 2018,3058,2018,9,COBURG,500,Other
370,370,370,"19 SAUNDERS STREET, COBURG",-37.752043,144.950572,3.0,1.0,1,$495_Week,House,August 2018,3058,2018,8,COBURG,495,House
371,371,371,"63 PHILLIPS STREET, COBURG",-37.74662,144.954331,3.0,1.0,3,$500_per_week,none,October 2018,3058,2018,10,COBURG,500,Other
372,372,372,"63 PHILLIPS STREET, COBURG",-37.74662,144.954331,3.0,1.0,3,$520_per_week,none,October 2018,3058,2018,10,COBURG,520,Other
373,373,373,"63 PHILLIPS STREET, COBURG",-37.74662,144.954331,3.0,1.0,3,$520,none,September 2018,3058,2018,9,COBURG,520,Other
374,374,374,"1 CONNOLLY AVENUE, COBURG",-37.735905,144.980822,3.0,1.0,1,$450_pw,none,March 2018,3058,2018,3,COBURG,450,Other
375,375,375,"405/146 BELL STREET, COBURG",-37.740837,144.9632357,2.0,2.0,1,$430,Rental_residential,August 2018,3058,2018,8,COBURG,430,Other
376,376,376,"5 ANKETELL STREET, COBURG",-37.745631,144.959669,4.0,1.0,1,$600_per_week,House,November 2018,3058,2018,11,COBURG,600,House
377,377,377,"5 ANKETELL STREET, COBURG",-37.745631,144.959669,4.0,1.0,1,$600_per_week,House,October 2018,3058,2018,10,COBURG,600,House
378,378,378,"30 VICTORIA STREET, COBURG",-37.7429133,144.9637724,2.0,1.0,1,$400_Weekly,none,October 2018,3058,2018,10,COBURG,400,Other
379,379,379,"177 URQUHART STREET, COBURG",-37.741016,144.975769,3.0,2.0,1,$580,House,January 2018,3058,2018,1,COBURG,580,House
380,380,380,"5 CARRON STREET, COBURG",-37.751754,144.963576,2.0,1.0,0,$420_Week,Rental_residential,March 2018,3058,2018,3,COBURG,420,Other
381,381,381,"4/11 METHVEN STREET, COBURG",-37.746901,144.963811,2.0,1.0,1,$420_per_week,Rental_residential,October 2018,3058,2018,10,COBURG,420,Other
382,382,382,"9 WATCHTOWER ROAD, COBURG",-37.73804815,144.97273345,4.0,2.0,2,$700_per_week,House,November 2018,3058,2018,11,COBURG,700,House
383,383,383,"9 WATCHTOWER ROAD, COBURG",-37.73804815,144.97273345,4.0,2.0,2,$700,House,October 2018,3058,2018,10,COBURG,700,House
384,384,384,"9 WATCHTOWER RD, COBURG",-37.7380481,144.9727335,4.0,2.0,2,$700_Weekly,House,November 2018,3058,2018,11,COBURG,700,House
385,385,385,"2/7-9 BELL STREET, COBURG",-37.742764,144.977229,2.0,2.0,1,$400,Rental_residential,August 2018,3058,2018,8,COBURG,400,Other
386,386,386,"2/7-9 BELL STREET, COBURG",-37.742764,144.977229,2.0,2.0,1,$410_per_week,Rental_residential,August 2018,3058,2018,8,COBURG,410,Other
387,387,387,"4/85 GAFFNEY STREET, COBURG",-37.733725,144.959773,2.0,1.0,1,$450_Weekly,House,September 2018,3058,2018,9,COBURG,450,House
388,388,388,"4/85 GAFFNEY STREET, COBURG",-37.733725,144.959773,2.0,1.0,1,$450,House,August 2018,3058,2018,8,COBURG,450,House
389,389,389,"2/44 STAWELL STREET, COBURG",-37.73444,144.960272,3.0,2.0,3,$550_per_week,none,October 2018,3058,2018,10,COBURG,550,Other
390,390,390,"47 MOORE STREET, COBURG",-37.7542503,144.9695382,2.0,1.0,1,$550_per_week,Townhouse,September 2018,3058,2018,9,COBURG,550,House
391,391,391,"4/85 GAFFNEY ST, COBURG",-37.733725,144.959773,2.0,1.0,1,$450_Weekly,House,September 2018,3058,2018,9,COBURG,450,House
392,392,392,"17 CATON AVENUE, COBURG",-37.750085,144.977593,3.0,1.0,1,$650,House,May 2018,3058,2018,5,COBURG,650,House
393,393,393,"62 HARDING STREET, COBURG",-37.745894,144.971892,2.0,1.0,0,$490_per_week,House,February 2018,3058,2018,2,COBURG,490,House
394,394,394,"156 GORDON STREET, COBURG",-37.7430127,144.9495076,3.0,2.0,2,$585_per_week,House,February 2018,3058,2018,2,COBURG,585,House
395,395,395,"1/69 MURRAY STREET, COBURG",-37.738199,144.952588,3.0,1.0,0,$410_pw,Rental_residential,January 2018,3058,2018,1,COBURG,410,Other
396,396,396,"801/146 BELL STREET, COBURG",-37.740837,144.9632357,2.0,1.0,1,$420,Rental_residential,August 2018,3058,2018,8,COBURG,420,Other
397,397,397,"32A LOCH STREET, COBURG",-37.74664,144.962241,4.0,2.0,2,$630,none,December 2018,3058,2018,12,COBURG,630,Other
398,398,398,"32A LOCH STREET, COBURG",-37.74664,144.962241,4.0,2.0,2,$630,none,November 2018,3058,2018,11,COBURG,630,Other
399,399,399,"2/3 SHAFTSBURY STREET, COBURG",-37.75354,144.953103,2.0,1.0,1,$500,Townhouse,June 2018,3058,2018,6,COBURG,500,House
400,400,400,"2/3 SHAFTSBURY STREET, COBURG",-37.75354,144.953103,2.0,1.0,1,$500,Townhouse,April 2018,3058,2018,4,COBURG,500,House
401,401,401,"7 LYNN STREET, COBURG",-37.73872578,144.97227223,4.0,2.0,2,$850,House,February 2018,3058,2018,2,COBURG,850,House
402,402,402,"3/20 HUDSON STREET, COBURG",-37.743232,144.962514,3.0,2.0,2,$495,Townhouse,November 2018,3058,2018,11,COBURG,495,House
403,403,403,"3/20 HUDSON STREET, COBURG",-37.743232,144.962514,3.0,2.0,2,$495,Townhouse,October 2018,3058,2018,10,COBURG,495,House
404,404,404,"3/20 HUDSON STREET, COBURG",-37.743232,144.962514,3.0,2.0,2,$520,Townhouse,October 2018,3058,2018,10,COBURG,520,House
405,405,405,"14 BAXTER STREET, COBURG",-37.746189,144.96433,3.0,1.0,2,$495_pw,House,February 2018,3058,2018,2,COBURG,495,House
406,406,406,"42 JAMIESON STREET, COBURG",-37.744647,144.951898,2.0,1.0,1,$490_pw,House,April 2018,3058,2018,4,COBURG,490,House
407,407,407,"42 JAMIESON STREET, COBURG",-37.744647,144.951898,2.0,1.0,1,$490,House,March 2018,3058,2018,3,COBURG,490,House
408,408,408,"69 CAMPBELL STREET, COBURG",-37.753608,144.969821,2.0,2.0,1,$545_Week,Rental_residential,January 2018,3058,2018,1,COBURG,545,Other
409,409,409,"237/14-20 NICHOLSON STREET, COBURG",-37.755441,144.975716,1.0,1.0,0,$295,Available Now,September 2018,3058,2018,9,COBURG,295,Other
410,410,410,"237/14-20 NICHOLSON STREET, COBURG",-37.755441,144.975716,1.0,1.0,0,$310_per_week,Available Now,September 2018,3058,2018,9,COBURG,310,Other
411,411,411,"1 BECKWITH STREET, COBURG",-37.738086,144.965278,3.0,1.0,3,$550_-_$570_per_week,none,July 2018,3058,2018,7,COBURG,570,Other
412,412,412,"2/33 SHAFTSBURY STREET, COBURG",-37.751325,144.953636,3.0,1.0,1,$600_Week,none,May 2018,3058,2018,5,COBURG,600,Other
413,413,413,"2/33 SHAFTSBURY STREET, COBURG",-37.751325,144.953636,3.0,1.0,1,$600_pw,none,April 2018,3058,2018,4,COBURG,600,Other
414,414,414,"2/33 SHAFTSBURY STREET, COBURG",-37.751325,144.953636,3.0,1.0,1,$370,none,February 2018,3058,2018,2,COBURG,370,Other
415,415,415,"20 SHACKELL STREET, COBURG",-37.742317,144.952214,3.0,1.0,2,$490_Weekly,House,December 2018,3058,2018,12,COBURG,490,House
416,416,416,"20 SHACKELL STREET, COBURG",-37.742317,144.952214,3.0,1.0,2,$600_per_week,House,October 2018,3058,2018,10,COBURG,600,House
417,417,417,"20 SHACKELL STREET, COBURG",-37.742317,144.952214,3.0,1.0,2,$720_-_$750,House,August 2018,3058,2018,8,COBURG,750,House
418,418,418,"56 WALSH STREET, COBURG",-37.748608,144.970474,2.0,1.0,1,$610_pw,none,March 2018,3058,2018,3,COBURG,610,Other
419,419,419,"1/5 DARLINGTON GROVE, COBURG",-37.75034,144.97297,3.0,1.0,1,$550,Townhouse,March 2018,3058,2018,3,COBURG,550,House
420,420,420,"1/5 DARLINGTON GROVE, COBURG",-37.75034,144.97297,3.0,1.0,1,$550,Townhouse,February 2018,3058,2018,2,COBURG,550,House
421,421,421,"92A RENNIE STREET, COBURG",-37.751411,144.973948,3.0,1.0,1,$600_Week,House,August 2018,3058,2018,8,COBURG,600,House
422,422,422,"2B PORTLAND STREET, COBURG",-37.744494,144.950483,2.0,1.0,1,$500,Townhouse,March 2018,3058,2018,3,COBURG,500,House
423,423,423,"109A/41-43 STOCKADE AVENUE, COBURG",-37.7390664,144.9698398,1.0,1.0,1,$285_per_week,none,October 2018,3058,2018,10,COBURG,285,Other
424,424,424,"109A/41-43 STOCKADE AVENUE, COBURG",-37.7390664,144.9698398,1.0,1.0,1,$285,none,September 2018,3058,2018,9,COBURG,285,Other
425,425,425,"68 BRUCE STREET, COBURG",-37.743287,144.948467,3.0,1.0,1,$510,none,July 2018,3058,2018,7,COBURG,510,Other
426,426,426,"18 BARROW STREET, COBURG",-37.754638,144.970886,4.0,1.0,2,$700,House,February 2018,3058,2018,2,COBURG,700,House
427,427,427,"4/156 BARROW STREET, COBURG",-37.742919,144.973082,2.0,1.0,1,$350_per_week,Rental_residential,November 2018,3058,2018,11,COBURG,350,Other
428,428,428,"35 BAKERS ROAD, COBURG",-37.7274333,144.9624865,3.0,1.0,1,$500,Available Now,August 2018,3058,2018,8,COBURG,500,Other
429,429,429,"102A/1 MANNA GUM COURT, COBURG",-37.737353,144.976093,1.0,1.0,1,$360_per_week,Available Now,December 2018,3058,2018,12,COBURG,360,Other
430,430,430,"102A/1 MANNA GUM COURT, COBURG",-37.737353,144.976093,1.0,1.0,1,$360_per_week,Available Now,October 2018,3058,2018,10,COBURG,360,Other
431,431,431,"2/1 MANLY COURT, COBURG",-37.720463,144.969422,3.0,2.0,1,$485,Unit,August 2018,3058,2018,8,COBURG,485,Apartment
432,432,432,"2/1 MANLY COURT, COBURG",-37.720463,144.969422,3.0,2.0,1,$485,Unit,July 2018,3058,2018,7,COBURG,485,Apartment
433,433,433,"6/15-17 DECARLE STREET, COBURG",-37.753054,144.966247,1.0,1.0,1,$260,Unit,March 2018,3058,2018,3,COBURG,260,Apartment
434,434,434,"10/345 MORELAND ROAD, COBURG",-37.753767,144.952453,1.0,1.0,1,$265,Unit,April 2018,3058,2018,4,COBURG,265,Apartment
435,435,435,"10/345 MORELAND ROAD, COBURG",-37.753767,144.952453,1.0,1.0,1,$265,Unit,March 2018,3058,2018,3,COBURG,265,Apartment
436,436,436,"3/12 DONNE STREET, COBURG",-37.752416,144.949071,2.0,1.0,1,$340_per_week,Unit,May 2018,3058,2018,5,COBURG,340,Apartment
437,437,437,"3/12 DONNE STREET, COBURG",-37.752416,144.949071,2.0,1.0,1,$340,Unit,April 2018,3058,2018,4,COBURG,340,Apartment
438,438,438,"609/14-20 NICHOLSON STREET, COBURG",-37.7553923,144.9758467,1.0,1.0,1,$350_per_week,Unit,July 2018,3058,2018,7,COBURG,350,Apartment
439,439,439,"609/14-20 NICHOLSON STREET, COBURG",-37.7553923,144.9758467,1.0,1.0,1,$350_per_week,Unit,June 2018,3058,2018,6,COBURG,350,Apartment
440,440,440,"214/19 PENTRIDGE BOULEVARD, COBURG",-37.738903,144.970583,1.0,1.0,1,$320_pw,Unit,February 2018,3058,2018,2,COBURG,320,Apartment
441,441,441,"1/14 FLORENCE STREET, COBURG",-37.7516577,144.959873,3.0,2.0,1,$580,none,April 2018,3058,2018,4,COBURG,580,Other
442,442,442,"1/14 FLORENCE STREET, COBURG",-37.7516577,144.959873,3.0,2.0,1,$580,none,March 2018,3058,2018,3,COBURG,580,Other
443,443,443,"5/130 RENNIE STREET, COBURG",-37.751879,144.978146,2.0,2.0,1,$380,Rental_residential,March 2018,3058,2018,3,COBURG,380,Other
444,444,444,"508/14-20 NICHOLSON STREET, COBURG",-37.755441,144.975716,1.0,1.0,1,$350,Rental_residential,October 2018,3058,2018,10,COBURG,350,Other
445,445,445,"23A MURRAY STREET, COBURG",-37.738829,144.958816,3.0,1.0,1,$480,none,June 2018,3058,2018,6,COBURG,480,Other
446,446,446,"21/1 MANNA GUM COURT, COBURG",-37.737353,144.976093,3.0,2.0,2,$600,none,April 2018,3058,2018,4,COBURG,600,Other
447,447,447,"1/1 INDUSTRY LANE, COBURG",-37.7369442,144.9699153,1.0,1.0,1,$350_per_week,none,April 2018,3058,2018,4,COBURG,350,Other
448,448,448,"2/27 GLADSTONE STREET, COBURG",-37.74468,144.976117,2.0,1.0,1,$395_pw,Rental_residential,January 2018,3058,2018,1,COBURG,395,Other
449,449,449,"10 CLARENDON STREET, COBURG",-37.753069,144.952598,3.0,2.0,2,$620,none,June 2018,3058,2018,6,COBURG,620,Other
450,450,450,"3/170 GORDON STREET, COBURG",-37.742134,144.94979,2.0,1.0,1,$380,none,June 2018,3058,2018,6,COBURG,380,Other
451,451,451,"3/22 CHAMBERS STREET, COBURG",-37.747267,144.96884,2.0,1.0,1,$385_pw,none,January 2018,3058,2018,1,COBURG,385,Other
452,452,452,"4/9 SHEFFIELD STREET, COBURG",-37.746293,144.966699,1.0,1.0,1,$260_Weekly,none,May 2018,3058,2018,5,COBURG,260,Other
453,453,453,"4/9 SHEFFIELD STREET, COBURG",-37.746293,144.966699,1.0,1.0,1,$260,none,April 2018,3058,2018,4,COBURG,260,Other
454,454,454,"28B COBURG STREET, COBURG",-37.747912,144.971097,2.0,1.0,0,$500_pw,House,February 2018,3058,2018,2,COBURG,500,House
455,455,455,"20 CASH STREET, COBURG",-37.748976,144.967068,3.0,1.0,2,$580_-_$600_per_week,Available Now,December 2018,3058,2018,12,COBURG,600,Other
456,456,456,"20 CASH STREET, COBURG",-37.748976,144.967068,3.0,1.0,2,$580_-_$600_per_week,Available Now,November 2018,3058,2018,11,COBURG,600,Other
457,457,457,"20 CASH STREET, COBURG",-37.748976,144.967068,3.0,1.0,2,$550_-_$600_per_week,Available Now,February 2018,3058,2018,2,COBURG,600,Other
458,458,458,"41 VICTORIA STREET, COBURG",-37.742714,144.960374,3.0,1.0,1,$680_per_week,House,March 2018,3058,2018,3,COBURG,680,House
459,459,459,"41 VICTORIA STREET, COBURG",-37.742714,144.960374,3.0,1.0,1,$680,House,February 2018,3058,2018,2,COBURG,680,House
460,460,460,"41 VICTORIA STREET, COBURG",-37.742714,144.960374,3.0,1.0,1,$750_per_week,House,February 2018,3058,2018,2,COBURG,750,House
461,461,461,"19 SERVICE STREET, COBURG",-37.739671,144.96189,3.0,2.0,1,$595,House,February 2018,3058,2018,2,COBURG,595,House
462,462,462,"27 HIGINBOTHAM STREET, COBURG",-37.735014,144.958066,4.0,2.0,1,$620_pw,House,March 2018,3058,2018,3,COBURG,620,House
463,463,463,"35A SAUNDERS STREET, COBURG",-37.7509857,144.9507578,2.0,2.0,2,$540_pw,none,May 2018,3058,2018,5,COBURG,540,Other
464,464,464,"35A SAUNDERS STREET, COBURG",-37.7509857,144.9507578,2.0,2.0,2,$540,none,April 2018,3058,2018,4,COBURG,540,Other
465,465,465,"72A WOORI YALLOCK ROAD, COCKATOO",-37.92802,145.493483,2.0,1.0,2,$290_pw,House,October 2018,3781,2018,10,COCKATOO,290,House
466,466,466,"72A WOORI YALLOCK ROAD, COCKATOO",-37.92802,145.493483,2.0,1.0,2,$290,House,May 2018,3781,2018,5,COCKATOO,290,House
467,467,467,"22 BELGRAVE-GEMBROOK ROAD, COCKATOO",-37.936065,145.494084,3.0,1.0,0,$370_per_week,Rental_residential,June 2018,3781,2018,6,COCKATOO,370,Other
468,468,468,"2 BELGRAVE AVENUE, COCKATOO",-37.92732,145.495818,4.0,2.0,6,$390_per_week,Rental_residential,October 2018,3781,2018,10,COCKATOO,390,Other
469,469,469,"2 BELGRAVE AVENUE, COCKATOO",-37.92732,145.495818,4.0,2.0,6,$390_per_week,Rental_residential,September 2018,3781,2018,9,COCKATOO,390,Other
470,470,470,"7 NEVILLE STREET, COCKATOO",-37.942416,145.490977,2.0,1.0,0,$310_per_week,House,December 2018,3781,2018,12,COCKATOO,310,House
471,471,471,"22 GLEN ROAD, COCKATOO",-37.937274,145.486381,2.0,1.0,0,$340_per_week,House,August 2018,3781,2018,8,COCKATOO,340,House
472,472,472,"22 GLEN ROAD, COCKATOO",-37.937274,145.486381,2.0,1.0,0,$340_per_week,House,June 2018,3781,2018,6,COCKATOO,340,House
473,473,473,"111 WOORI YALLOCK ROAD, COCKATOO",-37.926367,145.494886,3.0,2.0,2,$460_per_week,House,December 2018,3781,2018,12,COCKATOO,460,House
474,474,474,"111 WOORI YALLOCK ROAD, COCKATOO",-37.926367,145.494886,3.0,2.0,2,$460_per_week,House,March 2018,3781,2018,3,COCKATOO,460,House
475,475,475,"7 BELGRAVE GEMBROOK ROAD, COCKATOO",-37.936927,145.494462,3.0,1.0,1,$380,House,September 2018,3781,2018,9,COCKATOO,380,House
476,476,476,"80 RAINY HILL ROAD, COCKATOO",-37.91618,145.516997,3.0,1.0,0,$500_per_week,Rental_residential,February 2018,3781,2018,2,COCKATOO,500,Other
477,477,477,"CONTACT AGENT, COHUNA",-35.8094724,144.2223753,3.0,1.0,2,$220_pw,House,October 2018,3568,2018,10,COHUNA,220,House
478,478,478,"CONTACT AGENT, COHUNA",-35.8094724,144.2223753,3.0,1.0,2,$200_pw,House,July 2018,3568,2018,7,COHUNA,200,House
479,479,479,"9 LIVINGSTONE STREET, COHUNA",-35.814487,144.216931,3.0,1.0,2,$180_pw,House,June 2018,3568,2018,6,COHUNA,180,House
480,480,480,"197 KING GEORGE STREET, COHUNA",-35.7992197,144.2092357,3.0,1.0,2,$180_pw,House,January 2018,3568,2018,1,COHUNA,180,House
481,481,481,"CHANNEL STREET, COHUNA",-35.8087173,144.2177318,3.0,1.0,2,$200,House,May 2018,3568,2018,5,COHUNA,200,House
482,482,482,"32 WILLIAM STREET, COHUNA",-35.813353,144.217085,3.0,1.0,0,$180_pw,House,January 2018,3568,2018,1,COHUNA,180,House
483,483,483,"19 CULLEN STREET, COHUNA",-35.81185559,144.21767175,3.0,1.0,0,$200_pw,House,January 2018,3568,2018,1,COHUNA,200,House
484,484,484,"104 KING GEORGE STREET, COHUNA",-35.803786,144.218651,3.0,1.0,1,$200_pw,House,January 2018,3568,2018,1,COHUNA,200,House
485,485,485,"1/27 DOWLING STREET, COLAC",-38.351997,143.582613,3.0,1.0,1,$300_per_week,none,October 2018,3250,2018,10,COLAC,300,Other
486,486,486,"1/27 DOWLING STREET, COLAC",-38.351997,143.582613,3.0,1.0,1,$300_per_week,none,April 2018,3250,2018,4,COLAC,300,Other
487,487,487,"1/26 DOWLING STREET, COLAC",-38.351868,143.583323,3.0,1.0,2,$350_per_week,Townhouse,December 2018,3250,2018,12,COLAC,350,House
488,488,488,"4 SELWOOD STREET, COLAC",-38.347277,143.592928,2.0,1.0,0,$250_per_week,none,December 2018,3250,2018,12,COLAC,250,Other
489,489,489,"5A MARKS STREET, COLAC",-38.338987,143.575414,1.0,1.0,1,$175_per_week,none,March 2018,3250,2018,3,COLAC,175,Other
490,490,490,"5A MARKS STREET, COLAC",-38.338987,143.575414,1.0,1.0,1,$175_per_week,none,January 2018,3250,2018,1,COLAC,175,Other
491,491,491,"78 MURRAY STREET, COLAC",-38.3396915,143.5883928,2.0,1.0,1,$280_per_week,House,December 2018,3250,2018,12,COLAC,280,House
492,492,492,"9 MCLAUGHLIN STREET, COLAC",-38.3459735,143.5831538,3.0,1.0,1,$290_per_week,House,July 2018,3250,2018,7,COLAC,290,House
493,493,493,"9 MCLAUGHLIN STREET, COLAC",-38.3459735,143.5831538,3.0,1.0,1,$290,House,June 2018,3250,2018,6,COLAC,290,House
494,494,494,"9 MCLAUGHLIN STREET, COLAC",-38.3459735,143.5831538,3.0,1.0,1,$290_per_week,House,March 2018,3250,2018,3,COLAC,290,House
495,495,495,"20 MORRISON STREET, COLAC",-38.3466395,143.5877225,2.0,1.0,0,$230_per_week,House,July 2018,3250,2018,7,COLAC,230,House
496,496,496,"22 CHURCH STREET, COLAC",-38.335155,143.599279,3.0,1.0,1,$280_per_week,House,March 2018,3250,2018,3,COLAC,280,House
497,497,497,"22 CHURCH STREET, COLAC",-38.335155,143.599279,3.0,1.0,1,$280_per_week,House,January 2018,3250,2018,1,COLAC,280,House
498,498,498,"13 LEAH STREET, COLAC",-38.343636,143.60051,3.0,1.0,2,$335_per_week,House,September 2018,3250,2018,9,COLAC,335,House
499,499,499,"22 GRAVESEND STREET, COLAC",-38.346357,143.5853,3.0,2.0,1,$300_per_week,none,March 2018,3250,2018,3,COLAC,300,Other
500,500,500,"11 KILLARA ROAD, COLDSTREAM",-37.72281,145.384305,3.0,1.0,4,$400_per_week,House,November 2018,3770,2018,11,COLDSTREAM,400,House
501,501,501,"11 KILLARA ROAD, COLDSTREAM",-37.72281,145.384305,3.0,1.0,4,$450_per_week,House,October 2018,3770,2018,10,COLDSTREAM,450,House
502,502,502,"17 NORTH GATEWAY, COLDSTREAM",-37.727807,145.380801,3.0,2.0,1,$400,House,December 2018,3770,2018,12,COLDSTREAM,400,House
503,503,503,"7 BEDE AVENUE, COLDSTREAM",-37.733786,145.385345,4.0,2.0,2,$420_pw,House,October 2018,3770,2018,10,COLDSTREAM,420,House
504,504,504,"18A CHEVIOT AVENUE, COLDSTREAM",-37.72822,145.38466,2.0,2.0,1,$360,House,December 2018,3770,2018,12,COLDSTREAM,360,House
505,505,505,"18A CHEVIOT AVE, COLDSTREAM",-37.72822,145.38466,2.0,2.0,1,$360_Weekly,House,December 2018,3770,2018,12,COLDSTREAM,360,House
506,506,506,"741 MAROONDAH HIGHWAY, COLDSTREAM",-37.6834426,145.4495419,3.0,1.0,2,$365,House,April 2018,3770,2018,4,COLDSTREAM,365,House
507,507,507,"3 MAHY COURT, COLDSTREAM",-37.725187,145.386509,4.0,2.0,4,$495_pw,House,August 2018,3770,2018,8,COLDSTREAM,495,House
508,508,508,"3 MAHY COURT, COLDSTREAM",-37.725187,145.386509,4.0,2.0,4,$495_pw,House,May 2018,3770,2018,5,COLDSTREAM,495,House
509,509,509,"50 LAURISTON DRIVE, COLDSTREAM",-37.728935,145.38654,3.0,2.0,2,$450_Weekly,none,December 2018,3770,2018,12,COLDSTREAM,450,Other
510,510,510,"50 LAURISTON DR, COLDSTREAM",-37.728935,145.38654,3.0,2.0,2,$450_Weekly,House,December 2018,3770,2018,12,COLDSTREAM,450,House
511,511,511,"12 MCFADZEAN STREET, COLDSTREAM",-37.731138,145.38487,3.0,1.0,2,$370_pw,House,October 2018,3770,2018,10,COLDSTREAM,370,House
512,512,512,"4 WELTEN DRIVE, COLDSTREAM",-37.725576,145.385422,3.0,2.0,2,$420_pw,House,August 2018,3770,2018,8,COLDSTREAM,420,House
513,513,513,"51 LAURISTON DRIVE, COLDSTREAM",-37.729192,145.386898,3.0,2.0,2,$400_pw,House,February 2018,3770,2018,2,COLDSTREAM,400,House
514,514,514,"1 READ STREET, COLERAINE",-37.597815,141.696046,2.0,1.0,2,$160,House,September 2018,3315,2018,9,COLERAINE,160,House
515,515,515,"9 MCCONOCHIE STREET, COLERAINE",-37.6028556,141.6993735,4.0,1.0,2,$200_per_week,none,March 2018,3315,2018,3,COLERAINE,200,Other
516,516,516,"9 MCCONOCHIE STREET, COLERAINE",-37.6028556,141.6993735,4.0,1.0,2,$200_per_week,none,January 2018,3315,2018,1,COLERAINE,200,Other
517,517,517,"3844 GLENELG HIGHWAY, COLERAINE",-37.59233633,141.6458652,3.0,1.0,2,$250,none,March 2018,3315,2018,3,COLERAINE,250,Other
518,518,518,"29 CHURCH STREET, COLERAINE",-37.603931,141.696698,3.0,1.0,2,$185_p.w.,House,November 2018,3315,2018,11,COLERAINE,185,House
519,519,519,"25 CHURCH STREET, COLERAINE",-37.603805,141.697068,3.0,1.0,1,$160_per_week,House,September 2018,3315,2018,9,COLERAINE,160,House
520,520,520,"38 MCKEBERY STREET, COLERAINE",-37.6044655,141.6958957,3.0,1.0,0,$190_per_week,House,March 2018,3315,2018,3,COLERAINE,190,House
521,521,521,"3 MCCONOCHIE STREET, COLERAINE",-37.603077,141.700024,2.0,1.0,1,$145_p.w.,House,March 2018,3315,2018,3,COLERAINE,145,House
522,522,522,"802/60 STANLEY STREET, COLLINGWOOD",-37.801974,144.985936,2.0,1.0,1,$550_p.w.,none,February 2018,3066,2018,2,COLLINGWOOD,550,Other
523,523,523,"802/60 STANLEY STREET, COLLINGWOOD",-37.801974,144.985936,2.0,1.0,1,$560_p.w.,none,February 2018,3066,2018,2,COLLINGWOOD,560,Other
524,524,524,"802/60 STANLEY STREET, COLLINGWOOD",-37.801974,144.985936,2.0,1.0,1,$560,none,January 2018,3066,2018,1,COLLINGWOOD,560,Other
525,525,525,"72 LITTLE FRANCIS STREET, COLLINGWOOD",-37.8006147,144.991577,2.0,1.0,1,$650_p.w.,House,August 2018,3066,2018,8,COLLINGWOOD,650,House
526,526,526,"129 SACKVILLE STREET, COLLINGWOOD",-37.79908,144.991078,2.0,1.0,0,$585_Week,Rental_residential,July 2018,3066,2018,7,COLLINGWOOD,585,Other
527,527,527,"2/19-23 BENDIGO STREET, COLLINGWOOD",-37.795915,144.992664,1.0,1.0,1,$375_Week,none,March 2018,3066,2018,3,COLLINGWOOD,375,Other
528,528,528,"11/115 OXFORD STREET, COLLINGWOOD",-37.802615,144.984783,3.0,2.0,2,$1200_Week,none,October 2018,3066,2018,10,COLLINGWOOD,1200,Other
529,529,529,"11/115 OXFORD STREET, COLLINGWOOD",-37.802615,144.984783,3.0,2.0,2,$1300_Week,none,September 2018,3066,2018,9,COLLINGWOOD,1300,Other
530,530,530,"3 MATER STREET, COLLINGWOOD",-37.795598,144.985642,2.0,1.0,0,$650_pw,House,March 2018,3066,2018,3,COLLINGWOOD,650,House
531,531,531,"2/136 OXFORD STREET, COLLINGWOOD",-37.803526,144.985039,2.0,1.0,1,$695_per_week,Rental_residential,June 2018,3066,2018,6,COLLINGWOOD,695,Other
532,532,532,"2/136 OXFORD STREET, COLLINGWOOD",-37.803526,144.985039,2.0,1.0,1,$695_per_week,Rental_residential,May 2018,3066,2018,5,COLLINGWOOD,695,Other
533,533,533,"5/15-17 BENDIGO STREET, COLLINGWOOD",-37.796087,144.992632,1.0,1.0,1,$265_per_week,Rental_residential,July 2018,3066,2018,7,COLLINGWOOD,265,Other
534,534,534,"5/15-17 BENDIGO STREET, COLLINGWOOD",-37.796087,144.992632,1.0,1.0,1,$265_per_week,Rental_residential,June 2018,3066,2018,6,COLLINGWOOD,265,Other
535,535,535,"5/15-17 BENDIGO STREET, COLLINGWOOD",-37.796087,144.992632,1.0,1.0,1,$265_per_week,Rental_residential,February 2018,3066,2018,2,COLLINGWOOD,265,Other
536,536,536,"504/45 VICTORIA PARADE, COLLINGWOOD",-37.808835,144.984151,1.0,1.0,0,$320_per_week,none,February 2018,3066,2018,2,COLLINGWOOD,320,Other
537,537,537,"410/158 SMITH STREET, COLLINGWOOD",-37.8041561,144.9834623,2.0,2.0,1,$590,none,May 2018,3066,2018,5,COLLINGWOOD,590,Other
538,538,538,"19 LITTLE WELLINGTON STREET, COLLINGWOOD",-37.8012,144.985384,2.0,1.0,1,$630_pw,Rental_residential,August 2018,3066,2018,8,COLLINGWOOD,630,Other
539,539,539,"26 CAMPBELL STREET, COLLINGWOOD",-37.803517,144.989147,2.0,1.0,0,$540_-_$570,Rental_residential,September 2018,3066,2018,9,COLLINGWOOD,570,Other
540,540,540,"26 CAMPBELL STREET, COLLINGWOOD",-37.803517,144.989147,2.0,1.0,0,$540_-_$570,Rental_residential,August 2018,3066,2018,8,COLLINGWOOD,570,Other
541,541,541,"223 / 107 CAMBRIDGE STREET, COLLINGWOOD",-37.8045372,144.985193,1.0,1.0,1,$450,none,February 2018,3066,2018,2,COLLINGWOOD,450,Other
542,542,542,"9/1 PEEL STREET, COLLINGWOOD",-37.805201,144.983757,1.0,1.0,1,$390_pw,Rental_residential,April 2018,3066,2018,4,COLLINGWOOD,390,Other
543,543,543,"330/158 SMITH STREET, COLLINGWOOD",-37.8041561,144.9834623,1.0,1.0,1,$450,none,August 2018,3066,2018,8,COLLINGWOOD,450,Other
544,544,544,"151 JOHNSTON STREET, COLLINGWOOD",-37.799711,144.990002,3.0,1.0,1,$650,Townhouse,September 2018,3066,2018,9,COLLINGWOOD,650,House
545,545,545,"151 JOHNSTON STREET, COLLINGWOOD",-37.799711,144.990002,3.0,1.0,1,$650_pw,Townhouse,August 2018,3066,2018,8,COLLINGWOOD,650,House
546,546,546,"601/45 VICTORIA PARADE, COLLINGWOOD",-37.808699,144.98413,2.0,1.0,0,$400,House,February 2018,3066,2018,2,COLLINGWOOD,400,House
547,547,547,"807E/9 ROBERT STREET, COLLINGWOOD",-37.8057448,144.9871414,1.0,1.0,1,$430,Rental_residential,July 2018,3066,2018,7,COLLINGWOOD,430,Other
548,548,548,"515/158 SMITH STREET, COLLINGWOOD",-37.8041561,144.9834623,2.0,2.0,1,$540,none,March 2018,3066,2018,3,COLLINGWOOD,540,Other
549,549,549,"507/107 CAMBRIDGE STREET, COLLINGWOOD",-37.8035817,144.9854989,2.0,1.0,1,$530_per_week,none,July 2018,3066,2018,7,COLLINGWOOD,530,Other
550,550,550,"507/107 CAMBRIDGE STREET, COLLINGWOOD",-37.8035817,144.9854989,2.0,1.0,1,$530,none,June 2018,3066,2018,6,COLLINGWOOD,530,Other
551,551,551,"507/107 CAMBRIDGE STREET, COLLINGWOOD",-37.8035817,144.9854989,2.0,1.0,1,$530_per_week,none,March 2018,3066,2018,3,COLLINGWOOD,530,Other
552,552,552,"507/107 CAMBRIDGE STREET, COLLINGWOOD",-37.8035817,144.9854989,2.0,1.0,1,$530_per_week,none,February 2018,3066,2018,2,COLLINGWOOD,530,Other
553,553,553,"507/107 CAMBRIDGE STREET, COLLINGWOOD",-37.8035817,144.9854989,2.0,1.0,1,$550,none,January 2018,3066,2018,1,COLLINGWOOD,550,Other
554,554,554,"15/15-25 OXFORD STREET, COLLINGWOOD",-37.8076309,144.9840188,2.0,1.0,2,$500_pw,none,January 2018,3066,2018,1,COLLINGWOOD,500,Other
555,555,555,"117/3 HODDLE STREET, COLLINGWOOD",-37.8089283,144.9913524,2.0,1.0,2,$495_per_week,none,December 2018,3066,2018,12,COLLINGWOOD,495,Other
556,556,556,"301/45 VICTORIA PARADE, COLLINGWOOD",-37.8087039,144.9841198,1.0,1.0,1,$335_per_week,Rental_residential,October 2018,3066,2018,10,COLLINGWOOD,335,Other
557,557,557,"304/44 BEDFORD STREET, COLLINGWOOD",-37.801579,144.98484,2.0,1.0,1,$540_per_week,Available Now,December 2018,3066,2018,12,COLLINGWOOD,540,Other
558,558,558,"50 OXFORD STREET, COLLINGWOOD",-37.805843,144.984715,2.0,1.0,1,$650_per_week,House,August 2018,3066,2018,8,COLLINGWOOD,650,House
559,559,559,"2 BUDD STREET, COLLINGWOOD",-37.798899,144.986824,3.0,1.0,1,$800_Weekly,Unit,December 2018,3066,2018,12,COLLINGWOOD,800,Apartment
560,560,560,"2 BUDD STREET, COLLINGWOOD",-37.798899,144.986824,3.0,1.0,1,$1000,Unit,August 2018,3066,2018,8,COLLINGWOOD,1000,Apartment
561,561,561,"102/6 MATER STREET, COLLINGWOOD",-37.7953892,144.985423,2.0,2.0,1,$510_Week,Unit,June 2018,3066,2018,6,COLLINGWOOD,510,Apartment
562,562,562,"6/104 GOLD STREET, COLLINGWOOD",-37.7952364,144.990071,1.0,1.0,1,$370_per_week,Unit,May 2018,3066,2018,5,COLLINGWOOD,370,Apartment
563,563,563,"15/99 OXFORD STREET, COLLINGWOOD",-37.80752,144.983944,1.0,1.0,1,$410_per_week,Unit,February 2018,3066,2018,2,COLLINGWOOD,410,Apartment
564,564,564,"3/104 GOLD STREET, COLLINGWOOD",-37.7952364,144.990071,1.0,1.0,1,$290_per_week,Unit,July 2018,3066,2018,7,COLLINGWOOD,290,Apartment
565,565,565,"403/40 STANLEY STREET, COLLINGWOOD",-37.8021818,144.9853665,1.0,1.0,1,$410_per_week,Unit,April 2018,3066,2018,4,COLLINGWOOD,410,Apartment
566,566,566,"303/77A LITLLE OXFORD ST, COLLINGWOOD",-37.8031761,144.9842179,2.0,1.0,1,$530_per_week,Unit,February 2018,3066,2018,2,COLLINGWOOD,530,Apartment
567,567,567,"310/193 WELLINGTON STREET, COLLINGWOOD",-37.8018989,144.9868785,1.0,1.0,1,$410_per_week,Unit,January 2018,3066,2018,1,COLLINGWOOD,410,Apartment
568,568,568,"327/3 HODDLE STREET, COLLINGWOOD",-37.808908,144.991122,2.0,2.0,2,$550,Unit,October 2018,3066,2018,10,COLLINGWOOD,550,Apartment
569,569,569,"327/3 HODDLE STREET, COLLINGWOOD",-37.808908,144.991122,2.0,2.0,2,$550_pw,Unit,September 2018,3066,2018,9,COLLINGWOOD,550,Apartment
570,570,570,"106T/70 STANLEY STREET, COLLINGWOOD",-37.8020642,144.9857329,2.0,1.0,1,$445,Unit,October 2018,3066,2018,10,COLLINGWOOD,445,Apartment
571,571,571,"106T/70 STANLEY STREET, COLLINGWOOD",-37.8020642,144.9857329,2.0,1.0,1,$445_pw,Unit,September 2018,3066,2018,9,COLLINGWOOD,445,Apartment
572,572,572,"106T/70 STANLEY STREET, COLLINGWOOD",-37.8020642,144.9857329,2.0,1.0,1,$445,Unit,August 2018,3066,2018,8,COLLINGWOOD,445,Apartment
573,573,573,"24/34 SMITH STREET, COLLINGWOOD",-37.807413,144.983606,2.0,1.0,1,$540_pw,Rental_residential,March 2018,3066,2018,3,COLLINGWOOD,540,Other
574,574,574,"202/11 HODDLE STREET, COLLINGWOOD",-37.8088988,144.9906795,1.0,1.0,1,$390,Rental_residential,June 2018,3066,2018,6,COLLINGWOOD,390,Other
575,575,575,"4GF/50 STANLEY STREET, COLLINGWOOD",-37.8022219,144.9857824,2.0,1.0,1,$600,Rental_residential,August 2018,3066,2018,8,COLLINGWOOD,600,Other
576,576,576,"407 / 51 NAPOLEON STREET, COLLINGWOOD",-37.8016359,144.9865869,1.0,1.0,0,$390_per_week,none,June 2018,3066,2018,6,COLLINGWOOD,390,Other
577,577,577,"2/284 SMITH STREET, COLLINGWOOD",-37.800779,144.984044,3.0,2.0,0,$680,none,February 2018,3066,2018,2,COLLINGWOOD,680,Other
578,578,578,"182 EASEY STREET, COLLINGWOOD",-37.79824,144.992589,2.0,1.0,0,$470,none,July 2018,3066,2018,7,COLLINGWOOD,470,Other
579,579,579,"504/107 CAMBRIDGE STREET, COLLINGWOOD",-37.8035817,144.9854989,2.0,2.0,1,$580_per_week,none,November 2018,3066,2018,11,COLLINGWOOD,580,Other
580,580,580,"172 LANGRIDGE STREET, COLLINGWOOD",-37.806887,144.990719,3.0,1.0,0,$785_per_week,House,August 2018,3066,2018,8,COLLINGWOOD,785,House
581,581,581,"172 LANGRIDGE STREET, COLLINGWOOD",-37.806887,144.990719,3.0,1.0,0,$850_per_week,House,July 2018,3066,2018,7,COLLINGWOOD,850,House
582,582,582,"112/51 NAPOLEON STREET, COLLINGWOOD",-37.8016359,144.9865869,1.0,1.0,1,$450_pw,none,September 2018,3066,2018,9,COLLINGWOOD,450,Other
583,583,583,"208/28 STANLEY STREET, COLLINGWOOD",-37.801969,144.985071,1.0,1.0,0,$460,Rental_residential,April 2018,3066,2018,4,COLLINGWOOD,460,Other
584,584,584,"6/15-25 OXFORD STREET, COLLINGWOOD",-37.807803,144.984175,2.0,1.0,1,$550_Week,none,January 2018,3066,2018,1,COLLINGWOOD,550,Other
585,585,585,"2/9-11 OTTER STREET, COLLINGWOOD",-37.800996,144.985087,2.0,1.0,1,$400_pw,Rental_residential,January 2018,3066,2018,1,COLLINGWOOD,400,Other
586,586,586,"48 BREAMLEA ROAD, CONNEWARRE",-38.2617933,144.4050317,3.0,2.0,0,$400_per_week,House,May 2018,3228,2018,5,CONNEWARRE,400,House
587,587,587,"9A WESTMERE CRESCENT, COOLAROO",-37.664659,144.93586,1.0,1.0,1,$265_per_week,Unit,December 2018,3048,2018,12,COOLAROO,265,Apartment
588,588,588,"9A WESTMERE CRESCENT, COOLAROO",-37.664659,144.93586,1.0,1.0,1,$255_per_week,Unit,November 2018,3048,2018,11,COOLAROO,255,Apartment
589,589,589,"9A WESTMERE CRESCENT, COOLAROO",-37.664659,144.93586,1.0,1.0,1,$265_per_week,Unit,November 2018,3048,2018,11,COOLAROO,265,Apartment
590,590,590,"3 VENTNOR CRESCENT, COOLAROO",-37.654874,144.933298,3.0,1.0,2,$340_per_week,House,August 2018,3048,2018,8,COOLAROO,340,House
591,591,591,"45 BUSHFIELD CRESCENT, COOLAROO",-37.662135,144.932207,3.0,1.0,1,$335,House,March 2018,3048,2018,3,COOLAROO,335,House
592,592,592,"1/4-8 MLADEN COURT, COOLAROO",-37.657292,144.930596,2.0,1.0,1,$325_per_week,Townhouse,August 2018,3048,2018,8,COOLAROO,325,House
593,593,593,"27 PEARSON CRESCENT, COOLAROO",-37.657836,144.932751,3.0,1.0,2,$370,none,August 2018,3048,2018,8,COOLAROO,370,Other
594,594,594,"112 LONGFORD CRESCENT, COOLAROO",-37.655438,144.929122,3.0,1.0,4,$370,Rental_residential,December 2018,3048,2018,12,COOLAROO,370,Other
595,595,595,"19 LONGFORD CRESCENT, COOLAROO",-37.662902,144.928201,4.0,1.0,2,$380,House,August 2018,3048,2018,8,COOLAROO,380,House
596,596,596,"19 LONGFORD CRESCENT, COOLAROO",-37.662902,144.928201,4.0,1.0,2,$380_Weekly,House,July 2018,3048,2018,7,COOLAROO,380,House
597,597,597,"4 EDI COURT, COOLAROO",-37.663448,144.931865,3.0,1.0,1,$315,Rental_residential,December 2018,3048,2018,12,COOLAROO,315,Other
598,598,598,"7 ALMURTA AVENUE, COOLAROO",-37.659159,144.935219,3.0,1.0,1,$350_per_week,Rental_residential,May 2018,3048,2018,5,COOLAROO,350,Other
599,599,599,"7 ALMURTA AVENUE, COOLAROO",-37.659159,144.935219,3.0,1.0,1,$360,Rental_residential,May 2018,3048,2018,5,COOLAROO,360,Other
600,600,600,"16 GENOA COURT, COOLAROO",-37.662903,144.926704,3.0,1.0,2,$340_Weekly,House,March 2018,3048,2018,3,COOLAROO,340,House
601,601,601,"19 KARNAK CRESCENT, COOLAROO",-37.657032,144.93317,3.0,1.0,3,$330_per_week,Rental_residential,July 2018,3048,2018,7,COOLAROO,330,Other
602,602,602,"815 BREWER ROAD, COOMA",-36.4004893,145.0449248,4.0,1.0,1,$325_pw,House,December 2018,3616,2018,12,COOMA,325,House
603,603,603,"815 BREWER ROAD, COOMA",-36.4004893,145.0449248,4.0,1.0,1,$325_pw,House,January 2018,3616,2018,1,COOMA,325,House
604,604,604,"62 COOMOORA SCHOOL ROAD, COOMOORA",-37.3324402,144.1917676,4.0,1.0,2,$440_per_week,Rental_residential,September 2018,3461,2018,9,COOMOORA,440,Other
605,605,605,"14 WOOLENOOK WAY, COONGULLA",-37.894727,146.7815896,3.0,2.0,4,$270_per_week,House,February 2018,3860,2018,2,COONGULLA,270,House
606,606,606,"8 MCALISTER DRIVE, COONGULLA",-37.8936178,146.783273,3.0,1.0,2,$260_per_week,House,July 2018,3860,2018,7,COONGULLA,260,House
607,607,607,"8 MCALISTER DRIVE, COONGULLA",-37.8936178,146.783273,3.0,1.0,2,$250_per_week,House,January 2018,3860,2018,1,COONGULLA,250,House
608,608,608,"8 MACALISTER DRIVE, COONGULLA",-37.8927245,146.7832151,3.0,1.0,2,$260_per_week,House,July 2018,3860,2018,7,COONGULLA,260,House
609,609,609,"8 MACALISTER DRIVE, COONGULLA",-37.8927245,146.7832151,3.0,1.0,2,$250_per_week,House,March 2018,3860,2018,3,COONGULLA,250,House
610,610,610,"14 GILLUM RD, COONGULLA",-37.89302969,146.78212395,2.0,1.0,0,$150_per_week,House,March 2018,3860,2018,3,COONGULLA,150,House
611,611,611,"14 GILLUM ROAD, COONGULLA",-37.89302969,146.78212395,2.0,1.0,0,$150,House,March 2018,3860,2018,3,COONGULLA,150,House
612,612,612,"311 COORIEMUNGLE ROAD, COORIEMUNGLE",-38.53489269,143.0530666,3.0,2.0,2,$270_per_week,House,September 2018,3268,2018,9,COORIEMUNGLE,270,House
613,613,613,"6 KILBURN ST, CORINELLA",-38.415896,145.434962,3.0,1.0,0,$300_per_week,House,June 2018,3984,2018,6,CORINELLA,300,House
614,614,614,"6 KILBURN STREET, CORINELLA",-38.415896,145.434962,2.0,1.0,1,$300,none,June 2018,3984,2018,6,CORINELLA,300,Other
615,615,615,"41 MOORINGS PLACE, CORINELLA",-38.411505,145.430496,3.0,2.0,6,$425,none,August 2018,3984,2018,8,CORINELLA,425,Other
616,616,616,"23 MOORINGS PLACE, CORINELLA",-38.4124682,145.4306845,4.0,2.0,2,$350_per_week,Rental_residential,November 2018,3984,2018,11,CORINELLA,350,Other
617,617,617,"23 MOORINGS PLACE, CORINELLA",-38.4124682,145.4306845,4.0,2.0,2,$350_per_week,Rental_residential,October 2018,3984,2018,10,CORINELLA,350,Other
618,618,618,"11 MOORINGS PLACE, CORINELLA",-38.4131412,145.4304677,3.0,2.0,2,$310_per_week,House,July 2018,3984,2018,7,CORINELLA,310,House
619,619,619,"11 MOORINGS PLACE, CORINELLA",-38.4131412,145.4304677,3.0,2.0,2,$310_per_week,House,June 2018,3984,2018,6,CORINELLA,310,House
620,620,620,"3/13 ONTARIO AVENUE, CORIO",-38.0811036,144.3595703,2.0,2.0,1,$310_per_week,none,December 2018,3214,2018,12,CORIO,310,Other
621,621,621,"4 VICKERS COURT, CORIO",-38.06667176,144.35398235,3.0,1.0,1,$290_per_week,none,September 2018,3214,2018,9,CORIO,290,Other
622,622,622,"12 GRANAULT PARADE, CORIO",-38.075683,144.365084,3.0,1.0,2,$290_per_week,none,October 2018,3214,2018,10,CORIO,290,Other
623,623,623,"33 CANADIAN PARADE, CORIO",-38.076466,144.361395,3.0,1.0,1,$220_pw,House,March 2018,3214,2018,3,CORIO,220,House
624,624,624,"33 CANADIAN PARADE, CORIO",-38.076466,144.361395,3.0,1.0,1,$220,House,February 2018,3214,2018,2,CORIO,220,House
625,625,625,"35 HARPUR HARPUR ROAD, CORIO",-38.0763971061312,144.370257985739,2.0,1.0,1,$270,House,December 2018,3214,2018,12,CORIO,270,House
626,626,626,"35 HARPUR HARPUR ROAD, CORIO",-38.0763971061312,144.370257985739,2.0,1.0,1,$270_Wk,House,November 2018,3214,2018,11,CORIO,270,House
627,627,627,"120 PRINCESS ROAD, CORIO",-38.071492,144.349006,3.0,3.0,2,$300,House,December 2018,3214,2018,12,CORIO,300,House
628,628,628,"120 PRINCESS ROAD, CORIO",-38.071492,144.349006,3.0,3.0,2,$300_Wk,House,November 2018,3214,2018,11,CORIO,300,House
629,629,629,"120 PRINCESS ROAD, CORIO",-38.071492,144.349006,3.0,3.0,2,$300_Wk,House,July 2018,3214,2018,7,CORIO,300,House
630,630,630,"120 PRINCESS ROAD, CORIO",-38.071492,144.349006,3.0,3.0,2,$300_Wk,House,June 2018,3214,2018,6,CORIO,300,House
631,631,631,"120 PRINCESS ROAD, CORIO",-38.071492,144.349006,3.0,3.0,2,$300_Wk,House,May 2018,3214,2018,5,CORIO,300,House
632,632,632,"59 CLOVERDALE DRIVE, CORIO",-38.067956,144.347957,4.0,2.0,2,$420,House,December 2018,3214,2018,12,CORIO,420,House
633,633,633,"59 CLOVERDALE DRIVE, CORIO",-38.067956,144.347957,4.0,2.0,2,$420_Wk,House,November 2018,3214,2018,11,CORIO,420,House
634,634,634,"59 CLOVERDALE DRIVE, CORIO",-38.067956,144.347957,4.0,2.0,2,$420_Wk,House,July 2018,3214,2018,7,CORIO,420,House
635,635,635,"59 CLOVERDALE DRIVE, CORIO",-38.067956,144.347957,4.0,2.0,2,$420_Wk,House,June 2018,3214,2018,6,CORIO,420,House
636,636,636,"59 CLOVERDALE DRIVE, CORIO",-38.067956,144.347957,4.0,2.0,2,$420_Wk,House,May 2018,3214,2018,5,CORIO,420,House
637,637,637,"6 VICKERS COURT, CORIO",-38.066614,144.354408,3.0,2.0,2,$340,House,January 2018,3214,2018,1,CORIO,340,House
638,638,638,"6 VICKERS CT, CORIO",-38.0666675,144.3543768,3.0,2.0,2,$340_Weekly,House,January 2018,3214,2018,1,CORIO,340,House
639,639,639,"19 TELETA CRESCENT, CORIO",-38.072865,144.362776,4.0,1.0,1,$370_per_week,House,July 2018,3214,2018,7,CORIO,370,House
640,640,640,"10 CANADIAN PARADE, CORIO",-38.076496,144.364674,3.0,1.0,1,$260_per_week,House,July 2018,3214,2018,7,CORIO,260,House
641,641,641,"9 KINGSLEY DRIVE, CORIO",-38.07158647,144.34516111,3.0,1.0,2,$330_per_week,none,December 2018,3214,2018,12,CORIO,330,Other
642,642,642,"112 GOLDSWORTHY ROAD, CORIO",-38.076659,144.344998,3.0,1.0,1,$320_p.w.,House,June 2018,3214,2018,6,CORIO,320,House
643,643,643,"112 GOLDSWORTHY ROAD, CORIO",-38.076659,144.344998,3.0,1.0,1,$320,House,May 2018,3214,2018,5,CORIO,320,House
644,644,644,"124 PLANTATION ROAD, CORIO",-38.067161,144.362963,3.0,2.0,2,$310,none,February 2018,3214,2018,2,CORIO,310,Other
645,645,645,"124 PLANTATION ROAD, CORIO",-38.067161,144.362963,3.0,2.0,2,$310,none,January 2018,3214,2018,1,CORIO,310,Other
646,646,646,"143 PURNELL ROAD, CORIO",-38.0728085,144.3460787,3.0,1.0,5,$320_pw,House,June 2018,3214,2018,6,CORIO,320,House
647,647,647,"3 BUCHAN COURT, CORIO",-38.07746,144.355374,3.0,1.0,1,$300_per_week,House,May 2018,3214,2018,5,CORIO,300,House
648,648,648,"16C WILKINS CLOSE, CORIO",-38.0785193,144.3447955,3.0,2.0,1,$320_per_week,none,April 2018,3214,2018,4,CORIO,320,Other
649,649,649,"151 PLANTATION ROAD, CORIO",-38.06651,144.35675,3.0,2.0,3,$330_pw,House,July 2018,3214,2018,7,CORIO,330,House
650,650,650,"36 BUFFALO AVENUE, CORIO",-38.074243,144.366944,3.0,1.0,1,$325_per_week,none,August 2018,3214,2018,8,CORIO,325,Other
651,651,651,"36 BUFFALO AVENUE, CORIO",-38.074243,144.366944,3.0,1.0,1,$325_per_week,none,July 2018,3214,2018,7,CORIO,325,Other
652,652,652,"1 NORFOLK CRESCENT, CORIO",-38.072829,144.349635,3.0,1.0,2,$280_pw,House,December 2018,3214,2018,12,CORIO,280,House
653,653,653,"1 NORFOLK CRESCENT, CORIO",-38.072829,144.349635,3.0,1.0,2,$280_per_week,House,July 2018,3214,2018,7,CORIO,280,House
654,654,654,"79 GELLIBRAND STREET, CORONET BAY",-38.4312979,145.44152,3.0,1.0,1,$260_per_week,House,May 2018,3984,2018,5,BAY,260,House
655,655,655,"4 OCEANAIRES AVENUE, CORONET BAY",-38.434819,145.444068,3.0,1.0,0,$320_per_week,House,August 2018,3984,2018,8,BAY,320,House
656,656,656,"4 OCEANAIRES AVENUE, CORONET BAY",-38.434819,145.444068,3.0,1.0,0,$290_per_week,House,May 2018,3984,2018,5,BAY,290,House
657,657,657,"61 GELLIBRAND STREET, CORONET BAY",-38.4330955,145.4412521,3.0,3.0,1,$330,House,December 2018,3984,2018,12,BAY,330,House
658,658,658,"61 GELLIBRAND STREET, CORONET BAY",-38.4330955,145.4412521,3.0,3.0,1,$310_per_week,House,October 2018,3984,2018,10,BAY,310,House
659,659,659,"33 BASS HORIZON PROMENADE, CORONET BAY",-38.4358418,145.4453099,4.0,1.0,2,$300,House,July 2018,3984,2018,7,BAY,300,House
660,660,660,"39 GELLIBRAND STREET, CORONET BAY",-38.434824,145.440784,3.0,2.0,3,$300,House,May 2018,3984,2018,5,BAY,300,House
661,661,661,"565 CORANGAMITE LAKE ROAD, COROROOKE",-38.285342,143.521872,4.0,1.0,2,$320,House,July 2018,3254,2018,7,COROROOKE,320,House
662,662,662,"565 CORANGAMITE LAKE ROAD, COROROOKE",-38.285342,143.521872,4.0,1.0,2,$300_per_week,House,March 2018,3254,2018,3,COROROOKE,300,House
663,663,663,"565 CORANGAMITE LAKE ROAD, COROROOKE",-38.285342,143.521872,4.0,1.0,2,$300_per_week,House,February 2018,3254,2018,2,COROROOKE,300,House
664,664,664,"565 CORANGAMITE LAKE RD, COROROOKE",-38.2855027,143.52210079,4.0,1.0,3,$320_per_week,House,July 2018,3254,2018,7,COROROOKE,320,House
665,665,665,"18 HAMILTON CRES, CORRYONG",-36.19477054,147.90121077,3.0,1.0,0,$180_per_week,House,July 2018,3707,2018,7,CORRYONG,180,House
666,666,666,"18 HAMILTON CRESCENT, CORRYONG",-36.1947705,147.9012108,3.0,1.0,0,$180,none,July 2018,3707,2018,7,CORRYONG,180,Other
667,667,667,"116 HANSON STREET, CORRYONG",-36.197664,147.898817,3.0,1.0,1,$300_per_week,House,March 2018,3707,2018,3,CORRYONG,300,House
668,668,668,"116 HANSON STREET, CORRYONG",-36.197664,147.898817,3.0,1.0,1,$300_per_week,House,February 2018,3707,2018,2,CORRYONG,300,House
669,669,669,"24 JEPHCOTT AVENUE, CORRYONG",-36.20032,147.900704,4.0,3.0,6,$300_per_week,House,March 2018,3707,2018,3,CORRYONG,300,House
670,670,670,"4/154 HARRIS STREET, CORRYONG",-36.198582,147.89388,1.0,1.0,1,$95_per_week,none,August 2018,3707,2018,8,CORRYONG,95,Other
671,671,671,"4/154 HARRIS STREET, CORRYONG",-36.198582,147.89388,1.0,1.0,1,$95,none,July 2018,3707,2018,7,CORRYONG,95,Other
672,672,672,"4/154 HARRIS STREET, CORRYONG",-36.198582,147.89388,1.0,1.0,1,$110_per_week,none,March 2018,3707,2018,3,CORRYONG,110,Other
673,673,673,"5/154 HARRIS STREET ST, CORRYONG",-36.1985817,147.8938804,2.0,1.0,1,$110_per_week,none,September 2018,3707,2018,9,CORRYONG,110,Other
674,674,674,"5/154 HARRIS STREET ST, CORRYONG",-36.1985817,147.8938804,2.0,1.0,1,$130_per_week,none,March 2018,3707,2018,3,CORRYONG,130,Other
675,675,675,"5/154 HARRIS STREET ST, CORRYONG",-36.1985817,147.8938804,2.0,1.0,1,$130_per_week,none,January 2018,3707,2018,1,CORRYONG,130,Other
676,676,676,"2570 MIDLAND HIGHWAY, COSGROVE SOUTH",-36.430718,145.674333,3.0,1.0,1,$250,House,June 2018,3631,2018,6,SOUTH,250,House
677,677,677,"2570 MIDLAND HIGHWAY, COSGROVE SOUTH",-36.430718,145.674333,3.0,1.0,1,$250_per_week,House,May 2018,3631,2018,5,SOUTH,250,House
678,678,678,"28 VENTNOR ROAD, COWES",-38.463208,145.203356,3.0,1.0,0,$280,House,May 2018,3922,2018,5,COWES,280,House
679,679,679,"8/16-18 CHURCH ST, COWES",-38.45201,145.245336,2.0,1.0,1,$270,House,October 2018,3922,2018,10,COWES,270,House
680,680,680,"8/16-18 CHURCH ST, COWES",-38.45201,145.245336,2.0,1.0,1,$270,House,September 2018,3922,2018,9,COWES,270,House
681,681,681,"10 WONGA LANE, COWES",-38.4588094,145.2249298,2.0,1.0,1,$275,Unit,June 2018,3922,2018,6,COWES,275,Apartment
682,682,682,"10 OUTLOOK DRIVE, COWES",-38.456911,145.205001,4.0,1.0,2,$390,House,October 2018,3922,2018,10,COWES,390,House
683,683,683,"10 OUTLOOK DRIVE, COWES",-38.456911,145.205001,4.0,1.0,2,$390,House,September 2018,3922,2018,9,COWES,390,House
684,684,684,"31 OUTLOOK DRIVE, COWES",-38.457133,145.202724,4.0,2.0,0,$415_Weekly,House,December 2018,3922,2018,12,COWES,415,House
685,685,685,"39 SETTLEMENT ROAD, COWES",-38.456512,145.254517,3.0,2.0,2,$400,House,December 2018,3922,2018,12,COWES,400,House
686,686,686,"11 POBBLEBONK PLACE, COWES",-38.4567102,145.2240183,3.0,2.0,2,$395,House,May 2018,3922,2018,5,COWES,395,House
687,687,687,"7 PARKRIDGE CLOSE, COWES",-38.459731,145.256282,3.0,2.0,2,$360,House,August 2018,3922,2018,8,COWES,360,House
688,688,688,"1/11 ROYDON ROAD, COWES",-38.4535879,145.2324424,3.0,2.0,1,$375,Townhouse,January 2018,3922,2018,1,COWES,375,House
689,689,689,"92 SCENIC DRIVE, COWES",-38.462394,145.205199,3.0,1.0,1,$280,House,May 2018,3922,2018,5,COWES,280,House
690,690,690,"4/210 CHURCH STREET, COWES",-38.4522322,145.2241362,2.0,1.0,1,$230,House,December 2018,3922,2018,12,COWES,230,House
691,691,691,"4/210 CHURCH STREET, COWES",-38.4522322,145.2241362,2.0,1.0,1,$230,House,November 2018,3922,2018,11,COWES,230,House
692,692,692,"4/210 CHURCH ST, COWES",-38.4522322,145.2241362,2.0,1.0,1,$230_Weekly,House,November 2018,3922,2018,11,COWES,230,House
693,693,693,"19 VENTNOR ROAD, COWES",-38.463337,145.235389,3.0,1.0,2,$350,House,March 2018,3922,2018,3,COWES,350,House
694,694,694,"19 VENTNOR RD, COWES",-38.4633368,145.2353886,3.0,1.0,0,$350_Weekly,House,March 2018,3922,2018,3,COWES,350,House
695,695,695,"22-24 HIGHLAND AVENUE, COWES",-38.454536,145.220876,3.0,2.0,2,$320,House,May 2018,3922,2018,5,COWES,320,House
696,696,696,"4/4 MCHAFFIE DRIVE, COWES",-38.4508233,145.225021,3.0,1.0,1,$340_Weekly,House,December 2018,3922,2018,12,COWES,340,House
697,697,697,"4/4 MCHAFFIE DRIVE, COWES",-38.4508233,145.225021,3.0,1.0,1,$340,House,November 2018,3922,2018,11,COWES,340,House
698,698,698,"4/4 MCHAFFIE DRIVE, COWES",-38.4508233,145.225021,3.0,1.0,1,$340,House,September 2018,3922,2018,9,COWES,340,House
699,699,699,"22-24 HIGHLAND AVE, COWES",-38.454536,145.220876,3.0,2.0,2,$320_Weekly,House,May 2018,3922,2018,5,COWES,320,House
700,700,700,"1/28 GRANDVIEW GROVE, COWES",-38.4592196,145.2374592,3.0,2.0,2,$350,House,April 2018,3922,2018,4,COWES,350,House
701,701,701,"1/28 GRANDVIEW GROVE, COWES",-38.4592196,145.2374592,3.0,2.0,2,$350,House,March 2018,3922,2018,3,COWES,350,House
702,702,702,"12 KOALA STREET, COWES",-38.455075,145.228525,3.0,1.0,2,$300,House,September 2018,3922,2018,9,COWES,300,House
703,703,703,"106 GRAMPIAN BOULEVARD, COWES",-38.4602126,145.2174277,4.0,2.0,2,$460_Wk,House,June 2018,3922,2018,6,COWES,460,House
704,704,704,"4 COASTAL RISE, COWES",-38.4570208,145.2562379,3.0,2.0,1,$380,House,May 2018,3922,2018,5,COWES,380,House
705,705,705,"4 COASTAL RISE, COWES",-38.4570208,145.2562379,3.0,2.0,1,$380,House,April 2018,3922,2018,4,COWES,380,House
706,706,706,"31 OUTLOOK DR, COWES",-38.457133,145.202724,4.0,2.0,0,$415_Weekly,House,December 2018,3922,2018,12,COWES,415,House
707,707,707,"575 SETTLEMENT ROAD, COWES",-38.456391,145.205171,1.0,1.0,0,$200,House,July 2018,3922,2018,7,COWES,200,House
708,708,708,"2 SHOALHAVEN ROAD, COWES",-38.460513,145.2551077,4.0,2.0,2,$450,Rental_residential,June 2018,3922,2018,6,COWES,450,Other
709,709,709,"2/5 LORIKEET LANE, COWES",-38.4596533,145.2246414,2.0,1.0,1,$275,House,July 2018,3922,2018,7,COWES,275,House
710,710,710,"4 COASTAL RSE, COWES",-38.4500866,145.2523518,3.0,2.0,1,$380_Weekly,House,April 2018,3922,2018,4,COWES,380,House
711,711,711,"3 LONGRIDGE STREET, COWES",-38.4579423,145.2077963,3.0,2.0,1,$340_Weekly,House,August 2018,3922,2018,8,COWES,340,House
712,712,712,"3 LONGRIDGE STREET, COWES",-38.4579423,145.2077963,3.0,2.0,1,$360,House,February 2018,3922,2018,2,COWES,360,House
713,713,713,"3 LONGRIDGE ST, COWES",-38.4579423,145.2077963,3.0,2.0,1,$340_Weekly,House,August 2018,3922,2018,8,COWES,340,House
714,714,714,"3 LONGRIDGE ST, COWES",-38.4579423,145.2077963,3.0,2.0,1,$360_Weekly,House,February 2018,3922,2018,2,COWES,360,House
715,715,715,"1/4 GRANDVIEW GROVE, COWES",-38.45692444,145.23738098,3.0,2.0,1,$280,none,June 2018,3922,2018,6,COWES,280,Other
716,716,716,"39 VENTNOR ROAD, COWES",-38.4633336,145.2319682,5.0,2.0,4,$450,none,August 2018,3922,2018,8,COWES,450,Other
717,717,717,"575 SETTLEMENT RD, COWES",-38.456286,145.2051623,1.0,1.0,0,$200_Weekly,House,July 2018,3922,2018,7,COWES,200,House
718,718,718,"8 MELDRUM COURT, COWES",-38.461217,145.231884,4.0,2.0,2,$420,none,September 2018,3922,2018,9,COWES,420,Other
719,719,719,"480 TOONGABBIE/COWWARR RD, COWWARR",-38.0172988,146.6474469,3.0,1.0,3,$280_Weekly,Rental_residential,June 2018,3857,2018,6,COWWARR,280,Other
720,720,720,"480 TOONGABBIE/COWWARR ROAD, COWWARR",-38.019748,146.653656,3.0,1.0,3,$280,House,June 2018,3857,2018,6,COWWARR,280,House
721,721,721,"41-43 MAIN RD, COWWARR",-38.01453,146.695752,4.0,1.0,2,$240_per_week,House,May 2018,3857,2018,5,COWWARR,240,House
722,722,722,"41-43 MAIN ROAD, COWWARR",-38.014385,146.695867,4.0,1.0,2,$240,House,May 2018,3857,2018,5,COWWARR,240,House
723,723,723,"38B DEYOUNG ROAD, CRAIGIE",-31.7905015,115.7683334,3.0,1.0,1,$280_pw,House,November 2018,3465,2018,11,CRAIGIE,280,House
724,724,724,"1 IDAHO PLACE, CRAIGIE",-31.791048,115.758652,4.0,2.0,2,$415_pw,House,November 2018,3465,2018,11,CRAIGIE,415,House
725,725,725,"4A COX PLACE, CRAIGIE",-31.78927,115.76953,3.0,1.0,0,$300_p.w.,Duplex/semi Detach,March 2018,3465,2018,3,CRAIGIE,300,House
726,726,726,"170 CAMBERWARRRA DRIVE, CRAIGIE",-31.7854535,115.7653088,4.0,1.0,0,$360_p.w.,House,March 2018,3465,2018,3,CRAIGIE,360,House
727,727,727,"4 CHADSTONE ROAD, CRAIGIE",-31.791837,115.765744,3.0,1.0,0,$270_p.w.,House,January 2018,3465,2018,1,CRAIGIE,270,House
728,728,728,"16 VANTAGE BOULEVARD, CRAIGIEBURN",-37.5929766,144.8941242,3.0,2.0,2,$420_Weekly,House,July 2018,3064,2018,7,CRAIGIEBURN,420,House
729,729,729,"9 ROSLEIGH DR, CRAIGIEBURN",-37.58177,144.928027,4.0,2.0,2,$410_Weekly,House,October 2018,3064,2018,10,CRAIGIEBURN,410,House
730,730,730,"9 ROSLEIGH DR, CRAIGIEBURN",-37.58177,144.928027,4.0,2.0,2,$410_Weekly,House,January 2018,3064,2018,1,CRAIGIEBURN,410,House
731,731,731,"9 ROSLEIGH DRIVE, CRAIGIEBURN",-37.581745,144.927932,4.0,2.0,2,$410,House,October 2018,3064,2018,10,CRAIGIEBURN,410,House
732,732,732,"9 ROSLEIGH DRIVE, CRAIGIEBURN",-37.581745,144.927932,4.0,2.0,2,$410,House,January 2018,3064,2018,1,CRAIGIEBURN,410,House
733,733,733,"4 CHINNOCK COURT, CRAIGIEBURN",-37.597983,144.924877,3.0,2.0,2,$380_per_week,House,August 2018,3064,2018,8,CRAIGIEBURN,380,House
734,734,734,"4 CHINNOCK COURT, CRAIGIEBURN",-37.597983,144.924877,3.0,2.0,2,$380_per_week,House,July 2018,3064,2018,7,CRAIGIEBURN,380,House
735,735,735,"31/1-11 HYDE PARK AVENUE, CRAIGIEBURN",-37.5780669,144.9299385,2.0,1.0,1,$330_Week,none,May 2018,3064,2018,5,CRAIGIEBURN,330,Other
736,736,736,"10 TARRION RISE, CRAIGIEBURN",-37.573065,144.9016689,3.0,2.0,1,$380_per_week,House,March 2018,3064,2018,3,CRAIGIEBURN,380,House
737,737,737,"32 GRATTAN COVE, CRAIGIEBURN",-37.588699,144.9158902,3.0,2.0,1,$340,Townhouse,July 2018,3064,2018,7,CRAIGIEBURN,340,House
738,738,738,"32 GRATTAN COVE, CRAIGIEBURN",-37.588699,144.9158902,3.0,2.0,1,$340,Townhouse,June 2018,3064,2018,6,CRAIGIEBURN,340,House
