,year,month,address,latitude,longitude,postcode,sa2_2021,sa2_2016,residence_type,nbed,nbath,ncar,min_distance_to_cbd,min_distance_to_park,min_distance_to_prim,min_distance_to_second,min_distance_to_train,min_distance_to_hosp,min_distance_to_poli,min_distance_to_shop,weekly_rent
0,2014,3,"- BROWN STREET, JAMIESON",-37.3032062,146.1394703,3723,204011057,204011057,House,3.0,1.0,0,243.36261,5.207319999999999,0.30609,36.82688,50.959230000000005,36.74123,0.1798799999999999,,180.0
1,2014,7,"- CHANGUE ROAD, MERRIJIG",-37.1113791,146.3544572,3723,204011057,204011057,House,2.0,1.0,1,234.17019,8.887709999999998,10.195709999999998,1.94679,41.76681,27.54881,28.24516,,350.0
2,2014,8,"- CHANRO COURT, BONNIE DOON",-37.0276764,145.8794388,3720,204011057,204011057,House,4.0,2.0,1,187.25883,14.68874,3.1030100000000003,21.02612,3.56917,20.42362,19.74437,,315.0
3,2014,9,"- CHANRO COURT, BONNIE DOON",-37.0276764,145.8794388,3720,204011057,204011057,House,4.0,2.0,1,187.25883,14.68874,3.1030100000000003,21.02612,3.56917,20.42362,19.74437,,315.0
4,2014,5,"- CHRISTENSEN ST, SAWMILL SETTLEMENT",-37.1079503,146.3599912,3723,204011057,204011057,House,3.0,2.0,0,234.61766,8.07639,10.64318,0.67763,42.21428,27.99628,28.69263,,380.0
5,2014,6,"- CHRISTENSEN ST, SAWMILL SETTLEMENT",-37.1079503,146.3599912,3723,204011057,204011057,House,3.0,2.0,0,234.61766,8.07639,10.64318,0.67763,42.21428,27.99628,28.69263,,380.0
6,2014,12,"- DAWN CRESCENT, BONNIE DOON",-37.0384123,145.8752647,3720,204011057,204011057,House,2.0,1.0,0,187.02556,16.70756,2.86975,23.04494,3.3359,22.44244,21.76318,,270.0
7,2014,3,"- LOCHIEL ROAD, BARWITE",-36.981537,146.2068313,3722,204011057,204011057,House,4.0,3.0,0,223.6503,30.681240000000003,18.09295,18.47189,31.24692,18.40452,17.725270000000002,,300.0
8,2014,10,"- LOCKHART ROAD, BONNIE DOON",-37.0265488,145.8603715,3720,204011057,204011057,House,3.0,2.0,2,184.95056,16.19992,0.79475,22.5373,1.2609,21.9348,21.25554,,375.0
9,2014,4,"- MAIN STREET, MAINDAMPLE",-37.0271382,145.9353463,3722,204011057,204011057,House,1.0,1.0,1,192.30931,9.23523,8.15349,15.57261,0.49149,14.97011,14.29085,,180.0
10,2014,12,"- MAIN STREET, MAINDAMPLE",-37.0271382,145.9353463,3722,204011057,204011057,House,1.0,1.0,1,192.30931,9.23523,8.15349,15.57261,0.49149,14.97011,14.29085,,270.0
11,2014,10,"- MCKEES LANE, MAINDAMPLE",-37.0313019,146.1365456,3722,204011057,204011057,House,2.0,1.0,3,213.18791,20.21884,7.63055,8.0095,20.78452,7.94213,7.262869999999999,,325.0
12,2014,4,"- MIDLAND HIGHWAY, BARJARG",-36.9228818,146.0016116,3723,204011057,204011057,House,2.0,1.0,0,206.52392,19.92362,19.55182,3.20527,14.12054,19.50139,18.82213,,160.0
13,2014,9,"- OLD TOLMIE ROAD, TOLMIE",-36.9799348,146.1953645,3723,204011057,204011057,House,4.0,1.0,0,221.49448,28.52542,15.93713,16.31607,29.0911,16.2487,15.569450000000002,,250.0
14,2014,4,"- PHILIP STREET, BONNIE DOON",-37.0255754,145.8542835,3720,204011057,204011057,House,2.0,1.0,2,184.57533,16.79855,0.1861999999999999,23.13593,1.07697,22.53343,21.85417,,200.0
15,2014,10,"- ROSELLA ST, SAWMILL SETTLEMENT",-37.1106217,146.3652965,3723,204011057,204011057,House,3.0,1.0,0,235.62686,7.8901,11.65238,0.49134,43.22348,29.00548,29.70183,,230.0
16,2014,7,"- SUMMIT VIEW COURT, MERRIJIG",-37.1100719,146.3506437,3723,204011057,204011057,House,2.0,2.0,2,233.9848,9.09502,10.01031,2.15409,41.581410000000005,27.36341,28.05976,,450.0
17,2014,5,"- SUMMIT VIEW COURT, SAWMILL SETTLEMENT",-37.1100719,146.3506437,3723,204011057,204011057,House,2.0,2.0,2,233.9848,9.09502,10.01031,2.15409,41.581410000000005,27.36341,28.05976,,450.0
18,2014,5,"- VILLAGE WAY, MACS COVE",-37.2058538,146.1479776,3723,204011057,204011057,House,2.0,1.0,1,225.95392,21.79929,17.19069,19.41818,33.55054,19.33254,17.42296,,180.0
19,2014,7,". 'WILLOW COTTAGE' TARCOMBE ROAD, AVENEL",-36.9496976,145.3090184,3664,204011058,204011058,House,3.0,1.0,1,127.42434,19.690240000000003,10.40304,,11.91423,,30.18259,,220.0
20,2014,2,"0 LANCASTER DRIVE, MANGALORE",-36.9416056,145.1618939,3663,204011058,204011058,House,3.0,1.0,1,114.83575,1.1967,9.27035,,2.69865,,19.42107,,250.0
21,2014,6,"00 REID DRIVE, KILMANY",-38.1054162,146.9118343,3851,205051102,205051102,House,3.0,1.0,0,199.33825,0.26799,5.55206,,0.04142,,12.68739,,320.0
22,2014,11,"005/903 DANDENONG ROAD, MALVERN EAST",-37.876178,145.046128,3145,208041195,208041195,Apartment,1.0,1.0,0,13.86135,0.9325,0.9188,2.494,2.208,,,3.96501,265.0
23,2014,11,"01/17 MACQUARIE STREET, PRAHRAN",-37.85054,144.992182,3181,206061136,206061136,Apartment,1.0,1.0,0,6.76544,,0.87658,0.25182,0.65365,,1.34207,,240.0
24,2014,11,"07/17 MACQUARIE STREET, PRAHRAN",-37.85054,144.992182,3181,206061136,206061136,Apartment,1.0,1.0,0,6.76544,,0.87658,0.25182,0.65365,,1.34207,,250.0
25,2014,3,"1 / 130 FERNTREE GULLY ROAD, OAKLEIGH EAST",-37.898475,145.117219,3166,212051326,212051326,House,3.0,1.0,2,22.17563,4.41734,1.07723,0.97035,3.49935,2.7983,3.26352,,450.0
26,2014,4,"1 / 160 COMMERCIAL ROAD, KOROIT",-38.2915596,142.3632037,3282,217041478,217041478,House,2.0,2.0,1,273.66991,0.94785,0.48899,25.75066,7.694949999999999,1.15885,0.42051,,240.0
27,2014,6,"1 / 19 LANGTREE AVENUE, WANGARATTA",-36.352885,146.301282,3677,204021066,204021066,Apartment,2.0,1.0,1,240.59394,1.39637,0.6166,1.76606,2.6510700000000003,1.6600899999999998,1.95956,,180.0
28,2014,7,"1 / 19 LANGTREE AVENUE, WANGARATTA",-36.352885,146.301282,3677,204021066,204021066,Apartment,2.0,1.0,1,240.59394,1.39637,0.6166,1.76606,2.6510700000000003,1.6600899999999998,1.95956,,180.0
29,2014,8,"1 / 19 LANGTREE AVENUE, WANGARATTA",-36.352885,146.301282,3677,204021066,204021066,Apartment,2.0,1.0,1,240.59394,1.39637,0.6166,1.76606,2.6510700000000003,1.6600899999999998,1.95956,,180.0
30,2014,5,"1 / 191 ARTHUR STREET, FAIRFIELD",-37.773386,145.020451,3078,206021110,206021110,Apartment,2.0,1.0,1,9.02868,1.11137,0.57113,,1.0250899999999998,,,,340.0
31,2014,9,"1 / 193 GRANGE RD, GLEN HUNTLY",-37.895261,145.045196,3163,208021182,208021182,House,3.0,2.0,1,16.069290000000002,1.50593,2.3454,,0.86302,,0.86964,,470.0
32,2014,11,"1 / 209 JASPER ROAD, BENTLEIGH",-37.915577,145.04199,3204,208021174,208021174,House,3.0,2.0,2,17.878790000000002,,0.8044,1.14372,0.83304,,0.98926,,580.0
33,2014,2,"1 / 22A FERNHILL ROAD NORTH, SANDRINGHAM",-37.951567,145.007408,3191,208011173,208011173,Apartment,2.0,1.0,1,18.12344,1.49836,0.14402,1.27377,0.67059,1.61028,0.76485,,380.0
34,2014,3,"1 / 23 EMBANKMENT GROVE, CHELSEA",-38.048004,145.117609,3196,208031186,208031186,Apartment,2.0,1.0,1,47.47045,2.18995,1.27242,2.97672,0.83874,,0.5916699999999999,,270.0
35,2014,9,"1 / 253 DANDENONG ROAD, PRAHRAN",-37.8588593,145.0011499,3181,206061136,206061136,Apartment,2.0,1.0,1,8.62144,,1.42076,1.10837,1.11497,,1.51925,,395.0
36,2014,10,"1 / 253 DANDENONG ROAD, PRAHRAN",-37.8588593,145.0011499,3181,206061136,206061136,Apartment,2.0,1.0,1,8.62144,,1.42076,1.10837,1.11497,,1.51925,,395.0
37,2014,4,"1 / 28 QUEENS PARADE, GLEN IRIS",-37.85246,145.092056,3146,207011150,207011150,Apartment,3.0,1.0,1,14.50249,0.82114,3.03496,,1.64125,,,4.71847,350.0
38,2014,1,"1 / 28 THE AVENUE, BALACLAVA",-37.871422,144.994549,3183,206051134,206051134,Apartment,2.0,1.0,1,9.0018,2.01471,2.16322,0.95837,0.64118,,0.9156,,340.0
39,2014,12,"1 / 34 BISHOP STREET, KINGSVILLE",-37.81072,144.874925,3012,213031350,213031350,Apartment,2.0,1.0,1,9.32832,2.08958,,,2.36014,,,,265.0
40,2014,8,"1 / 35 LINACRE ROAD, HAMPTON",-37.942114,145.005694,3188,208011172,208011172,Apartment,2.0,1.0,1,16.98922,0.6789,1.36302,1.76997,0.97182,1.45254,,,450.0
41,2014,3,"1 / 36 ROSSHIRE ROAD, NEWPORT",-37.847614,144.864065,3015,213021344,213021344,Apartment,2.0,1.0,1,13.9541,0.95429,0.5616599999999999,1.6108399999999998,2.59158,,2.88969,,330.0
42,2014,9,"1 / 42 MIDDLE ROAD, MARIBYRNONG",-37.767308,144.890537,3032,213031349,213031349,Apartment,2.0,1.0,1,9.17569,0.42455,0.22061,2.49627,,,,2.06172,300.0
43,2014,2,"1 / 45 OAKLEIGH ROAD, CARNEGIE",-37.898623,145.04998,3163,208021176,208021176,Apartment,1.0,1.0,1,16.733580000000003,1.2138,0.92719,,2.11659,,,,235.0
44,2014,4,"1 / 47 ULUPNA ROAD, ORMOND",-37.89988,145.043146,3204,208021182,208021182,Apartment,1.0,1.0,1,16.10109,1.14697,1.85288,,0.7017,,1.45499,,220.0
45,2014,2,"1 / 49 WILSON STREET, CHELTENHAM",-37.961111,145.059196,3192,208031188,208031188,Apartment,2.0,1.0,1,26.99314,1.4691500000000002,0.70385,2.14445,,,1.00424,0.95757,360.0
46,2014,3,"1 / 49 WILSON STREET, CHELTENHAM",-37.961111,145.059196,3192,208031188,208031188,Apartment,2.0,1.0,1,26.99314,1.4691500000000002,0.70385,2.14445,,,1.00424,0.95757,360.0
47,2014,1,"1 / 52 TRUGANINI ROAD, CARNEGIE",-37.890082,145.05392,3163,208021176,208021176,House,3.0,2.0,2,15.94161,0.8250599999999999,0.17121,,1.00394,,,,475.0
48,2014,8,"1 / 59 HOBART ROAD, MURRUMBEENA",-37.889344,145.069521,3163,208021181,208021181,Apartment,1.0,1.0,1,15.78438,1.83678,0.3605899999999999,2.20742,0.32649,,0.53687,,250.0
49,2014,3,"1 / 59 RIVERSDALE ROAD, HAWTHORN",-37.828247,145.031372,3122,207011520,207011151,Apartment,2.0,1.0,1,7.47296,1.24739,0.44768,0.7252000000000001,1.38401,,0.98518,,390.0
50,2014,4,"1 / 59 RIVERSDALE ROAD, HAWTHORN",-37.828247,145.031372,3122,207011520,207011151,Apartment,2.0,1.0,1,7.47296,1.24739,0.44768,0.7252000000000001,1.38401,,0.98518,,390.0
51,2014,5,"1 / 6 JOHN STREET, OAK PARK",-37.722339,144.914185,3046,210031537,210031239,Apartment,2.0,1.0,1,12.24551,0.71862,0.97015,2.0956900000000003,1.29265,,,,330.0
52,2014,8,"1 / 61 MCINTOSH STREET, AIRPORT WEST",-37.72135,144.885373,3042,210011226,210011226,House,3.0,2.0,1,15.0284,1.22909,0.30357,1.62102,,,,1.79394,500.0
53,2014,12,"1 / 87 BARRIES RD, BUSHFIELD",-38.32723,142.516579,3281,217041479,217041479,Apartment,2.0,1.0,0,260.46094,5.7136700000000005,3.36439,5.82849,11.63235,7.889489999999999,,,130.0
54,2014,9,"1 / 87 BRANDY CREEK ROAD, WARRAGUL",-38.145106,145.937604,3820,205011079,205011079,Apartment,2.0,1.0,1,105.30555,2.31678,0.59424,3.66452,2.68445,3.77017,2.30024,,190.0
55,2014,4,"1 ALMA STREET, NYAH WEST",-35.186278,143.353001,3595,215031405,215031405,Apartment,2.0,1.0,1,369.87819,18.448400000000003,1.02063,,1.1841700000000002,56.16805,1.03871,,145.0
56,2014,4,"1 AMBROSIA DRIVE, CONNEWARRE",-38.3040878,144.3139277,3228,203031053,203031053,House,4.0,2.0,2,99.93431,2.06937,3.0625,1.72003,,,3.74315,,380.0
57,2014,4,"1 ANCONA CLOSE, KEILOR LODGE",-37.698411,144.792815,3038,213011340,213011340,House,3.0,2.0,8,23.41886,1.32742,3.04116,1.63946,2.98299,,,,380.0
58,2014,10,"1 ARCOTS COURT, WATERWAYS",-38.015943,145.1293065,3195,208031183,208031183,House,3.0,2.0,2,42.44836,2.47841,2.41739,,,,,,440.0
59,2014,11,"1 ARCOTS COURT, WATERWAYS",-38.015943,145.1293065,3195,208031183,208031183,House,3.0,2.0,2,42.44836,2.47841,2.41739,,,,,,460.0
60,2014,2,"1 ARMADALE DRIVE, NARRE WARREN",-38.035506,145.308599,3805,212021456,212021456,House,3.0,1.0,2,43.96049,0.25261,1.11437,4.682060000000001,1.64403,,,2.69024,340.0
61,2014,11,"1 ASH COURT, RED CLIFFS",-34.307324,142.193099,3496,215021399,215021399,House,3.0,1.0,1,527.6461899999999,2.36686,1.31633,1.61998,0.8301499999999999,0.7089099999999999,1.25674,,175.0
62,2014,12,"1 ASH COURT, RED CLIFFS",-34.307324,142.193099,3496,215021399,215021399,House,3.0,1.0,1,527.6461899999999,2.36686,1.31633,1.61998,0.8301499999999999,0.7089099999999999,1.25674,,175.0
63,2014,12,"1 AVON COURT, BUNDOORA",-37.70581,145.055805,3083,209011196,209011196,House,3.0,1.0,1,16.28041,0.99519,0.93857,0.88303,,,,1.88991,360.0
64,2014,12,"1 BAILDOR COURT, CRANBOURNE",-38.121676,145.257406,3977,212031300,212031300,House,4.0,2.0,2,52.33548,2.02944,2.85364,4.27619,4.63341,,3.57636,3.67393,320.0
65,2014,7,"1 BANOOL COURT, FRANKSTON SOUTH",-38.162686,145.132275,3199,214011373,214011373,House,3.0,1.0,2,55.74444,1.15015,1.72347,0.44511,,,,,330.0
66,2014,11,"1 BARTON PLACE, EASTWOOD",-37.814218,147.629283,3875,205021081,205021081,House,3.0,2.0,2,282.88763,3.63292,0.27001,3.40847,3.75368,4.121689999999999,4.09051,,330.0
67,2014,5,"1 BEAUMONT DRIVE, BEECHWORTH",-36.350616,146.691136,3747,204031068,204031068,House,3.0,2.0,1,275.59119,1.22349,0.5909099999999999,0.85768,1.66802,0.13029,0.98537,,280.0
68,2014,9,"1 BEDFORD COURT, HOPPERS CROSSING",-37.883279,144.697716,3029,213051362,213051362,House,3.0,1.0,1,28.72801,1.34704,1.00803,2.0026,,,,,280.0
69,2014,10,"1 BEDFORD COURT, HOPPERS CROSSING",-37.883279,144.697716,3029,213051362,213051362,House,3.0,1.0,1,28.72801,1.34704,1.00803,2.0026,,,,,280.0
70,2014,2,"1 BEECH STREET, SURREY HILLS",-37.835865,145.107994,3127,207031167,207031167,House,2.0,1.0,1,14.19097,,1.06194,,2.6055,,,,450.0
71,2014,8,"1 BELLFIELD DRIVE, LYSTERFIELD",-37.915596,145.275431,3156,211011255,211011255,House,3.0,1.0,2,39.22657,0.77974,0.6755800000000001,,,,,,380.0
72,2014,9,"1 BEREA COURT, RINGWOOD",-37.800525,145.235433,3134,211031266,211031266,House,5.0,2.0,2,28.74455,0.55851,1.04809,0.66811,2.38633,,2.2032,1.80011,500.0
73,2014,5,"1 BETHELA STREET, CAMBERWELL",-37.846692,145.08925,3124,207011149,207011149,Apartment,2.0,1.0,2,14.13584,1.4261,0.53923,3.75858,1.84877,,3.60485,,470.0
74,2014,3,"1 BLUE GUM DRIVE, PAKENHAM SOUTH",-38.056136,145.493286,3810,212011549,212011291,House,3.0,1.0,1,63.01391,,1.15408,,,,,,290.0
75,2014,12,"1 BLUFF ROAD, MERRICKS BEACH",-38.399725,145.104893,3926,214021379,214021379,House,3.0,2.0,2,88.02407000000001,0.4950299999999999,4.72151,14.27469,10.68642,,14.16807,,480.0
76,2014,2,"1 BOISDALE STREET, SURREY HILLS",-37.83467,145.099151,3127,207031167,207031167,House,3.0,2.0,2,13.33751,,1.17927,,2.30979,,,,445.0
77,2014,4,"1 BOUVERIE STREET, CARLTON",-37.806097,144.96122,3053,206041117,206041117,Apartment,2.0,1.0,1,1.46955,0.54598,1.1844400000000002,0.85576,,,1.6741199999999998,,460.0
78,2014,4,"1 BOYD COURT, SUNBURY",-37.574229,144.712619,3429,210041541,210041241,House,3.0,1.0,1,40.40413,3.09644,0.91065,2.15858,,,,,270.0
79,2014,10,"1 BRACKNELL COURT, LARA",-38.015172,144.406619,3212,203021043,203021043,House,2.0,1.0,1,60.263,1.57243,0.49809,1.7832,3.91393,,2.87759,,260.0
80,2014,2,"1 BURNBANK STREET, LAKE WENDOUREE",-37.54913,143.846958,3350,201011002,201011002,House,3.0,1.0,1,116.93905,1.7592,1.52302,2.19016,3.31418,1.83947,3.07832,,230.0
81,2014,12,"1 BURSARIA STREET, JACKASS FLAT",-36.7101716,144.282297,3556,202011019,202011019,House,4.0,2.0,2,158.81103,1.8313,3.48393,3.01512,4.46125,,3.72981,,325.0
82,2014,2,"1 BURWOOD COURT, NARRE WARREN",-38.03496,145.306332,3805,212021456,212021456,House,3.0,2.0,2,43.70575,0.34479,1.03976,4.42731,1.38928,,,2.43549,340.0
83,2014,8,"1 BURWOOD COURT, NARRE WARREN",-38.03496,145.306332,3805,212021456,212021456,House,3.0,2.0,2,43.70575,0.34479,1.03976,4.42731,1.38928,,,2.43549,340.0
84,2014,2,"1 CAMERON STREET, CARISBROOK",-37.045327,143.82087,3464,201031017,201031017,House,3.0,1.0,2,168.27839,3.59788,1.19116,,1.62771,24.78462,24.93177,,250.0
85,2014,9,"1 CAPES COURT, MILL PARK",-37.660866,145.039093,3082,209041220,209041220,House,3.0,1.0,1,20.65789,,2.21094,3.52802,,,,,300.0
86,2014,2,"1 CATTON STREET, SEASPRAY",-38.371603,147.192913,3851,205051100,205051100,House,3.0,1.0,2,240.83881,41.963,3.12838,,,,,,200.0
87,2014,1,"1 CHANNEL ROAD, MOUNT EVELYN",-37.783902,145.373141,3796,211051283,211051283,House,3.0,2.0,2,43.98129,0.6244400000000001,0.93661,2.27796,,,0.90759,,380.0
88,2014,7,"1 CHARLES DRIVE, PEARCEDALE",-38.206711,145.235638,3912,212031308,212031308,House,3.0,1.0,2,63.45152,1.3683800000000002,0.94744,,19.53329,,,,380.0
89,2014,11,"1 CHARLES DRIVE, PEARCEDALE",-38.206711,145.235638,3912,212031308,212031308,House,3.0,1.0,2,63.45152,1.3683800000000002,0.94744,,19.53329,,,,380.0
90,2014,4,"1 CHIFLEY CIRCUIT, BURNSIDE HEIGHTS",-37.726732,144.761692,3023,213041462,213041462,House,4.0,3.0,2,33.59978,,1.69242,,,,,,400.0
91,2014,10,"1 CLIFTON STREET, CLIFTON HILL",-37.787337,145.00483,3068,206071145,206071145,Apartment,2.0,1.0,0,6.13638,0.24595,1.81315,3.77209,1.16823,2.23287,,,590.0
92,2014,2,"1 CLUB AVENUE, KINGSBURY",-37.715834,145.033348,3083,209021205,209021205,House,3.0,2.0,1,14.67144,1.27549,0.36857,0.84726,2.30292,2.11572,,3.42773,350.0
93,2014,5,"1 CLYDEN COURT, BURWOOD EAST",-37.85263,145.147255,3151,207031166,207031166,House,4.0,2.0,1,19.20312,1.3598,1.0933499999999998,3.0009200000000003,1.29367,,,,550.0
94,2014,1,"1 COLONIAL CLOSE, WHEELERS HILL",-37.904559,145.190823,3150,212051327,212051327,House,3.0,2.0,2,26.61916,1.10157,0.34642,2.23622,,,,3.22754,420.0
95,2014,9,"1 COLONIAL CLOSE, WHEELERS HILL",-37.904559,145.190823,3150,212051327,212051327,House,3.0,2.0,2,26.61916,1.10157,0.34642,2.23622,,,,3.22754,420.0
96,2014,9,"1 CURRAJONG STREET, OAKLEIGH EAST",-37.905808,145.118121,3166,212051326,212051326,House,3.0,2.0,3,22.47574,3.74233,2.48494,0.50102,3.17748,4.01839,3.97031,,420.0
97,2014,9,"1 DARE STREET, COBURG",-37.749962,144.96728,3058,206011497,206011108,House,3.0,3.0,2,7.855600000000001,0.74219,0.62988,0.37787,,,,,330.0
98,2014,6,"1 DENTON STREET, BRIGHTON EAST",-37.929992,145.026658,3187,208011170,208011170,House,4.0,2.0,2,18.00028,1.26958,1.99368,1.6993900000000002,,,,,680.0
99,2014,7,"1 FAKENHAM ROAD, ASHBURTON",-37.861666,145.082153,3147,207011146,207011146,House,3.0,2.0,2,14.39816,0.6577200000000001,0.13613,,0.08183,,0.45807,,620.0
100,2014,8,"1 FAKENHAM ROAD, ASHBURTON",-37.861666,145.082153,3147,207011146,207011146,House,3.0,2.0,2,14.39816,0.6577200000000001,0.13613,,0.08183,,0.45807,,620.0
101,2014,7,"1 FARADALE ROAD, TARADALE",-37.137915,144.345798,3447,202021028,202021028,House,3.0,1.0,0,103.18763,18.16723,0.6186799999999999,26.82324,1.47364,41.81231,32.730560000000004,,290.0
102,2014,2,"1 FARMILLO COURT, LYSTERFIELD",-37.915723,145.279342,3156,211011255,211011255,House,4.0,1.0,2,39.59611,1.14928,0.88219,,,,,,390.0
103,2014,4,"1 FERNY GROVE, KENNETT RIVER",-38.66146,143.858151,3233,217031476,217031476,House,2.0,1.0,1,164.77903,7.16982,47.19547,28.04109,51.6587,24.15029,24.40663,,270.0
104,2014,5,"1 FINNS ROAD, RAWSON",-37.9366315,146.3874676,3825,205011077,205011077,House,2.0,1.0,1,174.99095,6.44409,6.479220000000001,78.61126,,,6.32604,,210.0
105,2014,6,"1 FINNS ROAD, RAWSON",-37.9366315,146.3874676,3825,205011077,205011077,House,2.0,1.0,1,174.99095,6.44409,6.479220000000001,78.61126,,,6.32604,,210.0
106,2014,11,"1 FISHERMANS DRIVE, BLIND BIGHT",-38.211452,145.340042,3980,212031308,212031308,House,3.0,2.0,2,70.2586,3.75707,5.64104,,14.7542,,,,280.0
107,2014,4,"1 FLORIDA COURT, BURNSIDE HEIGHTS",-37.735711,144.750294,3023,213041462,213041462,House,3.0,2.0,3,31.12178,,0.4153199999999999,,,,,,360.0
108,2014,1,"1 FREEMAN STREET, YARRAVILLE",-37.815742,144.874553,3013,213031352,213031352,House,3.0,1.0,2,11.24502,0.0016899999999999,0.68678,1.03962,2.7236700000000003,,2.53249,,425.0
109,2014,2,"1 FREEMAN STREET, YARRAVILLE",-37.815742,144.874553,3013,213031352,213031352,House,3.0,1.0,2,11.24502,0.0016899999999999,0.68678,1.03962,2.7236700000000003,,2.53249,,410.0
110,2014,9,"1 GAYLE COURT, CLAYTON SOUTH",-37.957438,145.133572,3169,212041310,212041310,House,3.0,1.0,2,28.87644,2.1666,2.5543400000000003,2.70697,3.12853,,,,320.0
111,2014,11,"1 GAYLE COURT, CLAYTON SOUTH",-37.957438,145.133572,3169,212041310,212041310,House,3.0,1.0,2,28.87644,2.1666,2.5543400000000003,2.70697,3.12853,,,,320.0
112,2014,3,"1 GENINE AVENUE, HEATHERTON",-37.953095,145.084265,3202,208031191,208031191,House,3.0,2.0,2,24.85925,0.28696,1.93935,2.63752,6.04671,0.57548,5.54773,,380.0
113,2014,4,"1 GENINE AVENUE, HEATHERTON",-37.953095,145.084265,3202,208031191,208031191,House,3.0,2.0,2,24.85925,0.28696,1.93935,2.63752,6.04671,0.57548,5.54773,,380.0
114,2014,1,"1 GEORGE STREET, COHUNA",-35.804071,144.212889,3568,215031401,215031401,House,2.0,1.0,0,263.08144,0.74399,0.63661,1.92375,0.97649,1.14442,1.38064,,150.0
115,2014,4,"1 GLENMORE CRESCENT, BLACK ROCK",-37.97183,145.013619,3193,208011173,208011173,House,3.0,3.0,1,20.24744,1.03444,0.8936900000000001,1.97819,2.88462,2.01198,0.56101,,820.0
116,2014,12,"1 GOLCONDA CLOSE, HOPPERS CROSSING",-37.854082,144.711149,3029,213051361,213051361,House,3.0,2.0,2,27.81258,1.08339,2.85179,4.67821,3.85063,,,,360.0
117,2014,5,"1 GOOSEBERRY MEWS, BERWICK",-38.030918,145.346115,3806,212021293,212021293,House,4.0,2.0,2,45.67247,0.81575,0.82357,1.64478,1.61983,,0.82641,0.56488,420.0
118,2014,6,"1 GOOSEBERRY MEWS, BERWICK",-38.030918,145.346115,3806,212021293,212021293,House,4.0,2.0,2,45.67247,0.81575,0.82357,1.64478,1.61983,,0.82641,0.56488,390.0
119,2014,6,"1 GRACE STREET, RYE",-38.372496,144.826976,3941,214021383,214021383,House,3.0,2.0,3,97.18035,4.7592,0.54371,,,,1.13634,,330.0
120,2014,7,"1 GRACE STREET, RYE",-38.372496,144.826976,3941,214021383,214021383,House,3.0,2.0,3,97.18035,4.7592,0.54371,,,,1.13634,,330.0
121,2014,11,"1 GRACE STREET, RYE",-38.372496,144.826976,3941,214021383,214021383,House,3.0,2.0,3,97.18035,4.7592,0.54371,,,,1.13634,,330.0
122,2014,5,"1 GRIFFIN CRESCENT, PORT MELBOURNE",-37.834268,144.933978,3207,206051130,206051130,House,3.0,1.0,3,5.26723,1.22053,0.11354,,0.47464,,0.94669,,600.0
123,2014,5,"1 GUINEY STREET, TONGALA",-36.247551,144.959194,3621,216011407,216011407,House,3.0,1.0,2,211.78813,8.588149999999999,0.6102799999999999,14.84893,1.26126,15.28173,1.21588,,185.0
124,2014,7,"1 GUY PLACE, BACCHUS MARSH",-37.693268,144.415425,3340,213041353,213041353,House,3.0,2.0,1,62.376,2.76576,4.10147,2.4015500000000003,2.75693,3.515,3.61471,,280.0
125,2014,7,"1 HAMMENCE STREET, GLEN WAVERLEY",-37.871997,145.169335,3150,212051321,212051321,House,2.0,1.0,1,26.04323,2.19621,0.5142,2.44047,,,3.08995,,360.0
126,2014,8,"1 HARRIET STREET, SEDDON",-37.809453,144.889103,3011,213031350,213031350,House,3.0,1.0,6,8.05959,0.40925,,,1.46895,,,,480.0
127,2014,11,"1 HEATH COURT, SOMERS",-38.388475,145.173982,3927,214021379,214021379,House,4.0,2.0,2,86.54194,0.6137699999999999,1.61715,11.14347,7.07651,,10.59788,,475.0
128,2014,3,"1 HELENE STREET, ARDEER",-37.779225,144.807111,3022,213011328,213011328,House,3.0,1.0,1,24.11069,0.30807,0.65587,,3.71474,2.6251,,,295.0
129,2014,3,"1 HICKS CRESCENT, ECHUCA",-36.143058,144.742761,3564,216011406,216011406,House,3.0,2.0,2,209.93192,1.78021,0.2148199999999999,1.77497,2.58058,1.1098,3.18629,,230.0
130,2014,5,"1 HILLCREST ROAD, SHOREHAM",-38.407692,145.029675,3916,214021378,214021378,House,4.0,2.0,3,92.98206,5.41821,7.61497,,,,,,700.0
131,2014,6,"1 HILLCREST ROAD, SHOREHAM",-38.407692,145.029675,3916,214021378,214021378,House,4.0,2.0,3,92.98206,5.41821,7.61497,,,,,,700.0
132,2014,7,"1 HILLCREST ROAD, SHOREHAM",-38.407692,145.029675,3916,214021378,214021378,House,4.0,2.0,3,92.98206,5.41821,7.61497,,,,,,700.0
133,2014,11,"1 HOMEBUSH COURT, MILDURA",-34.193428,142.135766,3500,215021470,215021470,Apartment,2.0,1.0,1,542.71719,,0.50257,1.71619,,,,,230.0
134,2014,9,"1 HOYLAKE AVENUE, JAN JUC",-38.339625,144.309229,3228,203031053,203031053,House,2.0,2.0,2,104.73945,1.35801,2.65659,3.13873,,,2.9033,,360.0
135,2014,10,"1 HOYLAKE AVENUE, JAN JUC",-38.339625,144.309229,3228,203031053,203031053,House,2.0,2.0,2,104.73945,1.35801,2.65659,3.13873,,,2.9033,,360.0
136,2014,8,"1 JAMISON STREET, LAVERTON",-37.863983,144.775482,3028,213051363,213051363,House,3.0,1.0,2,21.82624,2.43584,2.67158,,1.63704,,2.3442800000000004,,340.0
137,2014,12,"1 JAMISON STREET, LAVERTON",-37.863983,144.775482,3028,213051363,213051363,House,3.0,1.0,2,21.82624,2.43584,2.67158,,1.63704,,2.3442800000000004,,340.0
138,2014,6,"1 JEAN COURT, MITCHELL PARK",-37.522874,143.809766,3355,201011008,201011008,House,3.0,1.0,2,121.17458,0.9001,1.21156,1.56219,,,,2.38252,245.0
139,2014,1,"1 JOHNSON COURT, ROXBURGH PARK",-37.63693,144.930046,3064,210051544,210051249,House,3.0,2.0,1,21.57227,,0.76144,1.65295,1.03451,,,,325.0
140,2014,1,"1 KATHLEEN STREET, MORWELL",-38.220063,146.419983,3840,205041096,205041096,House,3.0,1.0,1,154.33159,1.32767,0.71963,0.4647699999999999,3.5427,4.09979,4.0025,,195.0
141,2014,2,"1 KEILLER STREET, HAMPTON EAST",-37.935142,145.033415,3188,208011172,208011172,House,4.0,2.0,3,18.8336,0.50304,1.10805,2.63939,4.33245,4.60504,,,450.0
142,2014,8,"1 KEILLER STREET, HAMPTON EAST",-37.935142,145.033415,3188,208011172,208011172,House,4.0,2.0,3,18.8336,0.50304,1.10805,2.63939,4.33245,4.60504,,,450.0
143,2014,2,"1 KEN JAMES PLACE, BURNSIDE HEIGHTS",-37.7286941,144.757361,3023,213041462,213041462,House,5.0,3.0,2,32.64307,,1.29249,,,,,,470.0
144,2014,7,"1 KING STREET, FITZROY NORTH",-37.776285,144.982677,3068,206071143,206071143,House,3.0,1.0,1,5.17486,1.91486,0.4886999999999999,1.93043,1.65517,,,,630.0
145,2014,12,"1 KINGSCOTTS LANE, TINAMBA",-37.9799979,146.9072496,3859,205051101,205051101,House,5.0,1.0,2,215.89355,7.68939,7.3721,8.47399,3.22697,8.49589,7.30684,,285.0
146,2014,9,"1 KOSKY STREET, SUNSHINE WEST",-37.787644,144.822797,3020,213011338,213011338,House,3.0,1.0,2,14.274629999999998,1.2593299999999998,1.09411,1.53503,2.89575,,,,370.0
147,2014,10,"1 KOSKY STREET, SUNSHINE WEST",-37.787644,144.822797,3020,213011338,213011338,House,3.0,1.0,2,14.274629999999998,1.2593299999999998,1.09411,1.53503,2.89575,,,,350.0
148,2014,4,"1 LACHLAN CLOSE, BIG HILL",-38.4302462,144.0956888,3555,203031049,203031049,House,3.0,2.0,1,125.32476,19.4001,13.59628,,,21.12245,12.95324,,340.0
149,2014,8,"1 LAKE ROAD, DAYLESFORD",-37.35237,144.140881,3460,201021011,201021011,Apartment,2.0,1.0,1,111.33885,1.15101,0.8764299999999999,2.76338,2.2077600000000004,2.06856,1.42162,,345.0
150,2014,3,"1 LALOR STREET, BALLARAT EAST",-37.566136,143.893852,3350,201011481,201011003,House,3.0,1.0,2,112.39206,0.89206,1.35829,0.84204,1.35843,,,,290.0
151,2014,2,"1 LONSDALE STREET, SOUTH GEELONG",-38.157395,144.356868,3220,203021039,203021039,House,4.0,1.0,1,80.24252,0.51522,0.4172599999999999,1.27321,0.305,1.30175,1.83302,,380.0
152,2014,8,"1 LYNE STREET, TOORADIN",-38.2093425,145.3758946,3980,212031308,212031308,House,4.0,2.0,2,70.93378,9.32885,0.81372,,5.017060000000001,,,,400.0
153,2014,2,"1 MACARTHUR AVENUE, HAMLYN HEIGHTS",-38.122702,144.335259,3215,203021040,203021040,House,3.0,1.0,1,74.5004,1.67221,1.12259,0.38499,,,,,260.0
154,2014,5,"1 MACKAY STREET, ROCHESTER",-36.365435,144.699083,3561,216011409,216011409,House,3.0,1.0,2,181.74269,1.65344,0.23159,1.81814,0.57799,0.08714,0.50071,,270.0
155,2014,4,"1 MAGAZINE COURT, GOLDEN POINT",-37.573929,143.859634,3451,201011483,201011004,House,3.0,2.0,2,115.4709,1.45587,0.88979,1.41497,,,,,280.0
156,2014,5,"1 MAGAZINE COURT, GOLDEN POINT",-37.573929,143.859634,3451,201011483,201011004,House,3.0,2.0,2,115.4709,1.45587,0.88979,1.41497,,,,,280.0
157,2014,12,"1 MAGAZINE COURT, GOLDEN POINT",-37.573929,143.859634,3451,201011483,201011004,House,3.0,2.0,2,115.4709,1.45587,0.88979,1.41497,,,,,280.0
158,2014,8,"1 MAGPIE STREET, GOLDEN POINT",-37.571538,143.865059,3451,201011483,201011004,House,3.0,1.0,3,114.85439,0.30993,0.57266,0.7984600000000001,,,,,220.0
159,2014,5,"1 MARY BRYANT COURT, MILL PARK",-37.659852,145.052124,3082,209041220,209041220,House,4.0,2.0,2,22.667060000000003,,0.3706,2.5365100000000003,,,,,340.0
160,2014,11,"1 MARY BRYANT COURT, MILL PARK",-37.659852,145.052124,3082,209041220,209041220,House,4.0,2.0,2,22.667060000000003,,0.3706,2.5365100000000003,,,,,360.0
161,2014,11,"1 MARY COURT, LANCEFIELD",-37.2791516,144.7242775,3435,210021235,210021235,House,3.0,2.0,2,74.7864,,0.55483,16.01544,24.74387,,1.14458,,380.0
162,2014,5,"1 MARY STREET, FOOTSCRAY",-37.795015,144.89476,3011,213031348,213031348,House,3.0,1.0,1,7.99728,0.52765,1.01624,0.4628299999999999,1.27044,1.30699,1.82527,,440.0
163,2014,6,"1 MARY STREET, FOOTSCRAY",-37.795015,144.89476,3011,213031348,213031348,House,3.0,1.0,1,7.99728,0.52765,1.01624,0.4628299999999999,1.27044,1.30699,1.82527,,400.0
164,2014,7,"1 MARY STREET, FOOTSCRAY",-37.795015,144.89476,3011,213031348,213031348,House,3.0,1.0,1,7.99728,0.52765,1.01624,0.4628299999999999,1.27044,1.30699,1.82527,,400.0
165,2014,3,"1 MASKREY STREET, TRARALGON",-38.204856,146.554433,3844,205041493,205041097,House,3.0,1.0,1,165.63061,,0.76855,0.5154500000000001,2.28156,,3.527,,190.0
166,2014,6,"1 MASKREY STREET, TRARALGON",-38.204856,146.554433,3844,205041493,205041097,House,3.0,1.0,1,165.63061,,0.76855,0.5154500000000001,2.28156,,3.527,,190.0
167,2014,7,"1 MASKREY STREET, TRARALGON",-38.204856,146.554433,3844,205041493,205041097,House,3.0,1.0,1,165.63061,,0.76855,0.5154500000000001,2.28156,,3.527,,190.0
168,2014,1,"1 MIKAYLA COURT, BURNSIDE HEIGHTS",-37.733059,144.756059,3023,213041462,213041462,House,3.0,2.0,2,31.80263,,0.37717,,,,,,450.0
169,2014,4,"1 MORLOC STREET, FOREST HILL",-37.829556,145.173011,3131,211041269,211041269,House,2.0,1.0,1,25.12746,,0.77983,1.33794,3.58679,,,2.09155,350.0
170,2014,7,"1 NAR NAR GOON - LONGWARRY ROAD, TYNONG",-38.0848625,145.6218847,3813,212011547,212011288,House,4.0,1.0,0,73.42591,5.01133,4.98109,0.35985,0.61146,8.83981,8.749690000000001,,320.0
171,2014,5,"1 NELSON STREET, RINGWOOD",-37.812116,145.226616,3134,211031266,211031266,House,2.0,2.0,1,27.21181,1.43605,1.3428,1.81355,1.05973,,0.63855,0.88013,320.0
172,2014,10,"1 NORFOLK CRESCENT, CORIO",-38.072829,144.349635,3214,203021486,203021038,House,3.0,1.0,2,66.93338,2.37391,0.20616,2.04187,3.5505500000000003,,,,250.0
173,2014,10,"1 NORWOOD ROAD, MILL PARK",-37.676176,145.051166,3082,209041221,209041221,House,3.0,2.0,2,20.796560000000003,,1.68904,,,,,,370.0
174,2014,3,"1 ONCIDIUM GARDENS, KEILOR DOWNS",-37.71734,144.789895,3038,213011332,213011332,House,3.0,1.0,1,25.36512,0.06674,0.29825,2.80093,,,,,340.0
175,2014,9,"1 PALMER CRESCENT, MERRIGUM",-36.36733,145.131465,3618,216031419,216031419,House,3.0,1.0,0,187.95027,0.71102,0.4718299999999999,17.111189999999997,0.51965,16.468529999999998,16.836560000000002,,180.0
176,2014,9,"1 PEEL STREET, NEWPORT",-37.846853,144.893668,3015,213021344,213021344,House,3.0,1.0,1,11.01308,0.86339,1.6721700000000002,3.40881,1.27306,,0.87827,,530.0
177,2014,7,"1 PEPPERMINT COURT, ALTONA MEADOWS",-37.868832,144.788735,3028,213021342,213021342,House,4.0,2.0,2,23.68685,1.08314,1.0141,,,,,,415.0
178,2014,7,"1 PLENTY COURT, ALTONA MEADOWS",-37.87412,144.76947,3028,213021342,213021342,House,3.0,1.0,2,24.07373,0.90824,1.5508,,,,,,300.0
179,2014,12,"1 POINSETTIA COURT, BUNDOORA",-37.69706,145.0590021,3083,209041217,209041217,House,2.0,2.0,1,17.32512,1.02795,0.5176499999999999,0.89203,,,,,335.0
180,2014,8,"1 POPES ROAD, NOBLE PARK",-37.981954,145.184926,3174,212041565,212041314,House,3.0,1.0,1,34.52347,0.33412,0.75488,0.4181,,,,,340.0
181,2014,6,"1 PRINCESS STREET, BUNYIP",-38.095184,145.716394,3815,212011547,212011288,House,4.0,2.0,2,82.35539,0.53479,0.2898,9.00225,0.99131,0.47479,0.57178,,370.0
182,2014,5,"1 PRISCILLA STREET, BURNSIDE HEIGHTS",-37.7273858,144.7552048,3023,213041462,213041462,House,5.0,2.0,2,32.60525,,1.60717,,,,,,410.0
183,2014,4,"1 RANLEIGH RISE, TEMPLESTOWE LOWER",-37.76901,145.116078,3107,207021160,207021160,House,3.0,1.0,3,16.696189999999998,1.3336199999999998,0.44736,0.7626900000000001,,,,,380.0
184,2014,5,"1 RANLEIGH RISE, TEMPLESTOWE LOWER",-37.76901,145.116078,3107,207021160,207021160,House,3.0,1.0,3,16.696189999999998,1.3336199999999998,0.44736,0.7626900000000001,,,,,380.0
185,2014,1,"1 REID DRIVE, KILMANY",-38.1054162,146.9118343,3851,205051102,205051102,House,3.0,1.0,2,199.33825,0.26799,5.55206,,0.04142,,12.68739,,240.0
186,2014,7,"1 ROSA AVENUE, SPRINGVALE",-37.958791,145.162751,3171,212041317,212041317,House,3.0,1.0,1,35.38232,1.97111,0.96533,1.29612,0.33565,,1.43003,,365.0
187,2014,4,"1 ROSE AVENUE, BULLEEN",-37.768804,145.099953,3105,207021156,207021156,House,4.0,2.0,2,14.84506,1.71304,0.84856,2.3253000000000004,,,,1.0478599999999998,420.0
188,2014,6,"1 ROSSDELL STREET, PORTLAND",-38.3576334,141.6171253,3305,217011422,217011422,House,3.0,1.0,4,363.67156,2.35996,1.61125,2.51154,1.7978299999999998,3.2552600000000003,2.04745,,200.0
189,2014,7,"1 ROSSDELL STREET, PORTLAND",-38.3576334,141.6171253,3305,217011422,217011422,House,3.0,1.0,4,363.67156,2.35996,1.61125,2.51154,1.7978299999999998,3.2552600000000003,2.04745,,200.0
190,2014,3,"1 RUPERT COURT, BROADMEADOWS",-37.692473,144.923949,3047,210051242,210051242,House,3.0,1.0,2,15.46066,0.17968,0.73766,1.67746,1.75872,,2.55743,2.7583800000000003,330.0
191,2014,4,"1 SADLER COURT, ALLANSFORD",-38.386904,142.608386,3277,217041480,217041480,House,2.0,1.0,1,246.59973,10.0076,1.75419,13.554,1.08124,14.28268,1.64246,,280.0
192,2014,10,"1 SAVIOUR ROAD, BURNSIDE HEIGHTS",-37.7263099,144.7571593,3023,213041462,213041462,House,3.0,2.0,1,33.14983,,1.6118800000000002,,,,,,410.0
193,2014,5,"1 SOMERS STREET, PLUMPTON",-37.7010076,144.7247711,3335,213041574,213041355,House,4.0,2.0,2,30.34196,8.37735,7.80598,,,,,,410.0
194,2014,9,"1 SOUTHDOWNE CLOSE, SPRINGVALE",-37.952907,145.157109,3171,212041317,212041317,House,3.0,1.0,1,28.56801,0.97092,0.59165,0.7646000000000001,0.72568,,1.2647,,320.0
195,2014,8,"1 SPRUCE DRIVE, ROWVILLE",-37.915757,145.267197,3178,211011256,211011256,House,3.0,1.0,1,37.16568,1.31392,0.91635,0.74056,,,,,340.0
196,2014,1,"1 STATION ROAD, WILLIAMSTOWN",-37.856726,144.892224,3016,213021346,213021346,House,3.0,1.0,0,13.54212,1.54222,0.29024,0.6667000000000001,1.44362,1.02702,2.03365,,500.0
197,2014,3,"1 STATION ROAD, WILLIAMSTOWN",-37.856726,144.892224,3016,213021346,213021346,House,3.0,1.0,0,13.54212,1.54222,0.29024,0.6667000000000001,1.44362,1.02702,2.03365,,530.0
198,2014,10,"1 STATION STREET, CAMPBELLS CREEK",-37.09701538,144.20359802,3451,202021027,202021027,House,3.0,1.0,2,132.97425,2.05064,0.63191,1.17913,4.84445,6.15405,4.74505,,280.0
199,2014,11,"1 STATION STREET, CAMPBELLS CREEK",-37.09701538,144.20359802,3451,202021027,202021027,House,3.0,1.0,2,132.97425,2.05064,0.63191,1.17913,4.84445,6.15405,4.74505,,280.0
200,2014,9,"1 STATION STREET, TARADALE",-37.133885,144.355419,3447,202021028,202021028,House,3.0,1.0,0,103.9543,18.99345,1.38534,27.64946,0.04776,42.63853,33.55678,,380.0
201,2014,6,"1 STATON CRESCENT, MELTON WEST",-37.681347,144.541885,3337,213041358,213041358,House,4.0,2.0,4,47.93152,,1.58243,1.70208,,,,2.79254,290.0
202,2014,8,"1 STREAM ROAD, REEFTON",-37.67151,145.853018,3799,204011061,204011061,House,3.0,1.0,1,97.00851,23.85905,,,,,,,230.0
203,2014,9,"1 STREETON COURT, ROWVILLE",-37.931545,145.23441,3178,211011258,211011258,House,3.0,1.0,2,33.52376,1.14968,0.87349,,,,,,345.0
204,2014,3,"1 STURT STREET, SUNBURY",-37.58053,144.717104,3429,210041540,210041241,House,3.0,1.0,1,39.95811,0.8073899999999999,1.51983,,1.55522,,,,315.0
205,2014,4,"1 STURT STREET, SUNBURY",-37.58053,144.717104,3429,210041540,210041241,House,3.0,1.0,1,39.95811,0.8073899999999999,1.51983,,1.55522,,,,315.0
206,2014,11,"1 SWAN STREET, WODONGA",-36.137239,146.884182,3690,204031492,204031074,House,3.0,1.0,1,313.89359,0.50205,1.48553,1.33757,2.779,1.85173,2.21989,,240.0
207,2014,3,"1 TARA CLOSE, ROWVILLE",-37.933504,145.252513,3178,211011258,211011258,House,4.0,2.0,2,35.614830000000005,1.05743,1.00475,,,,,,490.0
208,2014,3,"1 THE BOULEVARD, SALE",-38.0997875,146.9890961,3850,205051102,205051102,House,4.0,2.0,2,206.28039,7.00428,9.35714,,6.90074,,19.62954,,340.0
209,2014,7,"1 THE BROADWAY WAY, MORIAC",-38.240169,144.1802928,3240,203011036,203011036,House,3.0,2.0,2,98.28527,4.2867,0.54172,,0.65079,22.89138,21.87105,,340.0
210,2014,2,"1 THE BROADWAY, MORIAC",-38.241611,144.174355,3240,203011036,203011036,House,3.0,2.0,2,98.90803,3.77669,0.22159,,0.26441,21.9552,20.93487,,340.0
211,2014,7,"1 THE BROADWAY, MORIAC",-38.241611,144.174355,3240,203011036,203011036,House,3.0,2.0,2,98.90803,3.77669,0.22159,,0.26441,21.9552,20.93487,,340.0
212,2014,3,"1 THUNDER STREET, BENDIGO",-36.747156,144.284124,3550,202011018,202011018,House,2.0,1.0,3,152.61764000000002,1.2393299999999998,0.68461,1.32582,2.92139,0.55415,3.2032800000000003,2.09564,300.0
213,2014,4,"1 THUNDER STREET, BENDIGO",-36.747156,144.284124,3550,202011018,202011018,House,2.0,1.0,3,152.61764000000002,1.2393299999999998,0.68461,1.32582,2.92139,0.55415,3.2032800000000003,2.09564,300.0
214,2014,2,"1 TIEMAN ROAD, YARRAMBAT",-37.646702,145.131136,3091,209031213,209031213,House,5.0,3.0,2,30.2843,3.319,0.6313300000000001,,,,,,660.0
215,2014,3,"1 TIEMAN ROAD, YARRAMBAT",-37.646702,145.131136,3091,209031213,209031213,House,5.0,3.0,2,30.2843,3.319,0.6313300000000001,,,,,,660.0
216,2014,3,"1 TRISTAN DRIVE, SEBASTOPOL",-37.5853192,143.8395306,3356,201011484,201011004,House,3.0,2.0,2,117.70613,1.2314,1.12947,1.2743,,,,,300.0
217,2014,6,"1 TURNER PLACE, SOUTH GEELONG",-38.162145,144.357458,3220,203021039,203021039,House,3.0,1.0,1,80.82039999999999,0.7497999999999999,0.6439,1.97244,0.52786,1.52839,2.53225,,395.0
218,2014,7,"1 TURNER PLACE, SOUTH GEELONG",-38.162145,144.357458,3220,203021039,203021039,House,3.0,1.0,1,80.82039999999999,0.7497999999999999,0.6439,1.97244,0.52786,1.52839,2.53225,,395.0
219,2014,7,"1 TWEED STREET, RINGWOOD EAST",-37.816044,145.246887,3135,211031267,211031267,House,4.0,1.0,4,29.6738,1.40688,0.73714,2.8358000000000003,0.64174,1.83129,,,380.0
220,2014,4,"1 VINCENT CRESCENT, WERRIBEE",-37.890758,144.659078,3030,213051467,213051467,House,3.0,1.0,0,32.79311,0.58029,0.51558,0.56968,,,,,260.0
221,2014,5,"1 VINCENT CRESCENT, WERRIBEE",-37.890758,144.659078,3030,213051467,213051467,House,3.0,1.0,0,32.79311,0.58029,0.51558,0.56968,,,,,260.0
222,2014,12,"1 VINCENT CRESCENT, WERRIBEE",-37.890758,144.659078,3030,213051467,213051467,House,3.0,1.0,0,32.79311,0.58029,0.51558,0.56968,,,,,290.0
223,2014,9,"1 WALKER STREET, CLIFTON HILL",-37.788326,145.0004676,3068,206071145,206071145,House,3.0,2.0,1,5.71163,0.6125900000000001,1.3884,3.6635,0.50248,2.12429,,,810.0
224,2014,1,"1 WATERMAN PLACE, FRANKSTON",-38.154513,145.123274,3199,214011371,214011371,House,3.0,2.0,2,55.91463,0.27512,0.8667,1.15984,1.7403499999999998,0.92775,2.49457,1.99045,400.0
225,2014,10,"1 WEIGELA COURT, FRANKSTON",-38.145211,145.168243,3199,214011372,214011372,House,3.0,1.0,1,54.0186,0.4316,0.5529,0.94588,,,,1.13379,280.0
226,2014,4,"1 WENTWORTH LANE, BURNSIDE HEIGHTS",-37.731142,144.7597052,3023,213041462,213041462,House,2.0,1.0,1,32.61558,,0.8843300000000001,,,,,,340.0
227,2014,5,"1 WENTWORTH LANE, BURNSIDE HEIGHTS",-37.731142,144.7597052,3023,213041462,213041462,House,2.0,1.0,1,32.61558,,0.8843300000000001,,,,,,320.0
228,2014,3,"1 WHALERS COURT, PORTLAND",-38.336445,141.607665,3305,217011422,217011422,House,4.0,1.0,2,358.86388,1.79001,1.91264,1.06302,1.612,0.5918,2.07516,,290.0
229,2014,2,"1 WILLS STREET, SUNBURY",-37.578954,144.711831,3429,210041540,210041241,House,3.0,1.0,1,39.47071,1.13901,1.09482,,1.88683,,,,290.0
230,2014,12,"1 WRIGHT STREET, MIDDLE PARK",-37.846157,144.961197,3206,206051128,206051128,House,2.0,2.0,0,5.425949999999999,1.04527,0.5179199999999999,1.11578,0.67461,,3.43081,,595.0
231,2014,12,"1, 23 BELLANY ROAD, BELGRAVE SOUTH",-37.940956,145.363292,3160,211051274,211051274,Apartment,2.0,1.0,0,47.11338,1.95371,1.91992,5.68384,4.95582,,5.53346,,370.0
232,2014,7,"1-3 STATION STREET, WILLAURA",-37.546143,142.737766,3379,215011387,215011387,House,4.0,1.0,1,240.41073,0.64071,0.2986999999999999,28.96166,0.63317,0.80821,0.31583,,165.0
233,2014,10,"1-3 SULLIVAN STREET, MALMSBURY",-37.195047,144.373048,3446,202021030,202021030,House,3.0,2.0,2,97.45589,11.77564,2.1567800000000004,2.98483,0.78661,12.24711,1.90904,,295.0
234,2014,11,"1.06/91 DOW STREET, PORT MELBOURNE",-37.840548,144.942207,3207,206051130,206051130,Apartment,1.0,1.0,1,5.56449,0.2484799999999999,1.26167,,1.13852,,0.4197099999999999,,380.0
235,2014,10,"1.09/569 GLENFERRIE ROAD, HAWTHORN",-37.8267401,145.0344378,3122,207011520,207011151,Apartment,2.0,1.0,1,7.7042,1.21405,0.02933,0.68576,0.90711,,0.50828,,420.0
236,2014,7,"1/1 ASHWOOD COURT, MILDURA",-34.194605,142.136449,3500,215021470,215021470,House,3.0,2.0,1,542.171,,2.8528200000000004,1.48547,,,,,230.0
237,2014,8,"1/1 ASHWOOD COURT, MILDURA",-34.194605,142.136449,3500,215021470,215021470,House,3.0,2.0,1,542.171,,2.8528200000000004,1.48547,,,,,230.0
238,2014,2,"1/1 AUSTIN STREET, HAWTHORN",-37.8231234,145.022063,3122,207011520,207011151,House,3.0,1.0,2,6.60216,2.49871,1.41791,1.63413,1.85548,,1.79288,,675.0
239,2014,8,"1/1 BROWNING DRIVE, GLEN WAVERLEY",-37.8647007,145.1752388,3150,212051321,212051321,Apartment,2.0,1.0,1,22.22825,2.5150300000000003,0.3825199999999999,0.2489,,,3.40877,,390.0
240,2014,9,"1/1 BROWNING DRIVE, GLEN WAVERLEY",-37.8647007,145.1752388,3150,212051321,212051321,Apartment,2.0,1.0,1,22.22825,2.5150300000000003,0.3825199999999999,0.2489,,,3.40877,,380.0
241,2014,10,"1/1 BROWNING DRIVE, GLEN WAVERLEY",-37.8647007,145.1752388,3150,212051321,212051321,Apartment,2.0,1.0,1,22.22825,2.5150300000000003,0.3825199999999999,0.2489,,,3.40877,,380.0
242,2014,4,"1/1 CATHERINE PARADE, FRANKSTON",-38.1459642,145.1339636,3199,214011371,214011371,Apartment,1.0,1.0,1,53.80324,0.6714,1.76367,1.19408,1.24092,1.63194,1.5061,1.93607,220.0
243,2014,10,"1/1 FINCH STREET, BAYSWATER",-37.84441,145.254804,3153,211011251,211011251,Apartment,2.0,1.0,1,33.36397,1.76893,0.69674,1.11968,1.59083,,,0.39573,310.0
244,2014,9,"1/1 GRANDVIEW ST, GLENROY",-37.707274,144.9157699,3046,210031536,210031438,House,3.0,2.0,1,13.23198,0.8156100000000001,1.03194,1.01788,0.46337,,0.5257200000000001,,395.0
245,2014,2,"1/1 HOLMAN COURT, BREAKWATER",-38.181616,144.367399,3219,203021039,203021039,Apartment,2.0,1.0,1,83.80136999999999,2.16637,2.33008,2.64522,3.64076,4.167470000000001,5.645149999999999,,250.0
246,2014,11,"1/1 INDUSTRY LANE, COBURG",-37.7369442,144.9699153,3058,206011497,206011108,Apartment,1.0,1.0,1,9.16043,0.32714,0.49449,0.63149,,,,,330.0
247,2014,9,"1/1 MABEL STREET, IVANHOE",-37.7628466,145.0292582,3079,209011200,209011200,House,2.0,1.0,1,11.728879999999998,1.1906199999999998,0.5337999999999999,,2.42803,2.02573,,,405.0
248,2014,2,"1/1 MOORE STREET, WANGARATTA",-36.3615192,146.3193887,3677,204021066,204021066,Apartment,2.0,1.0,1,241.5107,0.9672,0.96836,1.01589,1.41224,1.57146,0.89803,,175.0
249,2014,8,"1/1 NORELLE CRESCENT, GOLDEN SQUARE",-36.777226,144.242698,3555,202011022,202011022,Apartment,2.0,1.0,1,148.25795000000002,,1.89103,1.83982,2.40082,,,,240.0
250,2014,3,"1/1 OLYMPIC STREET, BUNDOORA",-37.7009056,145.0611547,3083,209011196,209011196,House,3.0,2.0,1,17.10068,0.7639,1.1203299999999998,1.02955,,,,1.02325,500.0
251,2014,8,"1/1 OLYMPIC STREET, BUNDOORA",-37.7009056,145.0611547,3083,209011196,209011196,House,3.0,2.0,1,17.10068,0.7639,1.1203299999999998,1.02955,,,,1.02325,500.0
252,2014,12,"1/1 OLYMPIC STREET, BUNDOORA",-37.7009056,145.0611547,3083,209011196,209011196,House,3.0,2.0,1,17.10068,0.7639,1.1203299999999998,1.02955,,,,1.02325,273.0
253,2014,5,"1/1 PEEL STREET, COLLINGWOOD",-37.8050584,144.9837832,3066,206071141,206071141,Apartment,1.0,1.0,1,2.3790500000000003,,,0.55237,,0.55351,,,410.0
254,2014,8,"1/1 RIVER AVENUE, ASCOT VALE",-37.7797649,144.9015848,3032,206031113,206031113,House,4.0,2.0,2,8.14273,0.72794,1.19791,,3.11525,,,,660.0
255,2014,7,"1/1 ST GEORGES ROAD, TOORAK",-37.8418113,145.0185343,3142,206061138,206061138,House,3.0,2.0,0,7.99092,1.26993,1.14078,1.1316400000000002,1.07518,,,,725.0
256,2014,8,"1/1 ST GEORGES ROAD, TOORAK",-37.8418113,145.0185343,3142,206061138,206061138,House,3.0,2.0,0,7.99092,1.26993,1.14078,1.1316400000000002,1.07518,,,,700.0
257,2014,4,"1/1 SUNNINGDALE DRIVE, HILLSIDE",-37.6912668,144.7287934,3875,213041575,213041355,House,3.0,1.0,1,28.96218,,1.41511,,,,,,340.0
258,2014,5,"1/1 SUNNINGDALE DRIVE, HILLSIDE",-37.6912668,144.7287934,3875,213041575,213041355,House,3.0,1.0,1,28.96218,,1.41511,,,,,,330.0
259,2014,3,"1/1 THROUGH ROAD, RINGWOOD NORTH",-37.8017799,145.2295526,3134,211031268,211031268,House,3.0,1.0,1,28.50495,0.50203,0.72476,2.60385,,,,,335.0
260,2014,3,"1/1 WILPENA COURT, ST ALBANS",-37.749762,144.827856,3021,213011335,213011335,House,3.0,1.0,1,20.530330000000003,0.16713,2.3126100000000003,2.04827,2.88062,,,,300.0
261,2014,10,"1/10 ASHBY COURT, ALTONA MEADOWS",-37.878463,144.771272,3028,213021342,213021342,Apartment,2.0,1.0,1,24.56155,1.39168,2.03861,,,,,,285.0
262,2014,5,"1/10 BAY STREET, PORT ALBERT",-38.670546,146.693813,3971,205051104,205051104,House,2.0,2.0,0,222.43061,5.9832600000000005,0.3763,14.00322,8.30977,14.16374,13.84611,,250.0
263,2014,5,"1/10 EGAN CLOSE, WERRIBEE",-37.8802948,144.67150879,3030,213051467,213051467,House,3.0,2.0,1,31.52837,2.37722,1.78014,2.22539,,,,,300.0
264,2014,1,"1/10 FAKENHAM ROAD, ASHBURTON",-37.862092,145.082759,3147,207011146,207011146,House,3.0,2.0,2,14.480379999999998,0.61237,0.07745,,0.17769,,0.5402899999999999,,490.0
265,2014,12,"1/10 LLOYD STREET, DERRINALLUM",-37.945158,143.217745,3325,217031474,217031474,Apartment,1.0,1.0,1,177.26092,39.61834,11.2197,0.3849599999999999,2.14503,10.80433,11.09835,,120.0
266,2014,8,"1/10 MATTHIESON STREET, HIGHETT",-37.953669,145.050327,3190,208031188,208031188,House,3.0,1.0,2,26.65073,0.97031,2.51786,1.891,,,2.23489,1.21658,425.0
267,2014,12,"1/10 SEYMOUR GROVE, CAMBERWELL",-37.836168,145.060682,3124,207011149,207011149,Apartment,2.0,1.0,1,10.27821,1.28072,0.61537,1.70502,1.22928,,0.50157,,430.0
268,2014,7,"1/10 STRADBROKE AVENUE, HEIDELBERG",-37.754676,145.062528,3084,209011198,209011198,Apartment,2.0,1.0,1,14.96377,0.6918,0.71609,0.96091,0.32248,0.64719,0.94229,,300.0
269,2014,12,"1/10 STRADBROKE AVENUE, HEIDELBERG",-37.754676,145.062528,3084,209011198,209011198,Apartment,2.0,1.0,1,14.96377,0.6918,0.71609,0.96091,0.32248,0.64719,0.94229,,290.0
270,2014,9,"1/10 TEKAPO CRESCENT, TAYLORS LAKES",-37.711162,144.805606,3038,213011340,213011340,House,3.0,2.0,1,23.97905,1.36558,1.88588,1.73729,4.46957,,,,410.0
271,2014,3,"1/10 WILLIAM STREET, KEILOR PARK",-37.721513,144.856309,3042,210011228,210011228,Apartment,2.0,1.0,1,18.02349,0.35599,0.44944,5.4182,,,,,350.0
272,2014,7,"1/100 STOKES STREET, PORT MELBOURNE",-37.840685,144.935477,3207,206051130,206051130,House,3.0,1.0,1,5.82813,1.1615799999999998,0.93237,,0.30246,,0.89443,,595.0
273,2014,8,"1/103 LOWER DANDENONG ROAD, MENTONE",-37.983059,145.083878,3194,208031190,208031190,House,3.0,1.0,2,33.19217,0.94825,0.49953,2.32248,1.83489,,2.18515,0.80901,450.0
274,2014,3,"1/103 SPRINGFIELD DRIVE, NARRE WARREN",-38.017611,145.293693,3805,212021456,212021456,House,3.0,2.0,2,41.42821,0.31801,1.30422,1.91403,1.74002,,,2.05026,340.0
275,2014,5,"1/105 MERTON STREET, ALBERT PARK",-37.844557,144.955523,3206,206051128,206051128,Apartment,2.0,1.0,1,5.35758,0.42836,0.4779,0.93806,1.49023,,3.36245,,530.0
276,2014,5,"1/105 PEARSON STREET, BRUNSWICK",-37.7597427,144.950295,3056,206011495,206011105,Apartment,2.0,1.0,2,7.68602,0.5565800000000001,0.00912,,1.3668,,1.51581,,380.0
277,2014,9,"1/107 FOX STREET, ST ALBANS",-37.733126,144.804139,3021,213011334,213011334,House,4.0,2.0,1,23.16487,0.42172,0.33552,1.21557,2.10921,,2.00252,,350.0
278,2014,9,"1/107 IVANHOE PARADE, IVANHOE",-37.760533,145.045892,3079,209011200,209011200,House,3.0,2.0,1,12.477709999999998,1.0600999999999998,0.85653,,1.42579,1.50704,,,440.0
279,2014,3,"1/1073 HEATHERTON ROAD, NOBLE PARK",-37.964409,145.169385,3174,212041460,212041460,House,3.0,1.0,2,34.32015,0.41925,1.0608499999999998,,2.55096,,,,320.0
280,2014,4,"1/1073 HEATHERTON ROAD, NOBLE PARK",-37.964409,145.169385,3174,212041460,212041460,House,3.0,1.0,2,34.32015,0.41925,1.0608499999999998,,2.55096,,,,320.0
281,2014,9,"1/1073 HEATHERTON ROAD, NOBLE PARK",-37.964409,145.169385,3174,212041460,212041460,House,3.0,1.0,2,34.32015,0.41925,1.0608499999999998,,2.55096,,,,320.0
282,2014,10,"1/1073 HEATHERTON ROAD, NOBLE PARK",-37.964409,145.169385,3174,212041460,212041460,House,3.0,1.0,2,34.32015,0.41925,1.0608499999999998,,2.55096,,,,320.0
283,2014,3,"1/108 BLACKSHAWS ROAD, SOUTH KINGSVILLE",-37.833693,144.873783,3015,213021344,213021344,Apartment,2.0,1.0,1,12.17306,1.14206,0.8952100000000001,2.7509200000000003,2.28688,,2.14662,,370.0
284,2014,5,"1/11 ANDREWS STREET, HEIDELBERG",-37.750376,145.069598,3084,209011198,209011198,Apartment,2.0,1.0,1,15.15897,1.32284,0.60714,1.1911500000000002,1.12766,1.76629,1.16197,,295.0
285,2014,3,"1/11 CENTRAL AVENUE, THOMASTOWN",-37.678306,145.012608,3074,209041223,209041223,Apartment,2.0,1.0,1,16.79072,,0.8090599999999999,1.17449,0.38083,,0.44214,,320.0
286,2014,8,"1/11 DEAN STREET, KEW",-37.815738,145.05818,3101,207011521,207011153,House,3.0,1.0,0,8.69891,1.2158699999999998,0.64574,1.05482,,1.65034,3.3445500000000004,,450.0
287,2014,7,"1/11 ESTER STREET, GREENSBOROUGH",-37.704969,145.098172,3088,209011197,209011197,House,2.0,1.0,1,21.38498,0.2379399999999999,0.43466,0.91766,1.68282,,0.3248399999999999,,380.0
288,2014,9,"1/11 HOTHAM STREET, WARRNAMBOOL",-38.388294,142.490912,3280,217041480,217041480,House,4.0,2.0,1,257.59384,2.03369,0.89197,2.95217,1.88813,2.13139,1.48454,,360.0
289,2014,10,"1/11 HOTHAM STREET, WARRNAMBOOL",-38.388294,142.490912,3280,217041480,217041480,House,4.0,2.0,1,257.59384,2.03369,0.89197,2.95217,1.88813,2.13139,1.48454,,360.0
290,2014,10,"1/11 KING GEORGE WAY, MITCHELL PARK",-37.516347,143.80159,3355,201011008,201011008,House,3.0,2.0,2,122.37281,2.66249,2.75697,3.10761,,,,3.92793,290.0
291,2014,3,"1/11 LAKEVIEW AVENUE, ROWVILLE",-37.917733,145.23226,3178,211011256,211011256,Apartment,2.0,1.0,1,34.51373,0.79322,1.11973,1.12281,,,,,330.0
292,2014,4,"1/11 LAKEVIEW AVENUE, ROWVILLE",-37.917733,145.23226,3178,211011256,211011256,Apartment,2.0,1.0,1,34.51373,0.79322,1.11973,1.12281,,,,,330.0
293,2014,7,"1/11 LAKEVIEW AVENUE, ROWVILLE",-37.917733,145.23226,3178,211011256,211011256,Apartment,2.0,1.0,1,34.51373,0.79322,1.11973,1.12281,,,,,360.0
294,2014,10,"1/11 LUSHER ROAD, CROYDON",-37.800699,145.27939,3136,211031450,211031450,Apartment,2.0,1.0,0,32.32394,1.49402,1.85908,0.29747,,,0.56099,,320.0
295,2014,9,"1/11 MAY STREET, CANNONS CREEK",-38.214194,145.318036,3977,212031308,212031308,House,3.0,1.0,1,68.15384,9.43893,8.839139999999999,,14.51385,,,,315.0
296,2014,10,"1/11 MAY STREET, CANNONS CREEK",-38.214194,145.318036,3977,212031308,212031308,House,3.0,1.0,1,68.15384,9.43893,8.839139999999999,,14.51385,,,,300.0
297,2014,11,"1/11 PALMERSTON STREET, MELTON",-37.688365,144.582808,3337,213041577,213041356,House,2.0,1.0,1,46.5295,1.15175,1.04246,,,,1.11462,,230.0
298,2014,9,"1/11 PASSFIELD STREET, BRUNSWICK WEST",-37.767978,144.940369,3055,206011107,206011107,Apartment,1.0,1.0,1,6.94428,0.12966,0.70699,1.4013699999999998,,,,,235.0
299,2014,2,"1/11-13 PALMER DRIVE, NARRE WARREN",-38.042345,145.308259,3805,212021456,212021456,House,3.0,2.0,1,44.93327,1.72692,2.11898,5.65484,2.61681,,,3.66302,320.0
300,2014,8,"1/11-19 FERGUSON STREET, WILLIAMSTOWN",-37.859488,144.900893,3016,213021346,213021346,Apartment,2.0,1.0,2,12.6757,1.20925,0.60902,1.39318,1.27449,1.7535,0.8677999999999999,,530.0
301,2014,4,"1/110 BRADSHAW STREET, ESSENDON",-37.73928833,144.89573669,3040,206031501,206031114,House,3.0,1.0,1,11.02266,1.22841,0.8084199999999999,1.22948,,,,,465.0
302,2014,5,"1/110 BRADSHAW STREET, ESSENDON",-37.73928833,144.89573669,3040,206031501,206031114,House,3.0,1.0,1,11.02266,1.22841,0.8084199999999999,1.22948,,,,,465.0
303,2014,5,"1/114 COWPER STREET, FOOTSCRAY",-37.806223,144.901819,3011,213031348,213031348,Apartment,2.0,1.0,1,6.32509,0.51581,0.35166,0.8102,0.88624,3.0526,0.36346,,290.0
304,2014,6,"1/114 COWPER STREET, FOOTSCRAY",-37.806223,144.901819,3011,213031348,213031348,Apartment,2.0,1.0,1,6.32509,0.51581,0.35166,0.8102,0.88624,3.0526,0.36346,,290.0
305,2014,6,"1/114 KELVINSIDE ROAD, NOBLE PARK",-37.957839,145.172161,3174,212041459,212041459,House,2.0,1.0,1,31.34859,0.67292,1.86542,1.8581,1.40276,,,,260.0
306,2014,12,"1/114 KELVINSIDE ROAD, NOBLE PARK",-37.957839,145.172161,3174,212041459,212041459,House,2.0,1.0,1,31.34859,0.67292,1.86542,1.8581,1.40276,,,,260.0
307,2014,7,"1/115 MELON STREET, BRAYBROOK",-37.78164,144.859225,3019,213031347,213031347,House,2.0,2.0,2,11.8216,0.89628,0.67311,0.9147,3.01004,,2.12285,,380.0
308,2014,3,"1/117 PLENTY ROAD, BUNDOORA",-37.692691,145.060407,3083,209041217,209041217,House,2.0,1.0,4,18.0646,0.63416,1.2571199999999998,1.29666,,,,,320.0
309,2014,3,"1/118 ROSE STREET, FITZROY",-37.796175,144.979854,3065,206071142,206071142,House,2.0,2.0,1,3.01675,1.22905,0.5904299999999999,1.0108,1.84157,2.28655,1.32284,,625.0
310,2014,3,"1/1183 NEPEAN HIGHWAY, HIGHETT",-37.95352,145.049979,3190,208031188,208031188,House,3.0,2.0,2,22.14198,0.89449,2.02132,2.14102,,,1.7383499999999998,1.14077,400.0
311,2014,1,"1/119 TENNYSON STREET, ESSENDON",-37.754509,144.930323,3040,206031502,206031114,Apartment,2.0,1.0,1,9.15046,1.23284,1.0520999999999998,1.1216400000000002,1.53964,,2.70337,,300.0
312,2014,3,"1/119 TENNYSON STREET, ESSENDON",-37.754509,144.930323,3040,206031502,206031114,Apartment,2.0,1.0,1,9.15046,1.23284,1.0520999999999998,1.1216400000000002,1.53964,,2.70337,,285.0
313,2014,5,"1/12 BAY STREET, PORT ALBERT",-38.669823,146.694586,3971,205051104,205051104,Apartment,1.0,1.0,1,222.66358,6.21622,0.60927,14.23618,8.542729999999999,14.3967,14.07908,,200.0
314,2014,1,"1/12 CHURCH STREET, NERRINA",-37.544199,143.892398,3350,201011482,201011003,House,3.0,1.0,1,114.50497,1.89565,0.29492,1.80155,4.369350000000001,,,,240.0
315,2014,3,"1/12 CONISTON AVENUE, AIRPORT WEST",-37.732335,144.882586,3042,210011226,210011226,Apartment,2.0,1.0,1,14.26833,1.90957,0.47389,0.53365,,,,3.49862,350.0
316,2014,4,"1/12 CONISTON AVENUE, AIRPORT WEST",-37.732335,144.882586,3042,210011226,210011226,Apartment,2.0,1.0,1,14.26833,1.90957,0.47389,0.53365,,,,3.49862,350.0
317,2014,9,"1/12 DARIAN ROAD, TORQUAY",-38.323031,144.327254,3228,203031053,203031053,House,3.0,2.0,1,102.37641,0.91165,0.70411,1.32128,,,1.14339,,430.0
318,2014,3,"1/12 ESSEX STREET, PASCOE VALE",-37.726958,144.947808,3044,210031538,210031239,House,3.0,2.0,0,11.34729,0.70275,0.93624,1.31721,,,,,430.0
319,2014,11,"1/12 ESSEX STREET, PASCOE VALE",-37.726958,144.947808,3044,210031538,210031239,House,3.0,2.0,0,11.34729,0.70275,0.93624,1.31721,,,,,430.0
320,2014,5,"1/12 EVANSDALE ROAD, HAWTHORN",-37.823023,145.022997,3122,207011520,207011151,Apartment,2.0,1.0,1,6.471640000000001,2.89265,1.27547,1.4301199999999998,1.65147,,1.58888,,365.0
321,2014,11,"1/12 EVANSDALE ROAD, HAWTHORN",-37.823023,145.022997,3122,207011520,207011151,Apartment,2.0,1.0,1,6.471640000000001,2.89265,1.27547,1.4301199999999998,1.65147,,1.58888,,415.0
322,2014,9,"1/12 GOTHA STREET, HEIDELBERG HEIGHTS",-37.75118,145.048647,3081,209011199,209011199,House,3.0,1.0,1,13.68389,1.38998,0.6369900000000001,1.04222,,,0.56711,,360.0
323,2014,12,"1/12 GOTHA STREET, HEIDELBERG HEIGHTS",-37.75118,145.048647,3081,209011199,209011199,House,3.0,1.0,1,13.68389,1.38998,0.6369900000000001,1.04222,,,0.56711,,360.0
324,2014,9,"1/12 LILLIMUR ROAD, ORMOND",-37.902893,145.041776,3204,208021182,208021182,House,2.0,1.0,1,16.28237,0.94899,1.21857,,0.4062099999999999,,1.63627,,350.0
325,2014,2,"1/12 MADELEINE ROAD, CLAYTON",-37.915266,145.120158,3168,212051568,212051320,House,3.0,1.0,1,21.46116,1.15403,1.1786,0.80084,1.19839,0.84385,0.65664,,435.0
326,2014,9,"1/12 MARLO DRIVE, MELTON WEST",-37.669289,144.55568,3337,213041358,213041358,Apartment,3.0,2.0,1,48.13038,,1.163,1.19326,,,,3.70474,280.0
327,2014,3,"1/12 NAVIGATOR STREET, MARIBYRNONG",-37.76811981,144.89854431,3032,213031349,213031349,Apartment,1.0,1.0,1,8.51994,0.25122,0.94745,2.16416,,,,1.7295999999999998,240.0
328,2014,5,"1/12 PALL MALL, BENDIGO",-36.759586,144.279028,3550,202011018,202011018,Apartment,1.0,1.0,0,150.81586,1.13499,0.22847,0.37041,1.11704,1.77731,1.4015,0.2912,260.0
329,2014,11,"1/12 PALL MALL, BENDIGO",-36.759586,144.279028,3550,202011018,202011018,Apartment,1.0,1.0,0,150.81586,1.13499,0.22847,0.37041,1.11704,1.77731,1.4015,0.2912,250.0
330,2014,9,"1/12 STATION STREET, KEW",-37.779414,144.977311,3101,206011106,206011106,Apartment,2.0,1.0,1,4.47585,0.8170499999999999,0.4685899999999999,,,,,,380.0
331,2014,5,"1/12 VICTORIA STREET, SEBASTOPOL",-37.598542,143.83933,3356,201011484,201011004,Apartment,2.0,1.0,1,119.2617,0.92223,0.93474,1.09619,,,,,220.0
332,2014,9,"1/1206-1208 HEATHERTON ROAD, NOBLE PARK",-37.966251,145.1824,3174,212041459,212041459,House,3.0,2.0,2,33.15685,0.49535,1.21552,0.78185,0.66172,,,,380.0
333,2014,1,"1/122 HIGH STREET, PRESTON",-37.7475821,145.0024336,3072,209021428,209021428,House,2.0,2.0,1,9.50076,2.94129,0.47333,0.6309,0.7001000000000001,1.06489,1.2625,3.79818,385.0
334,2014,2,"1/122 INKERMAN STREET, ST KILDA",-37.864668,144.9874,3182,206051513,206051133,Apartment,2.0,1.0,0,7.340199999999999,0.85502,0.82289,1.06427,,,,,300.0
335,2014,3,"1/122 SUTTON STREET, ECHUCA",-36.127931,144.760001,3564,216011406,216011406,House,1.0,1.0,1,212.75194,3.49558,0.68762,2.33319,1.06295,2.35643,0.75698,,180.0
336,2014,8,"1/123 ORIEL ROAD, BELLFIELD",-37.752526,145.039177,3081,209011199,209011199,House,3.0,1.0,1,13.14269,2.00835,1.33322,0.4666,,,1.52963,,365.0
337,2014,1,"1/124 MOUNTAINVIEW ROAD, BRIAR HILL",-37.70777,145.118891,3088,209011202,209011202,House,2.0,1.0,1,22.88095,0.85575,0.6077,1.37532,1.5483399999999998,,,,295.0
338,2014,8,"1/126 WATTLE VALLEY ROAD, CAMBERWELL",-37.837583,145.080986,3124,207011149,207011149,Apartment,2.0,1.0,1,12.04038,1.01055,0.49706,1.5359200000000002,1.17384,,2.50727,,375.0
339,2014,12,"1/126 WATTLE VALLEY ROAD, CAMBERWELL",-37.837583,145.080986,3124,207011149,207011149,Apartment,2.0,1.0,1,12.04038,1.01055,0.49706,1.5359200000000002,1.17384,,2.50727,,375.0
340,2014,8,"1/1271 MALVERN ROAD, MALVERN",-37.852317,145.0359209,3144,208041194,208041194,Apartment,1.0,1.0,0,10.5677,0.52147,0.5154,1.34949,1.0755,,1.02629,,317.0
341,2014,12,"1/1271 MALVERN ROAD, MALVERN",-37.852317,145.0359209,3144,208041194,208041194,Apartment,1.0,1.0,0,10.5677,0.52147,0.5154,1.34949,1.0755,,1.02629,,310.0
342,2014,2,"1/128 LUDSTONE STREET, HAMPTON",-37.932906,145.003915,3188,208011172,208011172,House,3.0,2.0,2,16.10724,0.19979,0.08984,0.31721,1.07683,1.47882,,,650.0
343,2014,3,"1/128 LUDSTONE STREET, HAMPTON",-37.932906,145.003915,3188,208011172,208011172,House,3.0,2.0,2,16.10724,0.19979,0.08984,0.31721,1.07683,1.47882,,,650.0
344,2014,6,"1/1280 PRINCES HIGHWAY, KILLARNEY",-38.344219,142.312416,3283,217041478,217041478,Apartment,1.0,1.0,1,278.37613,7.98788,9.27487,30.01208,8.55751,9.87856,9.20639,,200.0
345,2014,9,"1/1280 PRINCES HIGHWAY, KILLARNEY",-38.344219,142.312416,3283,217041478,217041478,Apartment,1.0,1.0,1,278.37613,7.98788,9.27487,30.01208,8.55751,9.87856,9.20639,,200.0
346,2014,5,"1/1298 MAIN ROAD, ELTHAM",-37.70358,145.16218,3095,209031209,209031209,Apartment,2.0,1.0,2,26.14735,1.97993,1.34326,2.35992,2.03695,,2.12901,,320.0
347,2014,8,"1/13 CRESWICK STREET, HAWTHORN",-37.816897,145.016621,3122,207011519,207011151,Apartment,2.0,1.0,1,5.437939999999999,0.15662,0.83825,,1.61949,,,,390.0
348,2014,5,"1/13 DAVID STREET, ALTONA",-37.868457,144.825549,3018,213021341,213021341,House,3.0,2.0,2,18.71704,0.6417999999999999,0.37098,1.55618,0.46208,0.39623,,,530.0
349,2014,2,"1/13 ELM STREET, BAYSWATER",-37.844388,145.261212,3153,211011251,211011251,House,3.0,3.0,2,33.87345,1.28317,0.22222,0.6339199999999999,1.10507,,,0.77447,450.0
350,2014,12,"1/13 FERGUSON COURT, FERNTREE GULLY",-37.882487,145.266342,3156,211011448,211011448,Apartment,3.0,1.0,1,37.42577,2.26567,0.97252,3.25316,4.2894,5.40544,,1.084,350.0
351,2014,1,"1/13 FOX STREET, BENDIGO",-36.750679,144.298469,3550,202011020,202011020,House,3.0,1.0,1,153.27628,,3.25418,2.3023200000000004,,,,,340.0
352,2014,5,"1/13 LATHAM STREET, BENTLEIGH EAST",-37.91299,145.06697,3165,208021426,208021426,House,3.0,1.0,2,21.35923,2.48948,1.07476,1.33594,,2.29067,,,420.0
353,2014,5,"1/13 MELALEUCA DRIVE, GLEN WAVERLEY",-37.891175,145.156955,3150,212051322,212051322,House,4.0,2.0,2,23.84268,0.60641,1.19711,2.61373,1.87465,,,2.68868,530.0
354,2014,6,"1/13 MELALEUCA DRIVE, GLEN WAVERLEY",-37.891175,145.156955,3150,212051322,212051322,House,4.0,2.0,2,23.84268,0.60641,1.19711,2.61373,1.87465,,,2.68868,500.0
355,2014,7,"1/13 MELALEUCA DRIVE, GLEN WAVERLEY",-37.891175,145.156955,3150,212051322,212051322,House,4.0,2.0,2,23.84268,0.60641,1.19711,2.61373,1.87465,,,2.68868,530.0
356,2014,7,"1/13 PEARSON STREET, BAIRNSDALE",-37.823574,147.627299,3875,205021081,205021081,House,2.0,2.0,1,281.08909,3.41466,1.21154,0.7974600000000001,1.28715,2.56544,1.56078,,225.0
357,2014,2,"1/131 CHANDLER ROAD, NOBLE PARK",-37.975664,145.185842,3174,212041460,212041460,House,3.0,2.0,1,33.7425,1.64398,1.80719,,0.83441,,,,320.0
358,2014,9,"1/133 DUNDAS STREET, THORNBURY",-37.7535447,145.0128539,3071,209021428,209021428,House,3.0,2.0,2,9.81822,2.48858,1.65523,1.78118,2.14865,1.76801,2.73971,3.43521,520.0
359,2014,1,"1/135 MELVILLE ROAD, BRUNSWICK WEST",-37.758989,144.944568,3055,206011107,206011107,House,3.0,1.0,2,7.57763,0.26249,0.37693,0.1346399999999999,,,,,600.0
360,2014,2,"1/138 WINDERMERE DRIVE, FERNTREE GULLY",-37.897276,145.263946,3156,211011448,211011448,House,3.0,1.0,2,39.18736,0.23758,1.92703,3.88112,5.33896,6.45499,,2.25868,380.0
361,2014,9,"1/139 EAST STREET, HADFIELD",-37.703693,144.951016,3046,210031440,210031440,Apartment,2.0,1.0,1,13.81808,0.3174599999999999,1.09741,,2.15476,,2.71911,,300.0
362,2014,5,"1/14 HUTCHINSON STREET, BENTLEIGH",-37.923988,145.047247,3204,208021174,208021174,House,3.0,2.0,2,19.71937,,0.80276,0.8849199999999999,1.4307,,2.17341,,680.0
363,2014,7,"1/14 HUTCHINSON STREET, BENTLEIGH",-37.923988,145.047247,3204,208021174,208021174,House,3.0,2.0,2,19.71937,,0.80276,0.8849199999999999,1.4307,,2.17341,,650.0
364,2014,10,"1/14 IRVING AVENUE, PRAHRAN EAST",-37.858351,145.007408,3181,206061136,206061136,Apartment,2.0,1.0,1,9.23918,,0.98227,1.75419,1.7608,,2.13699,,400.0
365,2014,2,"1/14 NAPIER STREET, MORNINGTON",-38.231883,145.031562,3931,214021592,214021380,House,4.0,2.0,2,74.87474,1.3368,2.02912,1.30582,,,2.55689,,450.0
366,2014,9,"1/14 STANFORD CLOSE, FAWKNER",-37.695984,144.965563,3060,210031237,210031237,Apartment,2.0,1.0,1,14.75452,2.24549,0.48874,0.1798199999999999,2.3528,,,,330.0
367,2014,4,"1/14 STAWELL STREET, BALLARAT",-37.561168,143.884624,3350,201011481,201011003,House,2.0,1.0,1,112.34353,0.49161,1.20279,1.05043,0.6163,,,,220.0
368,2014,1,"1/14 SYNNOTT STREET, HAMLYN HEIGHTS",-38.125534,144.336335,3215,203021040,203021040,House,3.0,1.0,1,74.99251,2.16431,0.75781,0.36444,,,,,300.0
369,2014,7,"1/14 WARRIGAL ROAD, SURREY HILLS",-37.827281,145.099337,3127,207011155,207011155,Apartment,2.0,1.0,1,13.27331,1.14076,1.12825,2.36066,0.5705800000000001,,,,340.0
370,2014,9,"1/14 YALLAMBEE DRIVE, KENNINGTON",-36.76291,144.302104,3550,202011020,202011020,House,2.0,1.0,1,153.92901999999998,,1.1156700000000002,1.70975,,,,,180.0
371,2014,10,"1/145 ROSLYN ROAD, BELMONT",-38.17503,144.335216,3216,203021037,203021037,House,2.0,1.0,1,84.85388,0.72225,0.48352,0.55936,,,,,280.0
372,2014,10,"1/145 SPLIT ROCK ROAD, BEACONSFIELD UPPER",-37.999315,145.437971,3808,212011289,212011289,House,4.0,3.0,2,57.311150000000005,1.72103,5.45086,13.45359,10.87755,,11.846290000000002,,180.0
373,2014,3,"1/147 MOUNT ELIZA WAY, MOUNT ELIZA",-38.188425,145.090251,3930,214021381,214021381,House,2.0,2.0,1,62.34736,2.48403,0.8401000000000001,0.60857,5.97747,,,,485.0
374,2014,10,"1/148 CUTHBERT STREET, BROADMEADOWS",-37.683084,144.921097,3047,210051242,210051242,House,2.0,1.0,1,16.32593,1.2842,0.482,1.1148,0.09663,,1.5149,1.71585,345.0
375,2014,5,"1/15 ABBOTT STREET, BENDIGO",-36.7614281,144.2888561,3550,202011018,202011018,House,3.0,2.0,1,152.57366,2.4471100000000003,1.31778,1.11634,0.89378,2.40188,2.74243,1.39877,450.0
376,2014,6,"1/15 ABBOTT STREET, BENDIGO",-36.7614281,144.2888561,3550,202011018,202011018,House,3.0,2.0,1,152.57366,2.4471100000000003,1.31778,1.11634,0.89378,2.40188,2.74243,1.39877,450.0
377,2014,7,"1/15 ABBOTT STREET, BENDIGO",-36.7614281,144.2888561,3550,202011018,202011018,House,3.0,2.0,1,152.57366,2.4471100000000003,1.31778,1.11634,0.89378,2.40188,2.74243,1.39877,450.0
378,2014,5,"1/15 BEACH AVENUE, ELWOOD",-37.885544,144.986013,3184,206051129,206051129,Apartment,2.0,1.0,1,10.03578,0.5318099999999999,0.71402,0.85164,,,0.88442,,450.0
379,2014,9,"1/15 DION ROAD, GLEN WAVERLEY",-37.892678,145.167041,3150,212051321,212051321,House,3.0,1.0,1,24.51807,0.90914,0.7406900000000001,1.23063,,,1.35617,,390.0
380,2014,7,"1/15 HARTINGTON STREET, GLENROY",-37.700251,144.916124,3046,210031535,210031438,House,2.0,1.0,1,14.08266,0.9879,1.26692,1.33849,,,,,360.0
381,2014,8,"1/15 HARTINGTON STREET, GLENROY",-37.700251,144.916124,3046,210031535,210031438,House,2.0,1.0,1,14.08266,0.9879,1.26692,1.33849,,,,,360.0
382,2014,11,"1/15 HARTINGTON STREET, GLENROY",-37.700251,144.916124,3046,210031535,210031438,House,2.0,1.0,1,14.08266,0.9879,1.26692,1.33849,,,,,360.0
383,2014,1,"1/15 HAYDEN STREET, HOPPERS CROSSING",-37.877324,144.687586,3029,213051362,213051362,House,2.0,1.0,1,29.48063,0.79427,0.46301,1.84891,,,,,245.0
384,2014,4,"1/15 JURGA COURT, ALTONA",-37.862082,144.846454,3018,213021341,213021341,Apartment,1.0,1.0,1,16.98649,0.38332,1.20399,3.51556,1.88039,2.72482,,,200.0
385,2014,5,"1/15 JURGA COURT, ALTONA",-37.862082,144.846454,3018,213021341,213021341,Apartment,1.0,1.0,1,16.98649,0.38332,1.20399,3.51556,1.88039,2.72482,,,200.0
386,2014,2,"1/15 LEYDEN STREET, BRUNSWICK EAST",-37.774395,144.973507,3057,206011106,206011106,House,2.0,1.0,1,4.53962,0.33759,0.53239,,,,,,550.0
387,2014,2,"1/15 MUNRO STREET, KEW EAST",-37.7916,145.062064,3102,207011154,207011154,House,2.0,2.0,1,11.68342,0.97499,1.63708,0.59511,,,,1.48444,530.0
388,2014,11,"1/15 PINE AVENUE, NORTH SHORE",-38.099157,144.372353,3214,203021488,203021038,House,3.0,1.0,2,68.35491999999999,2.18527,1.99209,4.76649,1.0766099999999998,,1.99909,,300.0
389,2014,1,"1/15 POWLETT STREET, HEIDELBERG",-37.753599,145.058328,3084,209011198,209011198,Apartment,2.0,1.0,1,15.3557,1.08372,1.10802,1.35283,0.7143999999999999,0.37612,1.33422,,380.0
390,2014,5,"1/15 QUEEN STREET, COBRAM",-35.92183,145.647508,3644,216021411,216021411,House,3.0,1.0,1,251.36658,2.5331,0.6259199999999999,1.58614,0.53314,1.13485,0.48747,,230.0
391,2014,9,"1/15 QUEEN STREET, COBRAM",-35.92183,145.647508,3644,216021411,216021411,House,3.0,1.0,1,251.36658,2.5331,0.6259199999999999,1.58614,0.53314,1.13485,0.48747,,260.0
392,2014,11,"1/15 ROSS STREET, DONCASTER EAST",-37.789638,145.143947,3109,207021425,207021425,House,4.0,2.0,2,19.79564,1.14364,0.2367,2.33936,,,1.63086,3.05245,455.0
393,2014,7,"1/15-17 ARLINGTON STREET, RINGWOOD",-37.819638,145.225008,3134,211031266,211031266,Apartment,2.0,1.0,1,27.31177,1.07267,1.1164,1.29971,0.6963400000000001,,0.91437,1.25355,315.0
394,2014,10,"1/15-17 GREAT OCEAN ROAD, JAN JUC",-38.339287,144.308398,3228,203031053,203031053,House,2.0,2.0,2,104.63293,1.25063,2.65423,3.0322,,,2.90094,,300.0
395,2014,5,"1/151 GRAND BOULEVARD, MONTMORENCY",-37.720594,145.13378,3094,209011202,209011202,House,1.0,1.0,1,23.34333,1.70095,0.6702400000000001,3.84192,1.91576,,,,265.0
396,2014,6,"1/151 GRAND BOULEVARD, MONTMORENCY",-37.720594,145.13378,3094,209011202,209011202,House,1.0,1.0,1,23.34333,1.70095,0.6702400000000001,3.84192,1.91576,,,,265.0
397,2014,7,"1/151 GRAND BOULEVARD, MONTMORENCY",-37.720594,145.13378,3094,209011202,209011202,House,1.0,1.0,1,23.34333,1.70095,0.6702400000000001,3.84192,1.91576,,,,265.0
398,2014,5,"1/155 PHILLIPSON STREET, WANGARATTA",-36.343379,146.30708,3677,204021066,204021066,Apartment,2.0,1.0,1,242.5058,2.1763000000000003,0.51054,0.15537,3.54284,1.7373599999999998,2.78519,,190.0
399,2014,3,"1/156 CASEY DRIVE, LALOR",-37.674569,145.039227,3075,209041529,209041219,House,3.0,1.0,1,19.14,3.61161,1.8727,1.24875,,,,,290.0
400,2014,4,"1/156 CASEY DRIVE, LALOR",-37.674569,145.039227,3075,209041529,209041219,House,3.0,1.0,1,19.14,3.61161,1.8727,1.24875,,,,,290.0
401,2014,4,"1/156A NAPIER STREET, ESSENDON",-37.748213,144.9194251,3040,206031502,206031114,Apartment,1.0,1.0,1,9.87605,1.11725,0.83005,0.99046,0.5176799999999999,,0.90097,,240.0
402,2014,11,"1/158 BALCOMBE ROAD, MENTONE",-37.980605,145.062069,3194,208031190,208031190,House,3.0,2.0,2,25.23598,0.78475,0.8534299999999999,0.69376,0.63786,,0.58205,1.52071,550.0
403,2014,1,"1/158 DERBY STREET, PASCOE VALE",-37.722484,144.947852,3044,210031538,210031239,House,2.0,1.0,1,11.80317,0.84819,0.27435,0.65532,,,,,280.0
404,2014,5,"1/16 BRUSHY PARK ROAD, WONGA PARK",-37.758607,145.290638,3115,211021262,211021262,House,3.0,2.0,2,36.83171,4.85642,4.636229999999999,1.35227,,,10.91013,,450.0
405,2014,6,"1/16 BRUSHY PARK ROAD, WONGA PARK",-37.758607,145.290638,3115,211021262,211021262,House,3.0,2.0,2,36.83171,4.85642,4.636229999999999,1.35227,,,10.91013,,430.0
406,2014,10,"1/16 PLOVER STREET, LARA",-38.036075,144.414509,3212,203021043,203021043,House,3.0,1.0,1,60.87583,3.83251,2.95643,2.71013,1.77465,,3.19696,,370.0
407,2014,11,"1/16 PLOVER STREET, LARA",-38.036075,144.414509,3212,203021043,203021043,House,3.0,1.0,1,60.87583,3.83251,2.95643,2.71013,1.77465,,3.19696,,350.0
408,2014,5,"1/160 HIGH STREET, DONCASTER",-37.776805,145.113901,3108,207021157,207021157,Apartment,2.0,1.0,1,16.707009999999997,3.48557,1.02091,0.2671,,,,2.27439,330.0
409,2014,11,"1/1618 HIGH STREET, GLEN IRIS",-37.860289,145.058041,3146,208041194,208041194,Apartment,2.0,1.0,0,12.1082,1.3601500000000002,0.86421,2.31121,0.38377,,2.66968,,340.0
410,2014,3,"1/162 EXFORD ROAD, MELTON SOUTH",-37.718917,144.572648,3338,213041578,213041357,House,3.0,2.0,1,49.47799,,1.0913199999999998,1.59225,1.9534,,,,260.0
411,2014,5,"1/163 BRIDGE STREET, PORT MELBOURNE",-37.8361,144.942062,3207,206051130,206051130,House,3.0,2.0,0,4.95779,0.65783,1.03707,,0.5165299999999999,,0.81763,,825.0
412,2014,6,"1/163 BRIDGE STREET, PORT MELBOURNE",-37.8361,144.942062,3207,206051130,206051130,House,3.0,2.0,0,4.95779,0.65783,1.03707,,0.5165299999999999,,0.81763,,825.0
413,2014,2,"1/164 KERR STREET, FITZROY",-37.797268,144.981356,3065,206071142,206071142,House,3.0,3.0,2,2.92422,1.13652,0.38806,0.91828,1.74905,2.19402,0.97846,,810.0
414,2014,4,"1/166 CANADIAN BAY ROAD, MOUNT ELIZA",-38.187042,145.09146,3930,214021381,214021381,House,2.0,1.0,1,61.524260000000005,2.31014,1.20244,0.34698,6.339810000000001,,,,275.0
415,2014,1,"1/167 BENTONS ROAD, MORNINGTON",-38.24722,145.050685,3931,214021591,214021380,Apartment,2.0,1.0,2,72.86908,4.39984,4.18485,1.26718,2.8780300000000003,,,,350.0
416,2014,3,"1/17 BEDDOE AVENUE, CLAYTON",-37.90863,145.128127,3168,212051567,212051320,House,3.0,2.0,1,21.75455,2.23382,1.02739,2.31098,,,,,530.0
417,2014,5,"1/17 BRAMWELL CLOSE, ENDEAVOUR HILLS",-37.99160385,145.26370239,3802,212021454,212021454,Apartment,2.0,1.0,1,37.70939,0.22555,0.88736,5.128220000000001,,,,3.17075,290.0
418,2014,1,"1/17 CAREY STREET, HAMLYN HEIGHTS",-38.126115,144.329349,3215,203021040,203021040,Apartment,1.0,1.0,1,74.94559,1.83105,1.1303599999999998,0.38005,,,,,220.0
419,2014,3,"1/17 CAREY STREET, HAMLYN HEIGHTS",-38.126115,144.329349,3215,203021040,203021040,Apartment,1.0,1.0,1,74.94559,1.83105,1.1303599999999998,0.38005,,,,,220.0
420,2014,3,"1/17 KENT STREET, RICHMOND",-37.814298,145.000483,3121,206071518,206071144,House,2.0,2.0,1,3.91068,1.98673,0.8556,0.46131,1.23148,,0.42756,,620.0
421,2014,4,"1/17 OAK GROVE, RIPPONLEA",-37.876075,144.996486,3185,206051134,206051134,Apartment,2.0,1.0,1,9.87664,2.25452,2.40303,1.19818,0.1216899999999999,,1.79002,,330.0
422,2014,9,"1/17 PINE STREET, THOMASTOWN",-37.676345,145.024048,3074,209041223,209041223,House,3.0,1.0,1,17.737779999999997,,0.60577,2.80159,1.73574,,1.79705,,275.0
423,2014,11,"1/17 PRINCE STREET, WURRUK",-38.105755,147.0396206,3850,205051103,205051103,Apartment,2.0,1.0,1,211.08311,1.83244,0.17462,3.15309,4.07544,,2.67216,,260.0
424,2014,5,"1/17 WOLSELEY CLOSE, MONT ALBERT",-37.819414,145.103234,3127,207031167,207031167,Apartment,2.0,1.0,1,13.158,,0.89673,,0.46073,,,,360.0
425,2014,5,"1/172 QUEEN STREET, ALTONA",-37.870399,144.823527,3018,213021341,213021341,House,3.0,1.0,1,19.07564,0.8263400000000001,0.36626,1.57369,0.8304199999999999,0.5807599999999999,,,350.0
426,2014,6,"1/174-178 RIVERSDALE ROAD, HAWTHORN",-37.829858,145.041057,3122,207011520,207011151,Apartment,1.0,1.0,2,8.53816,1.1524,0.86363,1.21651,1.74107,,1.34224,,430.0
427,2014,7,"1/174-178 RIVERSDALE ROAD, HAWTHORN",-37.829858,145.041057,3122,207011520,207011151,Apartment,1.0,1.0,2,8.53816,1.1524,0.86363,1.21651,1.74107,,1.34224,,400.0
428,2014,8,"1/174-178 RIVERSDALE ROAD, HAWTHORN",-37.829858,145.041057,3122,207011520,207011151,Apartment,1.0,1.0,2,8.53816,1.1524,0.86363,1.21651,1.74107,,1.34224,,380.0
429,2014,5,"1/1751 DANDENONG ROAD, OAKLEIGH EAST",-37.902229,145.108761,3166,212051326,212051326,House,4.0,3.0,2,20.35064,3.91331,0.6815399999999999,1.1733,3.2880700000000003,3.10656,3.05849,,600.0
430,2014,6,"1/1751 DANDENONG ROAD, OAKLEIGH EAST",-37.902229,145.108761,3166,212051326,212051326,House,4.0,3.0,2,20.35064,3.91331,0.6815399999999999,1.1733,3.2880700000000003,3.10656,3.05849,,600.0
431,2014,8,"1/18 DAREBIN STREET, HEIDELBERG",-37.7543405,145.0681465,3084,209011198,209011198,House,3.0,1.0,2,14.67545,0.7778400000000001,0.08857,0.6725800000000001,0.92301,1.24772,0.5449700000000001,,430.0
432,2014,9,"1/18 DAREBIN STREET, HEIDELBERG",-37.7543405,145.0681465,3084,209011198,209011198,House,3.0,1.0,2,14.67545,0.7778400000000001,0.08857,0.6725800000000001,0.92301,1.24772,0.5449700000000001,,430.0
433,2014,10,"1/18 FOREST LANE, BENDIGO",-36.7534053,144.2716947,3550,202011018,202011018,Apartment,2.0,1.0,1,151.38657999999998,0.8059299999999999,0.92243,0.55284,2.08831,1.68173,1.97223,1.26247,210.0
434,2014,5,"1/18 HOPETOUN AVENUE, MORWELL",-38.236358,146.403144,3840,205041096,205041096,Apartment,2.0,1.0,1,152.06798,0.98404,0.82311,0.73034,0.79269,1.74238,1.73889,,140.0
435,2014,6,"1/18 HOPETOUN AVENUE, MORWELL",-38.236358,146.403144,3840,205041096,205041096,Apartment,2.0,1.0,1,152.06798,0.98404,0.82311,0.73034,0.79269,1.74238,1.73889,,140.0
436,2014,8,"1/18 LEICESTER STREET, BALWYN NORTH",-37.790672,145.102493,3104,207011148,207011148,House,3.0,2.0,2,15.47431,1.65295,1.04328,1.54918,,,,,600.0
437,2014,9,"1/18 LEICESTER STREET, BALWYN NORTH",-37.790672,145.102493,3104,207011148,207011148,House,3.0,2.0,2,15.47431,1.65295,1.04328,1.54918,,,,,600.0
438,2014,2,"1/181 MELROSE DRIVE, TULLAMARINE",-37.702599,144.881726,3043,210051250,210051250,House,3.0,2.0,1,16.32646,0.57053,0.2202899999999999,,,,,,400.0
439,2014,3,"1/181 MELROSE DRIVE, TULLAMARINE",-37.702599,144.881726,3043,210051250,210051250,House,3.0,2.0,1,16.32646,0.57053,0.2202899999999999,,,,,,400.0
440,2014,9,"1/181 MELROSE DRIVE, TULLAMARINE",-37.702599,144.881726,3043,210051250,210051250,House,3.0,2.0,1,16.32646,0.57053,0.2202899999999999,,,,,,400.0
441,2014,1,"1/182 QUEEN STREET, ALTONA",-37.870501,144.822575,3018,213021341,213021341,House,3.0,2.0,1,19.09067,0.84137,0.38129,1.58872,0.84546,0.5958,,,270.0
442,2014,10,"1/1834 GEELONG ROAD, MOUNT HELEN",-37.6240328,143.8785974,3350,201011005,201011005,House,3.0,1.0,2,120.70041,3.32791,4.494770000000001,,,,4.02655,,330.0
443,2014,9,"1/19 ALVINA STREET, FERNTREE GULLY",-37.879154,145.288076,3156,211011447,211011447,Apartment,3.0,2.0,2,38.08892,0.60777,1.08596,0.54615,1.5858,,2.25391,,360.0
444,2014,4,"1/19 CREEK STREET, BENDIGO",-36.762898,144.275096,3550,202011018,202011018,House,2.0,2.0,1,150.54678,1.96031,0.82636,0.59269,2.10865,2.56256,1.13242,0.9672,525.0
445,2014,6,"1/19 CREEK STREET, BENDIGO",-36.762898,144.275096,3550,202011018,202011018,House,2.0,2.0,1,150.54678,1.96031,0.82636,0.59269,2.10865,2.56256,1.13242,0.9672,475.0
446,2014,10,"1/19 CREEK STREET, BENDIGO",-36.762898,144.275096,3550,202011018,202011018,House,2.0,2.0,1,150.54678,1.96031,0.82636,0.59269,2.10865,2.56256,1.13242,0.9672,450.0
447,2014,11,"1/19 CREEK STREET, BENDIGO",-36.762898,144.275096,3550,202011018,202011018,House,2.0,2.0,1,150.54678,1.96031,0.82636,0.59269,2.10865,2.56256,1.13242,0.9672,450.0
448,2014,4,"1/19 HUNTER STREET, GLEN WAVERLEY",-37.874613,145.150297,3150,212051322,212051322,House,3.0,2.0,0,23.92045,2.81068,0.42767,0.63791,0.8070900000000001,,,1.849,450.0
449,2014,5,"1/19 HUNTER STREET, GLEN WAVERLEY",-37.874613,145.150297,3150,212051322,212051322,House,3.0,2.0,0,23.92045,2.81068,0.42767,0.63791,0.8070900000000001,,,1.849,450.0
450,2014,2,"1/19 LATIMER STREET, BENALLA",-36.558283,145.966444,3672,204021063,204021063,House,2.0,1.0,1,200.00248,0.8627,1.25873,1.47983,3.10456,3.50281,1.36804,,160.0
451,2014,3,"1/19 LATIMER STREET, BENALLA",-36.558283,145.966444,3672,204021063,204021063,House,2.0,1.0,1,200.00248,0.8627,1.25873,1.47983,3.10456,3.50281,1.36804,,100.0
452,2014,12,"1/19 PENDLE STREET, BOX HILL",-37.817572,145.13517,3128,207031163,207031163,House,3.0,2.0,2,21.18809,0.47483,0.88463,0.79879,1.79707,2.2689,1.14117,1.77075,505.0
453,2014,1,"1/19 TIUNA GROVE, ELWOOD",-37.884865,144.982312,3184,206051129,206051129,Apartment,2.0,1.0,1,9.79114,0.69652,0.5412100000000001,0.67884,,,0.71161,,425.0
454,2014,11,"1/19-21 JASPER TERRACE, FRANKSTON SOUTH",-38.156683,145.11952,3199,214011373,214011373,House,3.0,2.0,2,56.09127,1.00783,2.4868200000000003,1.2386199999999998,,,,,380.0
455,2014,5,"1/191 COPPARDS ROAD, MOOLAP",-38.162555,144.404772,3221,203021045,203021045,Apartment,2.0,1.0,1,83.55369999999999,,1.4149,2.35719,,,,,285.0
456,2014,6,"1/191 COPPARDS ROAD, MOOLAP",-38.162555,144.404772,3221,203021045,203021045,Apartment,2.0,1.0,1,83.55369999999999,,1.4149,2.35719,,,,,275.0
457,2014,10,"1/192-196 SHERBOURNE ROAD, MONTMORENCY",-37.717299,145.136692,3094,209011202,209011202,House,3.0,1.0,1,23.421290000000003,1.99523,1.29999,3.0429,2.21004,,,,390.0
458,2014,8,"1/198 ABERDEEN STREET, GEELONG WEST",-38.145173,144.336409,3218,203021040,203021040,Apartment,1.0,1.0,1,77.25836,4.43017,1.56155,2.47194,,,,,180.0
459,2014,4,"1/1A VILLAMANTA STREET, GEELONG WEST",-38.1463509,144.3519798,3218,203021040,203021040,Apartment,1.0,1.0,1,78.60991,5.78172,1.46104,3.82034,,,,,230.0
460,2014,5,"1/1A VILLAMANTA STREET, GEELONG WEST",-38.1463509,144.3519798,3218,203021040,203021040,Apartment,1.0,1.0,1,78.60991,5.78172,1.46104,3.82034,,,,,230.0
461,2014,5,"1/2 ASCOT COURT, GLEN WAVERLEY",-37.89129,145.146546,3150,212051322,212051322,House,3.0,2.0,2,21.88704,2.6677600000000004,2.72687,3.29988,2.24112,,,3.90409,455.0
462,2014,6,"1/2 ASCOT COURT, GLEN WAVERLEY",-37.89129,145.146546,3150,212051322,212051322,House,3.0,2.0,2,21.88704,2.6677600000000004,2.72687,3.29988,2.24112,,,3.90409,445.0
463,2014,7,"1/2 ASCOT COURT, GLEN WAVERLEY",-37.89129,145.146546,3150,212051322,212051322,House,3.0,2.0,2,21.88704,2.6677600000000004,2.72687,3.29988,2.24112,,,3.90409,455.0
464,2014,11,"1/2 AVOCA AVENUE, ELWOOD",-37.874205,144.983887,3184,206051129,206051129,Apartment,2.0,1.0,1,8.37499,1.7313900000000002,1.09412,0.33493,,,0.96208,,490.0
465,2014,12,"1/2 AVOCA AVENUE, ELWOOD",-37.874205,144.983887,3184,206051129,206051129,Apartment,2.0,1.0,1,8.37499,1.7313900000000002,1.09412,0.33493,,,0.96208,,475.0
466,2014,3,"1/2 COLES COURT, BEAUMARIS",-37.979485,145.047122,3193,208011168,208011168,Apartment,2.0,1.0,1,23.51933,0.98502,0.94915,1.34548,,,1.98931,2.37151,360.0
467,2014,6,"1/2 EILEEN ST, GLENROY",-37.708274,144.9404082,3046,210031440,210031440,House,2.0,1.0,1,13.51602,1.59899,0.77687,,3.87089,,3.06163,,315.0
468,2014,1,"1/2 FINCH STREET, BURWOOD",-37.851738,145.12391,3125,207031165,207031165,House,3.0,2.0,2,17.09132,1.19842,0.70393,1.1881700000000002,,3.21718,2.39957,,500.0
469,2014,8,"1/2 FINCH STREET, BURWOOD",-37.851738,145.12391,3125,207031165,207031165,House,3.0,2.0,2,17.09132,1.19842,0.70393,1.1881700000000002,,3.21718,2.39957,,500.0
470,2014,9,"1/2 JASON STREET, OAKLEIGH SOUTH",-37.918186,145.10673,3167,212051326,212051326,House,3.0,2.0,1,21.87428,0.71416,0.46273,2.75123,1.11792,3.99534,4.16215,,395.0
471,2014,4,"1/2 LORRAINE COURT, HILLSIDE",-37.703834533691,144.744003295898,3875,213041575,213041355,House,3.0,1.0,1,29.08333,,0.9435,,,,,,310.0
472,2014,5,"1/2 LORRAINE COURT, HILLSIDE",-37.703834533691,144.744003295898,3875,213041575,213041355,House,3.0,1.0,1,29.08333,,0.9435,,,,,,310.0
473,2014,1,"1/2 MANNA GUM COURT, NARRE WARREN",-38.040243,145.315242,3805,212021456,212021456,Apartment,2.0,1.0,2,45.1657,1.33898,0.58033,5.88727,2.84924,,,3.89544,280.0
474,2014,10,"1/2 MCDOWALL STREET, MITCHAM",-37.812568,145.19457,3132,211041270,211041270,Apartment,2.0,1.0,1,24.49018,0.62874,0.50326,0.70592,0.82838,,,,260.0
475,2014,11,"1/2 MELALEUCA DRIVE, CARRUM",-38.071662,145.127473,3197,208031185,208031185,Apartment,2.0,1.0,1,48.37418,1.84599,0.97277,,1.03395,,,,310.0
476,2014,10,"1/2 REEVE PLACE, ROWVILLE",-37.918141,145.254752,3178,211011256,211011256,House,3.0,2.0,2,36.093,1.09043,1.0776400000000002,1.70013,,,,,380.0
477,2014,5,"1/2 SCOTT GROVE, SOMERVILLE",-38.220823,145.174519,3912,214021385,214021385,House,3.0,2.0,1,63.40605,1.54892,0.73756,1.60192,1.25797,,,,370.0
478,2014,4,"1/20 DUNNE STREET, KINGSBURY",-37.7144563,145.0237531,3083,209021205,209021205,House,2.0,1.0,1,13.79349,2.91136,1.2145899999999998,0.51539,3.00679,2.81958,,4.13159,260.0
479,2014,5,"1/20 DUNNE STREET, KINGSBURY",-37.7144563,145.0237531,3083,209021205,209021205,House,2.0,1.0,1,13.79349,2.91136,1.2145899999999998,0.51539,3.00679,2.81958,,4.13159,260.0
480,2014,1,"1/20 NICKLESS STREET, CHILTERN",-36.154388,146.603242,3683,204031070,204031070,House,2.0,1.0,1,281.53809,6.92868,1.15015,,0.93296,,1.15144,,200.0
481,2014,2,"1/20 NORFOLK STREET, MOONEE PONDS",-37.764039,144.90855,3039,206031116,206031116,House,3.0,1.0,1,8.07375,0.7392799999999999,0.78126,,1.26768,0.42905,2.09439,,395.0
482,2014,5,"1/20 PALM AVENUE, FLORA HILL",-36.787329,144.289872,3550,202011021,202011021,Apartment,1.0,1.0,1,152.38822,,1.57424,2.3698,,,,,180.0
483,2014,10,"1/20 RANDELL STREET, PARKDALE",-37.999353,145.080947,3195,208031193,208031193,Apartment,2.0,1.0,2,27.85646,1.31349,1.29684,2.98575,0.94788,1.3321500000000002,1.21171,2.64426,375.0
484,2014,7,"1/20 TROOD STREET, SALE",-38.092168,147.072161,3850,205051103,205051103,Apartment,2.0,1.0,1,218.38073,0.98112,1.29709,1.07004,3.16012,,3.15577,,160.0
485,2014,1,"1/200 WOODS POINT ROAD, EAST WARBURTON",-37.749666,145.719685,3799,211051286,211051286,Apartment,2.0,1.0,0,78.18109,6.174600000000001,2.20754,7.6479,,,3.41574,,230.0
486,2014,9,"1/203 QUEEN STREET, BENDIGO",-36.7672591,144.2726179,3550,202011018,202011018,House,2.0,1.0,1,149.98292,2.1945900000000003,1.1783800000000002,0.5847100000000001,2.12,3.24381,1.04762,1.31923,290.0
487,2014,12,"1/2072 FIFTEENTH STREET, IRYMPLE",-34.229914,142.163219,3498,215021395,215021395,Apartment,2.0,1.0,1,536.67713,7.55703,0.8655900000000001,0.4842599999999999,2.00356,,,,215.0
488,2014,4,"1/209 CRAIGIEBURN ROAD, CRAIGIEBURN",-37.597976,144.928021,3064,210051443,210051443,Apartment,3.0,1.0,1,26.81986,,0.73112,2.85187,3.57245,,,,280.0
489,2014,5,"1/209 CRAIGIEBURN ROAD, CRAIGIEBURN",-37.597976,144.928021,3064,210051443,210051443,Apartment,3.0,1.0,1,26.81986,,0.73112,2.85187,3.57245,,,,280.0
490,2014,8,"1/209 CRAIGIEBURN ROAD, CRAIGIEBURN",-37.597976,144.928021,3064,210051443,210051443,Apartment,3.0,1.0,1,26.81986,,0.73112,2.85187,3.57245,,,,280.0
491,2014,11,"1/21 BALLATER STREET, ESSENDON",-37.748828,144.904805,3040,206031501,206031114,House,2.0,1.0,1,9.93804,1.37469,1.0019,0.73999,,,,,380.0
492,2014,12,"1/21 BALLATER STREET, ESSENDON",-37.748828,144.904805,3040,206031501,206031114,House,2.0,1.0,1,9.93804,1.37469,1.0019,0.73999,,,,,370.0
493,2014,1,"1/21 BIESKE ROAD, GROVEDALE",-38.207151,144.33559,3216,203021487,203021041,House,2.0,1.0,1,87.35654,,0.72782,1.14517,,,,,290.0
494,2014,5,"1/21 CARDINIA WAY, ROWVILLE",-37.918983,145.247145,3178,211011256,211011256,Apartment,3.0,1.0,2,35.286550000000005,1.01269,1.1396700000000002,1.90074,,,,,340.0
495,2014,8,"1/21 EGAN STREET, DIAMOND CREEK",-37.677068,145.158537,3089,209031215,209031215,Apartment,2.0,1.0,1,29.30821,0.6833899999999999,0.80003,1.14557,0.84484,,0.4617699999999999,,335.0
496,2014,5,"1/21 FLORENCE STREET, MENTONE",-37.982228,145.061056,3194,208031190,208031190,Apartment,2.0,1.0,1,25.29605,0.55288,1.04753,0.88786,0.83196,,0.48804,1.71482,360.0
497,2014,9,"1/21 HARTINGTON STREET, KEW",-37.801366,145.041812,3101,207011522,207011153,Apartment,2.0,1.0,1,7.75992,0.40924,1.37034,2.82944,,2.70792,,1.45974,420.0
498,2014,8,"1/21 KOOYONGA GROVE, MORNINGTON",-38.241346,145.034798,3931,214021592,214021380,House,3.0,2.0,2,74.56567999999999,3.05209,3.5069,2.74277,,,4.411,,380.0
499,2014,10,"1/21 LATROBE STREET, FOOTSCRAY",-37.797753,144.889748,3011,213031348,213031348,Apartment,2.0,1.0,1,8.14616,0.3323399999999999,0.41467,0.43811,0.8980199999999999,1.19858,1.66085,,270.0
500,2014,11,"1/21 NORWAY AVENUE, BLACKBURN",-37.812418,145.143845,3130,207031161,207031161,House,3.0,2.0,3,20.4895,1.01642,1.3233199999999998,0.83272,1.79481,,,1.14706,650.0
501,2014,9,"1/21 ROSS STREET, NIDDRIE",-37.735961,144.890259,3042,210011230,210011230,House,3.0,1.0,2,11.53891,2.44782,1.2578900000000002,2.1529000000000003,,,,,425.0
502,2014,2,"1/21-23 CORMAC STREET, PRESTON",-37.747745,145.013943,3072,209021428,209021428,House,2.0,1.0,1,10.33941,1.83994,0.93697,1.28668,1.47016,0.58802,2.02959,2.78657,430.0
503,2014,4,"1/210 PATTERSON ROAD, BENTLEIGH",-37.927022,145.0457,3204,208021174,208021174,House,3.0,2.0,2,19.48905,,0.8766900000000001,0.5373600000000001,0.99314,,1.94309,,505.0
504,2014,12,"1/212 STATION STREET, EDITHVALE",-38.037052,145.108627,3196,208031189,208031189,House,2.0,1.0,2,47.09513,0.90321,0.53237,2.17872,0.08945,,,,410.0
505,2014,5,"1/215 WOOD STREET, PRESTON",-37.734489,145.012384,3072,209021428,209021428,House,2.0,1.0,1,11.17508,2.17023,0.89783,1.34915,1.66777,1.84509,1.53181,2.04355,450.0
506,2014,10,"1/216 BETHANY RD, TARNEIT",-37.852702,144.6692859,3029,213051361,213051361,House,3.0,2.0,1,31.06294,5.56063,3.07635,1.2907,5.7656,,,,310.0
507,2014,5,"1/219 MERRIANG SOUTH ROAD, MYRTLEFORD",-36.591475,146.687915,3737,204031071,204031071,Apartment,2.0,1.0,1,290.72171999999995,5.85441,6.84964,7.111680000000001,6.35475,7.02902,6.35386,,190.0
508,2014,8,"1/22 CHAMBERS STREET, COBURG",-37.748545,144.968059,3058,206011497,206011108,Apartment,2.0,1.0,1,7.90709,0.6751,0.61687,0.6356799999999999,,,,,320.0
509,2014,5,"1/22 MANNY PAUL CIRCUT, BURNSIDE HEIGHTS",-37.7280178,144.7572181,3023,213041462,213041462,House,3.0,2.0,2,32.780910000000006,,1.43033,,,,,,400.0
510,2014,5,"1/22 MANNY-PAUL CIRCUT, BURNSIDE HEIGHTS",-37.7280178,144.7572181,3023,213041462,213041462,House,3.0,2.0,3,32.780910000000006,,1.43033,,,,,,400.0
511,2014,4,"1/22 MORWELL AVENUE, BANGHOLME",-38.0373707,145.1870226,3175,212041564,212041311,Apartment,2.0,1.0,0,40.22972,5.91545,0.21868,,7.07544,,,,270.0
512,2014,12,"1/22 OTWAY STREET, LORNE",-38.537427,143.972128,3232,203031049,203031049,House,4.0,2.0,1,141.74944,0.52767,30.02096,,,1.44087,0.8032999999999999,,550.0
513,2014,4,"1/22 TONELLI CIRCUIT, MILL PARK",-37.664913,145.049221,3082,209041221,209041221,House,3.0,1.0,1,22.64636,,0.32354,,,,,,330.0
514,2014,9,"1/22 TONELLI CIRCUIT, MILL PARK",-37.664913,145.049221,3082,209041221,209041221,House,3.0,1.0,1,22.64636,,0.32354,,,,,,330.0
515,2014,12,"1/22 WILMOT STREET, MACLEOD",-37.731177,145.078424,3085,209011203,209011203,House,3.0,2.0,1,17.35172,1.5575899999999998,1.27929,1.18569,1.1281199999999998,,,,450.0
516,2014,3,"1/222 MASON STREET, NEWPORT",-37.840137,144.864982,3015,213021344,213021344,House,2.0,1.0,1,13.17393,0.7183999999999999,0.91446,2.3179000000000003,2.2497800000000003,,2.10952,,470.0
517,2014,4,"1/222 MASON STREET, NEWPORT",-37.840137,144.864982,3015,213021344,213021344,House,2.0,1.0,1,13.17393,0.7183999999999999,0.91446,2.3179000000000003,2.2497800000000003,,2.10952,,470.0
518,2014,6,"1/222 STEPHENSONS ROAD, MOUNT WAVERLEY",-37.872214,145.130013,3149,212051323,212051323,House,3.0,2.0,2,22.80085,0.92325,0.29968,0.55986,0.5672999999999999,,,,440.0
519,2014,3,"1/227 HURD STREET, PORTLAND",-38.3280039,141.6018827,3305,217011422,217011422,Apartment,1.0,1.0,1,357.71365999999995,2.61537,2.90125,2.53848,3.08746,1.81474,3.52812,,200.0
520,2014,4,"1/229 GLENGALA ROAD, SUNSHINE WEST",-37.787811,144.801778,3020,213011338,213011338,House,3.0,1.0,2,22.57617,0.29366,0.35438,0.38099,0.6376900000000001,,,,335.0
521,2014,11,"1/23 BEARD STREET, ELTHAM",-37.708154,145.16082,3095,209031209,209031209,House,3.0,2.0,2,26.13657,1.69833,0.97794,2.40227,1.86816,,1.61189,,420.0
522,2014,12,"1/23 BELLANY ROAD, BELGRAVE SOUTH",-37.940956,145.363292,3160,211051274,211051274,Apartment,2.0,1.0,0,47.11338,1.95371,1.91992,5.68384,4.95582,,5.53346,,370.0
523,2014,6,"1/23 COUNTRY CLUB DRIVE, CLIFTON SPRINGS",-38.146674,144.574985,3222,203031048,203031048,House,2.0,1.0,1,102.19076,3.41834,2.61238,3.82206,4.582649999999999,,3.40588,,275.0
524,2014,10,"1/23 COUNTRY CLUB DRIVE, CLIFTON SPRINGS",-38.146674,144.574985,3222,203031048,203031048,House,2.0,1.0,1,102.19076,3.41834,2.61238,3.82206,4.582649999999999,,3.40588,,275.0
525,2014,6,"1/23 HARTPURY AVENUE, ELWOOD",-37.875875,144.989335,3184,206051129,206051129,Apartment,2.0,1.0,1,8.63359,2.04875,0.98097,0.8241499999999999,,,1.12138,,390.0
526,2014,8,"1/23 HULL STREET, HAWTHORN",-37.8185421,145.0389562,3122,207011519,207011151,Apartment,1.0,1.0,1,7.34415,0.6462899999999999,2.26999,,1.86528,,,,300.0
527,2014,8,"1/23 LAURIE STREET, NEWPORT",-37.843181,144.870213,3015,213021344,213021344,House,3.0,2.0,2,12.87363,0.5930599999999999,0.3490899999999999,1.75253,1.94948,,1.80922,,495.0
528,2014,12,"1/23 LEX GROVE, OAK PARK",-37.718731,144.924126,3046,210031537,210031239,Apartment,2.0,1.0,1,12.12704,0.2897099999999999,0.8894,0.80833,0.41858,,,,365.0
529,2014,10,"1/23 OUTLOOK WAY, SUNBURY",-37.595262,144.724468,3429,210041540,210041241,House,3.0,2.0,2,40.9128,0.26854,0.64173,,1.99598,,,,370.0
530,2014,12,"1/23 POWLETT STREET, ALTONA MEADOWS",-37.86752,144.78184,3028,213021342,213021342,Apartment,2.0,1.0,2,22.858220000000003,0.70968,0.30825,,,,,,280.0
531,2014,3,"1/23 WILANA STREET, RINGWOOD",-37.816566,145.232972,3134,211031266,211031266,Apartment,2.0,1.0,2,28.09087,0.53052,0.07717,0.65861,0.56177,,1.01214,0.65131,320.0
532,2014,2,"1/23-25 CHARLES STREET, BENTLEIGH EAST",-37.917226,145.05554,3165,208021426,208021426,Apartment,2.0,1.0,1,19.00147,3.07096,0.50273,1.49139,,1.82666,,,370.0
533,2014,4,"1/23-33 CAMBRIDGE STREET, BOX HILL",-37.820813,145.120743,3128,207031163,207031163,House,3.0,2.0,1,19.76421,1.29567,1.47216,0.91715,0.55069,1.51945,1.20619,1.19616,440.0
534,2014,5,"1/230 MELROSE DRIVE, TULLAMARINE",-37.696424,144.878309,3043,210051250,210051250,House,2.0,1.0,1,19.91684,0.88954,1.14643,,,,,,230.0
535,2014,7,"1/230 MELROSE DRIVE, TULLAMARINE",-37.696424,144.878309,3043,210051250,210051250,House,2.0,1.0,1,19.91684,0.88954,1.14643,,,,,,250.0
536,2014,1,"1/230 WAVERLEY ROAD, MOUNT WAVERLEY",-37.883342,145.112582,3149,212051324,212051324,House,4.0,2.0,2,18.62322,1.00379,0.42774,3.5233000000000003,,4.242970000000001,1.80868,7.55917,450.0
537,2014,9,"1/235-239 CANTERBURY ROAD, BAYSWATER NORTH",-37.829912,145.277665,3153,211031263,211031263,House,2.0,2.0,1,32.71614,2.78814,2.57209,,,,,,350.0
538,2014,5,"1/239 BEECHWORTH ROAD, WODONGA",-36.131454,146.886129,3690,204031492,204031074,House,2.0,1.0,2,313.03503,0.92025,0.62698,0.4790299999999999,1.92045,0.90955,1.36134,,230.0
539,2014,12,"1/239 BEECHWORTH ROAD, WODONGA",-36.131454,146.886129,3690,204031492,204031074,Apartment,2.0,1.0,2,313.03503,0.92025,0.62698,0.4790299999999999,1.92045,0.90955,1.36134,,230.0
540,2014,2,"1/24 HIGHLAND STREET, KINGSBURY",-37.716684,145.039047,3083,209021205,209021205,House,2.0,2.0,1,14.5674,1.17145,0.14878,1.37277,1.66396,1.47676,,2.78877,360.0
541,2014,7,"1/24 KENVARRA CRESCENT, JAN JUC",-38.342852,144.297861,3228,203031053,203031053,House,3.0,1.0,2,105.34931,2.51622,3.75041,3.80213,,,4.34662,,300.0
542,2014,1,"1/24 NEWHAM WAY, ALTONA MEADOWS",-37.873613,144.772919,3028,213021342,213021342,Apartment,2.0,1.0,2,23.77698,1.18982,1.25405,,,,,,260.0
543,2014,4,"1/24 WILLIAM STREET, RINGWOOD",-37.807432,145.223634,3134,211031266,211031266,Apartment,2.0,1.0,1,27.74139,1.73702,1.79206,1.81139,1.60952,,1.18835,1.32939,300.0
544,2014,12,"1/240 HOLDEN STREET, FITZROY NORTH",-37.780614,144.989368,3068,206071143,206071143,Apartment,2.0,1.0,1,5.20509,1.25463,0.76522,0.72749,0.59082,,,,420.0
545,2014,8,"1/244 BEACONSFIELD PARADE, MIDDLE PARK",-37.853054,144.960497,3206,206051128,206051128,Apartment,1.0,1.0,0,6.33654,1.95586,1.0871300000000002,1.89646,0.8496699999999999,,4.34141,,475.0
546,2014,9,"1/244 BEACONSFIELD PARADE, MIDDLE PARK",-37.853054,144.960497,3206,206051128,206051128,Apartment,1.0,1.0,0,6.33654,1.95586,1.0871300000000002,1.89646,0.8496699999999999,,4.34141,,475.0
547,2014,1,"1/247 INKERMAN STREET, BALACLAVA",-37.865602,144.991882,3183,206051134,206051134,Apartment,2.0,1.0,0,7.92166,0.7175199999999999,1.1526500000000002,0.8334900000000001,0.82937,,0.40754,,380.0
548,2014,8,"1/247 RIVERSDALE ROAD, HAWTHORN EAST",-37.829904,145.045348,3123,207011152,207011152,Apartment,2.0,1.0,1,8.91169,1.2135,1.2163499999999998,1.3701500000000002,1.1068,,,,420.0
549,2014,9,"1/247 RIVERSDALE ROAD, HAWTHORN EAST",-37.829904,145.045348,3123,207011152,207011152,Apartment,2.0,1.0,1,8.91169,1.2135,1.2163499999999998,1.3701500000000002,1.1068,,,,400.0
550,2014,10,"1/247 RIVERSDALE ROAD, HAWTHORN EAST",-37.829904,145.045348,3123,207011152,207011152,Apartment,2.0,1.0,1,8.91169,1.2135,1.2163499999999998,1.3701500000000002,1.1068,,,,370.0
551,2014,2,"1/247 VICTORIA ROAD, NORTHCOTE",-37.765824,145.011739,3070,206021499,206021111,House,2.0,2.0,1,8.879940000000001,0.5335599999999999,1.75617,1.39989,1.70454,,1.2646400000000002,,560.0
552,2014,3,"1/247 VICTORIA ROAD, NORTHCOTE",-37.765824,145.011739,3070,206021499,206021111,House,2.0,2.0,1,8.879940000000001,0.5335599999999999,1.75617,1.39989,1.70454,,1.2646400000000002,,560.0
553,2014,11,"1/247 VICTORIA ROAD, NORTHCOTE",-37.765824,145.011739,3070,206021499,206021111,House,2.0,2.0,1,8.879940000000001,0.5335599999999999,1.75617,1.39989,1.70454,,1.2646400000000002,,545.0
554,2014,7,"1/24A DICKENS STREET, ELWOOD",-37.8729792,144.9825975,3184,206051513,206051133,House,2.0,1.0,1,8.195889999999999,0.6994400000000001,1.29198,0.40748,,,,,430.0
555,2014,8,"1/24A DICKENS STREET, ELWOOD",-37.8729792,144.9825975,3184,206051513,206051133,House,2.0,1.0,1,8.195889999999999,0.6994400000000001,1.29198,0.40748,,,,,380.0
556,2014,9,"1/24A DICKENS STREET, ELWOOD",-37.8729792,144.9825975,3184,206051513,206051133,House,2.0,1.0,1,8.195889999999999,0.6994400000000001,1.29198,0.40748,,,,,349.0
557,2014,10,"1/25 BALES STREET, MOUNT WAVERLEY",-37.886539,145.121202,3149,212051324,212051324,House,4.0,3.0,2,19.69689,0.64639,0.76207,2.92513,,3.64481,1.21052,6.603680000000001,575.0
558,2014,11,"1/25 GREGORY GROVE, PRESTON",-37.738485,145.013422,3072,209021428,209021428,House,4.0,2.0,2,10.78517,1.5343099999999998,0.76849,0.95924,1.27785,1.45518,1.1419,2.05348,500.0
559,2014,1,"1/25 HOURIGAN AVENUE, CLAYTON",-37.917441,145.12482,3168,212051568,212051320,House,3.0,2.0,1,22.98674,0.09964,1.16235,0.78459,1.1821400000000002,0.82759,0.64039,,400.0
560,2014,3,"1/25 MILFORD STREET, BENTLEIGH EAST",-37.9300107,145.0558855,3165,208021427,208021427,House,4.0,2.0,1,20.66982,2.34686,1.08246,0.59626,,,1.20927,,550.0
561,2014,4,"1/25 MILFORD STREET, BENTLEIGH EAST",-37.9300107,145.0558855,3165,208021427,208021427,House,4.0,2.0,1,20.66982,2.34686,1.08246,0.59626,,,1.20927,,550.0
562,2014,4,"1/25 SURF AVENUE, SKENES CREEK",-38.723352,143.717316,3233,217031476,217031476,House,3.0,2.0,2,195.43498,20.5271,33.07105,13.91667,37.53427,6.379899999999999,6.63624,,380.0
563,2014,8,"1/25 SURF AVENUE, SKENES CREEK",-38.723352,143.717316,3233,217031476,217031476,House,3.0,2.0,2,195.43498,20.5271,33.07105,13.91667,37.53427,6.379899999999999,6.63624,,380.0
564,2014,5,"1/25 SYLVESTER GROVE, PRESTON",-37.737768,145.014927,3072,209021428,209021428,Apartment,2.0,1.0,1,10.98498,1.59307,0.32088,1.15225,1.47766,1.65499,1.34171,2.11224,350.0
565,2014,9,"1/253 GLENGALA ROAD, SUNSHINE WEST",-37.787447,144.799637,3020,213011338,213011338,House,3.0,1.0,1,22.384400000000003,0.19057,0.2408,0.39635,0.58209,,,,290.0
566,2014,7,"1/26 ADDIS STREET, GEELONG WEST",-38.14430618,144.33843994,3218,203021040,203021040,Apartment,3.0,1.0,1,77.24273,4.41453,1.5459200000000002,2.45315,,,,,270.0
567,2014,8,"1/26 ADDIS STREET, GEELONG WEST",-38.14430618,144.33843994,3218,203021040,203021040,Apartment,3.0,1.0,1,77.24273,4.41453,1.5459200000000002,2.45315,,,,,270.0
568,2014,9,"1/26 BARINGA STREET, MOUNT WAVERLEY",-37.87376,145.140129,3149,212051323,212051323,House,2.0,1.0,1,22.67967,1.8648,0.74337,0.76842,1.90758,,,,350.0
569,2014,7,"1/26 HINKLER ROAD, GLEN WAVERLEY",-37.879691,145.16921,3150,212051321,212051321,House,4.0,2.0,2,25.21863,1.3459100000000002,1.18995,2.72544,,,2.05008,,595.0
570,2014,2,"1/26 LATHAM STREET, BENTLEIGH EAST",-37.913764,145.068941,3165,208021426,208021426,House,3.0,1.0,2,21.17521,2.30546,1.18952,1.51996,,2.47469,,,400.0
571,2014,9,"1/26 REDFERN ROAD, HAWTHORN EAST",-37.83019,145.052737,3123,207011152,207011152,House,3.0,2.0,2,9.38449,1.47444,1.56622,1.72002,1.58155,,,,825.0
572,2014,12,"1/26 RIVERSIDE DRIVE, WARBURTON",-37.755893,145.704563,3799,211051286,211051286,House,3.0,1.0,0,76.74122,4.73473,0.24003,6.20803,,,1.97586,,270.0
573,2014,3,"1/26 STEPHEN ST, GISBORNE",-37.48771,144.584514,3437,210021232,210021232,House,3.0,2.0,1,53.7399,0.55831,0.68441,1.93096,3.97918,,0.54461,,425.0
574,2014,3,"1/26 STEPHEN STREET, GISBORNE",-37.48771,144.584514,3437,210021232,210021232,House,3.0,2.0,1,53.7399,0.55831,0.68441,1.93096,3.97918,,0.54461,,425.0
575,2014,4,"1/260 WATTLETREE ROAD, MALVERN",-37.864131,145.039381,3144,208041194,208041194,Apartment,2.0,1.0,1,12.09287,0.44689,0.86646,1.55921,1.4132,,1.91768,,320.0
576,2014,8,"1/265 TWELFTH STREET, MILDURA",-34.180731,142.142929,3500,215021469,215021469,House,2.0,2.0,1,544.8148100000001,0.79134,1.31076,1.86966,3.12587,0.77892,2.69845,,280.0
577,2014,6,"1/266 MELROSE DRIVE, TULLAMARINE",-37.69381,144.875387,3043,210051250,210051250,Apartment,2.0,1.0,1,19.87109,0.8437899999999999,1.10068,,,,,,285.0
578,2014,1,"1/27 GLADSTONE PARADE, GLENROY",-37.708066,144.911848,3046,210031536,210031438,House,3.0,2.0,2,13.39196,0.42049,0.65822,0.4344599999999999,0.7410399999999999,,0.8033899999999999,,421.0
579,2014,2,"1/27 HIGH ROAD, CAMBERWELL",-37.843,145.057631,3124,207011149,207011149,Apartment,1.0,1.0,0,11.61993,2.44602,1.73376,2.87032,2.39458,,1.70073,,230.0
580,2014,10,"1/27 MOUNT PLEASANT ROAD, BELMONT",-38.171342,144.345571,3216,203021037,203021037,House,3.0,2.0,1,81.18835,0.54548,0.31173,1.9126,,,,,385.0
581,2014,9,"1/27 PRINCETON TERRACE, BUNDOORA",-37.701320648193,145.071960449219,3083,209011196,209011196,Apartment,1.0,1.0,1,17.98387,0.7345,0.92422,1.63327,,,,,280.0
582,2014,3,"1/27 ST GEORGES ROAD, ARMADALE",-37.86045,145.021967,3143,206061135,206061135,Apartment,2.0,1.0,1,10.30653,0.90744,1.37021,,0.6802,,,,395.0
583,2014,11,"1/27 ST GEORGES ROAD, ARMADALE",-37.86045,145.021967,3143,206061135,206061135,Apartment,2.0,1.0,1,10.30653,0.90744,1.37021,,0.6802,,,,380.0
584,2014,5,"1/273 ST KILDA STREET, BRIGHTON",-37.907932,144.98727,3186,208011169,208011169,Apartment,2.0,1.0,1,12.4102,1.8558,1.90525,1.20333,1.77142,0.86058,2.18593,,460.0
585,2014,11,"1/278 MACKENZIE STRET, BIG HILL",-36.7929564,144.2317931,3555,202011022,202011022,House,1.0,1.0,1,146.96639000000002,,0.8061,0.29855,1.83502,,,,190.0
586,2014,1,"1/28 ARMADALE STREET, ARMADALE",-37.859143,145.018717,3143,206061135,206061135,Apartment,2.0,1.0,1,9.80776,1.03724,1.50001,,0.30733,,,,385.0
587,2014,12,"1/28 BENNETT STREET, RICHMOND",-37.812612,145.005917,3121,206071518,206071144,Apartment,1.0,1.0,1,4.11779,1.63705,0.50451,1.19727,0.90737,,1.16353,,360.0
588,2014,1,"1/28 GREY STREET, ST KILDA",-37.860334,144.97847,3182,206051514,206051133,Apartment,2.0,1.0,0,7.613869999999999,1.39895,0.43554,1.11209,0.30006,,,,450.0
589,2014,4,"1/28 GREY STREET, ST KILDA",-37.860334,144.97847,3182,206051514,206051133,Apartment,2.0,1.0,0,7.613869999999999,1.39895,0.43554,1.11209,0.30006,,,,450.0
590,2014,9,"1/28 GREY STREET, ST KILDA",-37.860334,144.97847,3182,206051514,206051133,Apartment,2.0,1.0,0,7.613869999999999,1.39895,0.43554,1.11209,0.30006,,,,420.0
591,2014,8,"1/28 HOLLOWAY STREET, ORMOND",-37.902103,145.047886,3204,208021182,208021182,Apartment,2.0,1.0,1,16.99013,0.94637,1.1761199999999998,,1.20201,,1.9541,,295.0
592,2014,12,"1/28 MALCLIFF ROAD, NEWHAVEN",-38.51121,145.354203,3925,205031091,205031091,House,3.0,2.0,1,125.72848,5.34465,0.51293,0.00564,,,15.98661,,285.0
593,2014,6,"1/28-30 JERSEY STREET, BALWYN",-37.81296,145.077113,3103,207011147,207011147,Apartment,2.0,1.0,2,10.63285,0.49354,0.5985199999999999,1.27212,,,0.6515299999999999,,400.0
