Beds,Baths,Parking,Area,Address,Latitude,Longitude,Price
2,2,1,,202/4 Chapel Mews South Yarra VIC 3141,-37.83562879999999,144.9971116,600000000.0
,,,,667 Glenhuntly Road Caulfield VIC 3162,-37.8860233,145.0173065,38000000000.0
,,2,,Upstairs 2C Staley Street Brunswick VIC 3056,-37.7655919,144.9633048,35000000000.0
,,,,"Level 3, 302/13-15 Lake Street Caroline Springs VIC 3023",-37.7316459,144.7446886,20500000546.0
3,3,3,,3502/14-16 The Esplanade St Kilda VIC 3182,-37.8650177,144.9746821,6000000000.0
3,2,3,700m²,9 Lansdowne Street Blairgowrie VIC 3942,-38.372703,144.7856897,5000000000.0
3,4,3,900m²,52 Black St Brighton VIC 3186,-37.9159452,144.9989003,5500000000.0
3,2,4,,4203/35 Spring Street Melbourne VIC 3000,-37.8141725,144.9740049,4500000000.0
6,4,2,,440 Keys Road Flinders VIC 3929,-38.4788173,144.9643428,4000.0
4,3,,,335 The Esplanade Indented Head VIC 3223,-38.1439923,144.7147899,4047500725.0
5,6,3,,50 South Wharf Drive Docklands VIC 3008,-37.8223967,144.938237,3750000000.0
3,3,1,,901 &amp; 902/85 Market Street South Melbourne VIC 3205,-37.8301164,144.9569041,3750.0
5,4,5,,9 Keith Court Brighton VIC 3186,-37.9171837,144.9882699,3500.0
5,4,2,,7 Haverbrack Avenue Malvern VIC 3144,-37.8534875,145.0311415,3500000000.0
4,3,2,,27 Moffat Street Brighton VIC 3186,-37.9229499,144.9973078,3200.0
6,4,4,,Brighton VIC 3186,-37.9043383,144.9931825,1550105384.0
3,2,1,,7302/462 Elizabeth Street Melbourne VIC 3000,-37.807859,144.960611,3100000000.0
4,3,2,509m²,2B Mulgoa Street Brighton VIC 3186,-37.9025755,144.988376,3000000000.0
4,3,2,,5 Wellington Street Brighton VIC 3186,-37.915482,144.9891089,2995000000.0
4,4,2,,1 Bronte Court Hampton VIC 3188,-37.9399869,145.0199068,3000000000.0
2,,,,3607/80 A'Beckett Street Melbourne VIC 3000,-37.8090372,144.9610905,3000000000.0
3,2,2,,2202/14-16 The Esplanade St Kilda VIC 3182,-37.8650177,144.9746821,3000000000.0
5,4,3,,Brighton VIC 3186,-37.9044002,144.9997396,2900666172.0
3,3,3,,251/350 St Kilda Road Melbourne VIC 3000,-37.831142,144.9708545,2800000000.0
3,2,2,,2601/14-16 The Esplanade St Kilda VIC 3182,-37.8650177,144.9746821,2700000000.0
4,3,2,,42 Dendy Street Brighton VIC 3186,-37.9200549,144.9957406,2600.0
4,3,1,,119-121 Palmerston Street Carlton VIC 3053,-37.7965569,144.9711271,2600000000.0
4,4,3,,231/299 Queen Street Melbourne VIC 3000,-37.8114187,144.9587916,2600.0
18,5,,,15 Webster Street Malvern East VIC 3145,-37.887544,145.087289,120000.0
5,3,2,"1,056m²",46-48 Wells Road Beaumaris VIC 3193,-37.9837637,145.0499964,2500.0
4,2,,,Blairgowrie VIC 3942,-38.3645949,144.7686693,2500000000.0
4,2,3,,133 North Road Brighton VIC 3186,-37.8988631,145.0019562,2500000000.0
4,4,2,,3 Knight Street Elwood VIC 3184,-37.880361,144.9889154,2500000000.0
3,3,2,,5401/464 Collins Street Melbourne VIC 3000,-37.8175602,144.9585916,2500000000.0
4,2,4,"3,000m²",3 Stonecutters Road Portsea VIC 3944,-38.334205,144.725559,2500000000.0
4,2,,529m²,Richmond VIC 3121,-37.8270184,144.9997611,2500000000.0
2,,,,62 william street St Albans VIC 3021,-37.737358,144.815952,2500000000.0
3,2,2,,3203/14-16 The Esplanade St Kilda VIC 3182,-37.8650177,144.9746821,2500000000.0
4,2,2,,46 Leviens Road St Leonards VIC 3223,-38.1792023,144.7079338,1250007336.0
3,3,1,,21 Mathoura Road Toorak VIC 3142,-37.8472801,145.0067771,2500.0
4,2,2,,21 Iona Avenue Toorak VIC 3142,-37.8486962,145.0161183,2500.0
4,3,3,,24 Montalto Avenue Toorak VIC 3142,-37.8439084,145.0125453,2500000000.0
3,2,2,,4a Fetherston Street Armadale VIC 3143,-37.85662,145.018182,2400.0
5,3,4,,27 Grandview Road Brighton VIC 3186,-37.9016247,145.0047756,2400.0
3,2,2,,1/2 SHANDFORD Avenue Brighton VIC 3186,-37.9013936,144.9849778,2400.0
3,2,2,,241/299 Queen Street Melbourne VIC 3000,-37.8114751,144.9586205,2500000000.0
5,3,3,,23 Bay Street Brighton VIC 3186,-37.9033023,144.9869653,2250.0
5,3,2,,478 New Street Brighton VIC 3186,-37.8929745,144.9956723,2200000000.0
4,3,,,12 The Heights Sorrento VIC 3943,-38.32832519999999,144.7353897,2200000000.0
4,2,2,,4 Cowper Street Sandringham VIC 3191,-37.95440749999999,145.0067771,2150.0
5,3,4,,8 Champion Street Brighton VIC 3186,-37.927999,145.0033766,2100.0
4,4,4,,2a Omar Street Caulfield South VIC 3162,-37.8903662,145.0205525,2100.0
3,,1,,22 Campbell Street Frankston VIC 3199,-38.1444939,145.1433389,2100000000.0
4,2,2,,802/181 Fitzroy St St Kilda VIC 3182,-37.8577879,144.9811923,2100000000.0
3,2,2,,UNIT 2707/35 SPRING STREET Melbourne VIC 3000,-37.8141725,144.9740049,2050000000.0
4,2,3,,19 Iona Street Black Rock VIC 3193,-37.973172,145.0166374,2000000000.0
3,3,3,,4/19 Birdwood Avenue Brighton VIC 3186,-37.8942781,144.9867852,2000.0
4,3,2,,2 Winmarleigh Close Brighton VIC 3186,-37.9245614,144.9889585,2000.0
5,2,2,,8 St Finbars Crescent Brighton East VIC 3187,-37.9169,145.0147997,1995.0
5,2,2,,8 St Finbars Crescent Brighton East VIC 3187,-37.9169,145.0147997,1995.0
3,2,3,18.12m²,25/26 Little Cardigan Street Carlton VIC 3053,-37.8040783,144.9654614,2000.0
7,2,2,,163 Victoria Parade Fitzroy VIC 3065,-37.808286,144.9804809,2000.0
3,2,,,3803/483 Swanston Street Melbourne VIC 3000,-37.8073886,144.962087,2000000000.0
3,2,2,,2105/368 St Kilda Road Melbourne VIC 3004,-37.8318086,144.9710272,2000208549.0
3,3,2,,12/786 Esplanade Mornington VIC 3931,-38.2165108,145.0357942,2000000000.0
4,3,2,,8 Canadian Bay Road Mount Eliza VIC 3930,-38.1737559,145.0814604,2000000000.0
3,2,1,,Rye VIC 3941,-38.377,144.838,1000005253.0
2,2,1,,85 Market Street South Melbourne VIC 3205,-37.8302556,144.9579151,2000.0
2,2,1,,1002/243 Toorak Road South Yarra VIC 3141,-37.8392541,144.995015,2000000000.0
3,3,2,,23A Bruce Street Toorak VIC 3142,-37.8368651,145.0082406,2000000000.0
4,2,,,5 Brently Close Narre Warren North VIC 3804,-37.9923682,145.3012059,480000000.0
6,3,2,,73 Gardenvale Road Gardenvale VIC 3185,-37.8983488,145.0093598,1950.0
4,3,2,,52 Sargood Street Hampton VIC 3188,-37.9427326,145.0114045,1950000000.0
3,2,3,,2301/1 Almeida Crescent South Yarra VIC 3141,-37.8390089,144.9954417,1800000000.0
3,2,1,,1203/57 City Road Southbank VIC 3006,-37.8220137,144.9659363,1950000000.0
2,,1,,102/326-328 Burwood Highway Burwood VIC 3125,-37.851238,145.123104,1912000000.0
4,3,2,,7 Wagstaff Court Brighton VIC 3186,-37.9040743,144.9974369,1900000000.0
4,2,3,,51 Were Street Brighton VIC 3186,-37.9245941,144.993133,1900.0
3,3,2,,2/10 Asling Street Brighton VIC 3186,-37.9042083,145.0021284,1900.0
4,4,2,,120 Glen Huntly Road Elwood VIC 3184,-37.8831984,144.9894319,1900000000.0
3,,2,37.16m²,21 Belair Avenue Glenroy VIC 3046,-37.7042489,144.9111431,1900000000.0
5,2,2,,22 Ethel Street Malvern VIC 3144,-37.8475835,145.0382487,1900.0
4,2,4,,70 Queens Road Pearcedale VIC 3912,-38.2070033,145.2290927,1900000000.0
4,3,4,,9 Exon Street Brighton VIC 3186,-37.9218363,144.9971144,1890.0
4,4,2,,11 Hansens Lane Balnarring Beach VIC 3926,-38.3926971,145.1241122,1995000000.0
5,3,2,,140 Dendy Street Brighton East VIC 3187,-37.921372,145.0083913,1850.0
4,2,4,,5 Alimar Court Brighton VIC 3186,-37.8967832,144.9872371,1800.0
5,2,2,,19 Moule Avenue Brighton VIC 3186,-37.9052991,144.9865485,1800.0
3,2,2,,1302/1 Powlett Street East Melbourne VIC 3002,-37.8161275,144.984988,1800.0
3,2,1,,7/126 Wellington Parade East Melbourne VIC 3002,-37.8162107,144.9859245,1800000000.0
2,2,2,,1501/601 St Kilda Road Melbourne VIC 3004,-37.8504751,144.981546,1800000000.0
4,3,2,,112 Harold St Middle Park VIC 3206,-37.851786,144.9581506,1799678397.0
4,3,2,,24 Dreadnought Street Sandringham VIC 3191,-37.9527473,145.0172376,1800000000.0
3,2,2,,417/250 St Kilda Road Southbank VIC 3006,-37.8255907,144.9705826,1800000000.0
3,2,2,,1/125 High St Prahran VIC 3181,-37.851373,144.990978,1799000000.0
3,2,2,,1307/14 Queens Road Melbourne VIC 3004,-37.8389211,144.9749946,1750000000.0
3,3,2,,301/130 Bay Street Port Melbourne VIC 3207,-37.8406272,144.9407724,1750000000.0
4,3,2,,9 Watson Road Sorrento VIC 3943,-38.34437800000001,144.7402295,875009517.0
4,2,1,,12 Gurner Street St Kilda VIC 3182,-37.8615448,144.980653,1750.0
4,2,,179m²,53 Hambleton Street Albert Park VIC 3206,-37.8459438,144.9584503,1700.0
4,3,3,,14 Mackie Grove Brighton East VIC 3187,-37.9082205,145.0202942,1700.0
3,3,2,,238B Were Street Brighton East VIC 3187,-37.9276055,145.0145686,1700.0
3,3,2,,501/8-10 New Street Richmond VIC 3121,-37.81359399999999,144.992457,1700000000.0
2,2,1,,76 Millswyn Street South Yarra VIC 3141,-37.8356144,144.980566,1700.0
5,2,2,711m²,4 Newbay Crescent Brighton VIC 3186,-37.9048689,144.991408,1690.0
5,3,2,250m²,1 Marine Avenue St Kilda VIC 3182,-37.873865,144.977457,1595000000.0
4,2,2,,41 Bay Street Brighton VIC 3186,-37.9036436,144.9894542,1650.0
3,3,2,,24 Dante Lane Elwood VIC 3184,-37.882053,144.983447,1650000000.0
3,2,2,,1906/12 Queens Rd Melbourne VIC 3004,-37.8384194,144.9747126,1650.0
5,2,4,,25 Holroyd Avenue St Kilda East VIC 3183,-37.8644429,145.0070354,1650.0
3,2,,,5701/260 City Rd Southbank VIC 3006,-37.8260239,144.9595477,1615000000.0
12,3,6,,110 Beevers Street Footscray VIC 3011,-37.7958415,144.9060052,85000.0
3,2,2,,1209/14 Queens Road Melbourne VIC 3004,-37.8389211,144.9749946,1600000000.0
3,2,2,,1604/250 St Kilda Road Melbourne VIC 3004,-37.8259165,144.9705248,1600000000.0
4,2,2,,75 Rennison Street Parkdale VIC 3195,-37.9970369,145.079791,1600000000.0
4,2,2,,14 Evelyn Street Bentleigh VIC 3204,-37.9186389,145.0502279,1550.0
5,3,,,201 Cardigan Carlton VIC 3053,-37.8020773,144.964928,1550000000.0
5,3,4,,7 Bonanza Road Beaumaris VIC 3193,-37.980529,145.0519862,2000000000.0
4,2,2,,35 St James Park Drive Brighton VIC 3186,-37.9030025,144.9976091,1500000000.0
4,2,4,,43 Black Street Brighton VIC 3186,-37.9156204,144.9983193,1500.0
4,2,2,,17 Durrant St Brighton VIC 3186,-37.9085183,145.0031184,1500000000.0
4,4,4,,685 Hampton Street Brighton VIC 3186,-37.9249853,145.0045376,1500000000.0
4,3,2,,2B Parklands Crescent Brighton East VIC 3187,-37.9159403,145.0226836,1500000000.0
4,2,2,,9 Farnsworth Drive Cape Schanck VIC 3939,-38.456316,144.891532,1500000000.0
5,3,2,100m²,4/18-22 Islington Street Collingwood VIC 3066,-37.8083229,144.9908124,1500000000.0
1,,1,,East Melbourne VIC 3002,-37.8161444,144.9804594,1500000000.0
5,3,4,,30 Gough Street Elsternwick VIC 3185,-37.8935491,145.0074658,1500000000.0
3,2,2,,304/2 Pine Avenue Elwood VIC 3184,-37.8865296,144.9889161,1500000000.0
4,2,2,,11 Olive St Hampton VIC 3188,-37.9326791,145.0200144,1500.0
3,2,2,,71B Orlando Street Hampton VIC 3188,-37.93645009999999,144.9982116,1500000000.0
4,2,2,,1/8 Glenview Avenue Malvern VIC 3144,-37.8540125,145.0364677,1700000000.0
2,3,2,,113/350 St Kilda Road Melbourne VIC 3004,-37.831142,144.9708545,1500000000.0
3,3,2,,12A/635-643 St Kilda Road Melbourne VIC 3004,-37.8543122,144.9826011,1500.0
4,3,,,4/15-19 Anthony Street Melbourne VIC 3000,-37.809144,144.958903,1500000000.0
5,3,3,,9 Woodland Avenue Mount Eliza VIC 3930,-38.17140330000001,145.0906267,1500000000.0
,,,,27 Ian Street Noble Park VIC 3174,-37.965879,145.177001,1500000000.0
4,2,,,72 Fitzgibbon Street Parkville VIC 3052,-37.7946034,144.9571934,1495000000.0
5,2,3,,25A Flinders Street Queenscliff VIC 3225,-38.2711542,144.6513737,1500000000.0
3,2,2,,283A Burnley Street Richmond VIC 3121,-37.8231797,145.0078448,1500000000.0
2,2,1,,2702/89 Gladstone Street South Melbourne VIC 3205,-37.8301549,144.9500578,1500000000.0
2,,1,,2803/63 Haig Street Southbank VIC 3006,-37.82776339999999,144.9567525,1500000000.0
3,3,2,,2403/14-16 The Esplanade St Kilda VIC 3182,-37.8650177,144.9746821,1500000000.0
8,3,,,15C Alfred Street Balaclava VIC 3183,-37.8675203,144.9922635,1220000000.0
5,3,2,,3 Bown Court Brighton East VIC 3187,-37.9182554,145.0151067,1450.0
4,2,2,,119 Victoria Street Fitzroy VIC 3065,-37.7990139,144.97919,1450.0
5,2,4,,168 Westcott Parade Rockbank VIC 3335,-37.728685,144.654902,-3715.0
3,2,2,,2001/1 ALMEIDA CRESCENT South Yarra VIC 3141,-37.8390089,144.9954417,1450.0
2,2,4,,10 Ormsby Grove Toorak VIC 3142,-37.8434705,145.0091016,1450000000.0
3,2,1,,18/18 Curzon Street West Melbourne VIC 3003,-37.8043508,144.9481504,1450000000.0
4,2,4,,Portsea VIC 3944,-38.3207377,144.718304,725006364.0
3,2,1,,1601/1 ALMEIDA CRESCENT South Yarra VIC 3141,-37.8390089,144.9954417,1500.0
4,3,3,,14 Durrant Street Brighton VIC 3186,-37.9082865,145.0022237,1420.0
3,2,1,,82 Reed Street Albert Park VIC 3206,-37.846725,144.948226,1400000000.0
4,2,1,,123 Kooyong Road Armadale VIC 3143,-37.8521518,145.0208754,1400.0
7,3,,,52-54 Tinning Street Brunswick VIC 3056,-37.758969,144.959178,1400000000.0
3,2,2,,190A Weston Street Brunswick East VIC 3057,-37.7765669,144.9756615,1400000000.0
4,2,,,58 Freeman Street Fitzroy North VIC 3068,-37.7901277,144.9804379,4441508524.0
3,2,1,,72/99 Spring Street Melbourne VIC 3000,-37.812531,144.973326,2920897420.0
4,2,2,,241/538 Little Lonsdale Street Melbourne VIC 3000,-37.8136966,144.953207,1400000000.0
3,2,2,,1522/555 St Kilda Road Melbourne VIC 3004,-37.8470517,144.9806745,1400000000.0
2,2,1,70m²,3811/639 Lonsdale Street Melbourne VIC 3000,-37.8148924,144.9536021,1400000000.0
3,2,2,,809/576 St Kilda Rd Melbourne VIC 3004,-37.8485215,144.9791462,1400000000.0
3,2,2,,803/430 St Kilda Road Melbourne VIC 3004,-37.837123,144.9751256,1400.0
4,2,2,,41 Zoe Circuit Northcote VIC 3070,-37.7680117,144.98586,1400000000.0
2,,,,5/90-110 Smythe Street Portarlington VIC 3223,-38.1209242,144.6521696,2450007192.0
2,,,,7/90-110 Smythe Street Portarlington VIC 3223,-38.1209242,144.6521696,2450002949.0
2,,,,6/90-110 Smythe Street Portarlington VIC 3223,-38.1209242,144.6521696,2450006476.0
,,,,380 Tower Road Portarlington VIC 3223,-38.12717290000001,144.6716102,2450896913.0
2,,,,8/90-110 Smythe Street Portarlington VIC 3223,-38.1209242,144.6521696,2450002944.0
4,2,1,,26 Vail Street Prahran VIC 3181,-37.8580805,145.0087141,1400.0
3,2,2,260m²,14 Henderson Street South Melbourne VIC 3205,-37.8402383,144.9477835,1400.0
2,2,1,,2004/22 Dorcas Street Southbank VIC 3006,-37.8300237,144.9695301,1400000000.0
4,2,8,"23,088m²",208 Sandy Road St Andrews Beach VIC 3941,-38.4181171,144.8526033,1399699725.0
2,2,1,,2G05/14-16 The Esplanade St Kilda VIC 3182,-37.8650177,144.9746821,1400000000.0
2,2,2,,G01/508 Toorak Road Toorak VIC 3142,-37.8418356,145.0133202,1400.0
4,3,2,,188 Williams Road Toorak VIC 3142,-37.84698789999999,145.003764,1400.0
3,2,2,,2 Rathmines Street Toorak VIC 3142,-37.838865,145.005744,1400000000.0
4,2,1,,1 David Lane Windsor VIC 3181,-37.8536301,144.989448,1400.0
3,2,2,,Brighton VIC 3186,-37.9044002,144.9997396,-3833.0
3,2,2,,Brighton VIC 3186,-37.9044002,144.9997396,-11993.0
3,2,2,,Brighton VIC 3186,-37.9043383,144.9931825,-7767.0
3,2,2,,Brighton VIC 3186,-37.9044002,144.9997396,-15659.0
3,2,2,,Brighton VIC 3186,-37.9044002,144.9997396,-8927.0
4,3,2,,6B Centre Road Brighton East VIC 3187,-37.9149958,145.0078102,1390.0
5,3,4,,29 Canberra Grove Brighton East VIC 3187,-37.926174,145.0103499,1390.0
4,3,3,,19B Grant Street Brighton East VIC 3187,-37.9131627,145.0089079,1390.0
3,2,1,,54 O'Grady Street Albert Park VIC 3206,-37.84281300000001,144.953284,1350.0
4,3,3,,8/7 Nelson Street Balaclava VIC 3183,-37.8661624,144.993616,1350.0
4,3,1,,143B Bambra Road Caulfield VIC 3162,-37.8848382,145.0289911,1350000000.0
3,2,2,,106 Leicester Street Fitzroy VIC 3065,-37.7956041,144.9797924,1350.0
3,2,2,,205/250 St Kilda Road Melbourne VIC 3004,-37.8259182,144.970146,1350000000.0
3,2,1,,49 O'Connell Street North Melbourne VIC 3051,-37.8046975,144.9575483,1350000000.0
3,2,2,,34 Victoria Street Sandringham VIC 3191,-37.956845,145.015297,1350.0
4,3,1,,22 Phoenix Street South Yarra VIC 3141,-37.8429687,144.9922454,1350000000.0
3,3,2,,1701/649 Chapel Street South Yarra VIC 3141,-37.8374374,144.9955647,1350000000.0
3,3,2,,3/553 Toorak Road Toorak VIC 3142,-37.8411094,145.0126039,1350.0
3,3,2,,4/553 Toorak Road Toorak VIC 3142,-37.8411174,145.0126789,674323215.0
3,,,,49 Canterbury Road Toorak VIC 3142,-37.8461618,145.0095858,1350000000.0
4,3,3,,27 Anzac Crescent Williamstown VIC 3016,-37.8616157,144.8851347,1350.0
4,3,2,,46 Pickle St Albert Park VIC 3206,-37.8433944,144.9455756,1300000000.0
3,2,1,,74 Barrett Street Albert Park VIC 3206,-37.8446225,144.9501385,1300.0
4,2,2,,1A Erowal Street Beaumaris VIC 3193,-37.9711151,145.0366339,1300000000.0
4,3,2,,26a Bonny Street Bentleigh East VIC 3165,-37.931945,145.06066,1300.0
3,2,2,,11 Warriston Street Brighton VIC 3186,-37.9067704,145.0067771,1300.0
4,2,2,,55 Durrant Street Brighton VIC 3186,-37.9109577,145.0056098,1300000000.0
3,2,1,,87 Were Street Brighton VIC 3186,-37.9251006,144.997523,1300.0
4,2,2,,59 Head St Brighton VIC 3186,-37.8917255,144.9921001,2061827721.5
3,2,2,,1001/123 Pelham Street Carlton VIC 3053,-37.8027986,144.9644247,4124500659.0
3,3,2,,54 Wellington Street Cremorne VIC 3121,-37.8265799,144.9894319,1300000000.0
3,2,1,,162 George Street East Melbourne VIC 3002,-37.8150779,144.9851819,1300.0
3,2,2,,1 Thackeray Street Elwood VIC 3184,-37.876271,144.9790178,1300000000.0
4,3,1,,108 Best Street Fitzroy North VIC 3068,-37.78135,144.9838569,1300.0
5,2,2,,168 Bellair Street Kensington VIC 3031,-37.7934088,144.9298053,4124502285.0
4,3,2,,704 Toorak Road Malvern VIC 3144,-37.8445733,145.0344809,1300000000.0
3,3,2,,1801/572 St Kilda Road Melbourne VIC 3004,-37.8477661,144.9786951,1300000000.0
8,4,4,,510 Main Street Mordialloc VIC 3195,-38.0037679,145.0841208,1300.0
5,2,3,"1,046m²",11 Matong Road Mount Eliza VIC 3930,-38.1854739,145.0773569,1300000000.0
4,3,2,192m²,34 Coane Street Oakleigh East VIC 3166,-37.9129792,145.1161421,1300000000.0
3,2,2,,5505/18 Hoff Boulevard Southbank VIC 3006,-37.825817,144.9640414,1300000000.0
4,3,2,,3 Wise Close Windsor VIC 3181,-37.8564218,144.9968344,1300.0
2,2,2,,321/499 St Kilda Road Melbourne VIC 3004,-37.8431328,144.9793408,1299000000.0
4,2,3,,425B Beach Road Beaumaris VIC 3193,-37.9937063,145.0334204,1295.0
4,3,2,,1 Dawson Avenue Brighton VIC 3186,-37.8928982,144.9898622,1295.0
3,2,,,"520/585 Latrobe Street, Melbourne Melbourne VIC 3000",-37.8132781,144.9518268,1290000000.0
4,2,2,,St Georges Rd Elsternwick VIC 3185,-37.8811067,145.0035052,1280000000.0
4,3,2,,1/109 Collins Street Mentone VIC 3194,-37.9800554,145.0665012,1280000000.0
3,2,,,234 Bridport West Street Albert Park VIC 3206,-37.8418654,144.9507193,1175000000.0
3,2,1,,54 Mills Street Albert Park VIC 3206,-37.8458219,144.9585182,1250.0
4,3,2,,6 Sophia Avenue Aspendale VIC 3195,-38.0242147,145.0991843,1250.0
3,3,2,,5 Bona Vista Avenue Aspendale VIC 3195,-38.0243155,145.0992087,1250.0
2,2,1,80m²,2/14 Laurel Street Bentleigh East VIC 3165,-37.9194749,145.0584466,1250000000.0
4,3,2,,6/10A Iluka Street Black Rock VIC 3193,-37.9748108,145.0246639,1250000000.0
3,2,1,,2 Mary Street Brighton VIC 3186,-37.9128458,144.9976091,1250.0
3,2,1,,84 Bay Street Brighton VIC 3186,-37.9047434,144.9946824,1250000000.0
4,2,2,,23 Moffat Street Brighton VIC 3186,-37.923216,144.9972863,1250.0
5,3,2,,483 Brunswick Road Brunswick West VIC 3055,-37.774681,144.9425789,3965505503.0
10,5,2,,52 Glengarry Ave Burwood VIC 3125,-37.8450253,145.1171943,1250000000.0
4,3,2,,4a Miriam St Caulfield VIC 3162,-37.8847512,145.0360526,1250000000.0
4,3,3,,16 Morrice Street Caulfield North VIC 3161,-37.8770358,145.009532,1250000000.0
5,2,5,,3 Raymond Grove Caulfield South VIC 3162,-37.9004638,145.0185507,1250000000.0
4,3,2,,62 The Esplanade Clifton Hill VIC 3068,-37.7860602,145.003947,1250.0
4,2,2,,6 Farey Avenue Dromana VIC 3936,-38.3428025,144.9452456,1250000000.0
4,3,2,,802/250 Barkly Street Footscray VIC 3011,-37.7991355,144.8960709,1250.0
4,4,2,,35B Hawson Avenue Glen Huntly VIC 3163,-37.8932139,145.0398549,1250000000.0
4,2,,301m²,114 Evans Street Port Melbourne VIC 3207,-37.8334848,144.9417999,1250.0
3,2,2,,5A Mulberry Street Richmond VIC 3121,-37.8189594,144.9925736,1250.0
5,3,2,,5 Bute Street Seddon VIC 3011,-37.8041246,144.8952361,1250000000.0
5,2,9,,28 Walter St Williamstown North VIC 3016,-37.85344,144.8734443,1250000000.0
4,2,3,,87 Mimosa Road Carnegie VIC 3163,-37.8870049,145.0524284,1300000000.0
2,,1,,204/154 Chapel Street St Kilda VIC 3182,-37.8702738,144.9902496,1246000000.0
2,2,1,,501/154 Chapel Street St Kilda VIC 3182,-37.8702738,144.9902496,1218000000.0
3,2,,,33 Barkly Ave Armadale VIC 3143,-37.859964,145.026537,1200000000.0
4,2,12,,2541 Frankston - Flinders Road Bittern VIC 3918,-38.344508,145.168794,1200000000.0
3,2,1,,5 Airlie Street Brighton VIC 3186,-37.8889355,144.9981686,1200.0
3,3,,,301 184-186 Bay Street Brighton VIC 3186,-37.905327,144.998633,1200000000.0
3,2,2,,5 Budd Street Brighton VIC 3186,-37.9021797,144.999589,1200.0
3,2,2,,19/30 Esplanade Brighton VIC 3186,-37.9261793,144.9882201,1200000000.0
3,,1,,Brunswick West VIC 3055,-37.75864809999999,144.9448586,1200000000.0
3,2,2,,22 Dorrit Street Carlton VIC 3053,-37.8000253,144.9664421,1200000000.0
6,2,2,310m²,Drummond street Carlton VIC 3053,-37.7988884,144.9688269,1200000000.0
4,2,2,,160 Bambra Road Caulfield North VIC 3161,-37.886093,145.0294647,1200.0
3,2,2,,907/2 Glenti Place Docklands VIC 3008,-37.8154048,144.9390916,1200000000.0
2,2,1,,8 Royal Lane Fitzroy VIC 3065,-37.804695,144.9746986,1200000000.0
1,,1,,8 Royal Lane Fitzroy VIC 3065,-37.804695,144.9746986,1200000000.0
3,2,2,,48 Young Street Fitzroy VIC 3065,-37.806859,144.978375,3807007808.0
3,,1,,19 Walpole Avenue Indented Head VIC 3223,-38.1336473,144.7061689,2504251936.0
3,2,2,,4 Walpole Avenue Indented Head VIC 3223,-38.1337289,144.7044686,2504250196.0
2,2,,,325 Collins Street Melbourne VIC 3000,-37.8166442,144.9635498,1200000000.0
4,2,2,329m²,10A Franklin Place Mornington VIC 3931,-38.2168773,145.0399711,1500000000.0
4,2,2,"1,595m²",10 Cottage Pl Mornington VIC 3931,-38.2495285,145.0605786,1200000000.0
4,2,2,,1/4 Volitans Avenue Mount Eliza VIC 3930,-38.1939117,145.0777015,1200000000.0
5,3,5,,8 Winona Rd Mount Eliza VIC 3930,-38.2032107,145.1062473,1200000000.0
4,3,2,,2 Pleasant View Court Mount Martha VIC 3934,-38.2719481,145.0036349,1200.0
4,3,2,,6 Pleasant View Court Mount Martha VIC 3934,-38.2714619,145.0035919,1200000000.0
6,3,6,,690 Kangaroo Ground St Andrews Road Panton Hill VIC 3759,-37.6348625,145.2477171,1200.0
3,2,2,,502/283 High Street Prahran VIC 3181,-37.85229,144.997681,1200.0
3,2,2,,6 Thomas Road Red Hill South VIC 3937,-38.3765118,145.0332968,1200000000.0
4,2,1,,76 Nelson Road South Melbourne VIC 3205,-37.835647,144.952214,1200.0
3,2,2,,5-7 Witchwood Cl South Yarra VIC 3141,-37.8337288,144.9868936,1200.0
3,,1,,4/67 Walsh Street South Yarra VIC 3141,-37.8362657,144.9849505,1200000000.0
2,2,2,,6607/7 Riverside Quay Southbank VIC 3006,-37.8213341,144.9646982,1200000000.0
3,,1,,9 Narvik Avenue St Leonards VIC 3223,-38.1701936,144.7100835,599993400.0
5,3,3,,4 Nareeb Court Toorak VIC 3142,-37.8486956,145.0225762,1200.0
4,3,2,,33 Landcox Street Brighton East VIC 3187,-37.9050458,145.0144825,1195.0
4,2,3,,64 Bowen Crescent Carlton North VIC 3054,-37.7803502,144.9631411,1195.0
4,2,2,,33 Moore Street Caulfield South VIC 3162,-37.8998011,145.0318408,1195000000.0
3,2,2,,7B Carr Street Brighton East VIC 3187,-37.9274776,145.0276779,1190.0
1,,,,2/219 Napier Street Fitzroy VIC 3065,-37.8013904,144.9799,1190000000.0
1,,1,,100/600 Epsom Road Flemington VIC 3031,-37.7886513,144.9214028,1190000000.0
7,2,2,300m²,5 Alfred St Balaclava VIC 3183,-37.8675296,144.9927002,1188000000.0
3,2,1,,16 Tribe Street South Melbourne VIC 3205,-37.8383083,144.9499665,1181370260.0
3,2,1,,11 Cintra Avenue St Kilda VIC 3182,-37.858828,144.9914546,1175000000.0
1,,1,,110/133 Bourke Street Melbourne VIC 3000,-37.81263750000001,144.9693068,1155000000.0
,,,,1/35 WURUNDJERI DRIVE Epping VIC 3076,-37.6450377,145.0010287,1154000000.0
3,,1,,21 Valentine Grove Armadale VIC 3143,-37.8634596,145.025762,1150.0
3,2,3,,41B Arkaringa Crescent Black Rock VIC 3193,-37.9694931,145.0181917,1150.0
3,3,,,36 Casuarina Drive Cape Schanck VIC 3939,-38.46369929999999,144.8957842,1150000000.0
4,,,,459 Station Street Carlton North VIC 3054,-37.7857703,144.9756938,4600004696.0
3,2,2,,108/6 St Aubins Avenue Caulfield North VIC 3161,-37.8739792,145.0100916,1150.0
3,,,,98 Johnston St Collingwood VIC 3066,-37.799194,144.98827,1150000000.0
4,2,2,,3B Malcolm Street McKinnon VIC 3204,-37.9133209,145.045421,1150000000.0
3,2,1,,4501/483 Swanston Street Melbourne VIC 3000,-37.8072179,144.9623358,1150000000.0
4,,4,,30 Oxford St Oakleigh VIC 3166,-37.9012582,145.0929966,1150000000.0
3,2,2,,8 Ernest Court Portsea VIC 3944,-38.33064400000001,144.7213181,1150.0
3,3,1,,2A Gooch Street Prahran VIC 3181,-37.8555377,145.0025626,1150000000.0
5,2,2,,34 McLauchlin Avenue Sandringham VIC 3191,-37.9561799,145.0171517,1150000000.0
4,3,2,,29 Russell Crescent Sorrento VIC 3943,-38.3484487,144.7453632,1149389760.0
3,2,2,,7406/70 Southbank Boulevard Southbank VIC 3006,-37.8231931,144.9639881,1150000000.0
2,2,2,,626/1 Queensbridge Square Southbank VIC 3006,-37.82384,144.9624973,1150000000.0
3,2,2,,7406/70 Southbank Boulevard Southbank VIC 3006,-37.8231931,144.9639881,1150000000.0
3,3,1,,39 Jervois Street St Kilda East VIC 3183,-37.865311,144.9951032,1150.0
6,2,2,,28 Linton Street Balaclava VIC 3183,-37.8672595,144.9924419,1148000000.0
3,,,,10/90-110 Smythe Street Portarlington VIC 3223,-38.1209242,144.6521696,2025003563.0
3,2,2,,42 Matong Road Mount Eliza VIC 3930,-38.1834731,145.0787481,1150000000.0
3,2,2,,1 Garden Street Armadale VIC 3143,-37.8583222,145.0226621,1100000000.0
2,2,1,,303/835 High Street Armadale VIC 3143,-37.8546269,145.0153947,1100000000.0
3,3,2,,2/109 Nepean Highway Aspendale VIC 3195,-38.02399399999999,145.0996129,1100000000.0
4,3,2,,6 Rosemary Rd Beaumaris VIC 3193,-37.9811405,145.0401434,1100.0
5,2,4,,28b Hornby Street Beaumaris VIC 3193,-37.9802926,145.0276564,1100.0
4,3,2,,1C May Street Bentleigh East VIC 3165,-37.9171405,145.0522015,1100.0
3,2,2,,2/361 St Kilda St Brighton VIC 3186,-37.8997381,144.9886166,1100.0
4,2,1,,4/22 Grattan Street Carlton VIC 3053,-37.8007553,144.9689546,1100.0
4,2,1,,651 Canning Street Carlton North VIC 3054,-37.78078259999999,144.9754141,1100000000.0
3,2,2,,16/3 Wilks Street Caulfield North VIC 3161,-37.8629701,145.0143103,1100.0
2,2,1,,28 Cumberland Street Docklands VIC 3008,-37.8196806,144.9427053,1100000000.0
3,2,1,,302/30 Newquay Promenade Docklands VIC 3008,-37.8145362,144.9424083,1100000000.0
3,2,4,,3/41 Kerr Street Fitzroy VIC 3065,-37.7963661,144.9769097,1100.0
3,3,2,,37 Taylor Street Fitzroy North VIC 3068,-37.7745285,144.9803088,1100.0
5,3,3,,39 Mountain Avenue Frankston South VIC 3199,-38.1959738,145.1265045,1100000000.0
4,3,2,,1/5 Aurisch Avenue Glen Waverley VIC 3150,-37.8697296,145.1629581,1100000000.0
3,2,1,,4/3 Littlewood Street Hampton VIC 3188,-37.9341066,145.0040348,1100000000.0
4,3,2,,67a Raynes Park Road Hampton VIC 3188,-37.9372151,145.0216918,1100.0
5,3,4,,17 Katoomba Street Hampton East VIC 3188,-37.9361604,145.0346316,1100.0
5,2,2,,12 Melcombe Road Ivanhoe VIC 3079,-37.7616163,145.048347,1100.0
4,2,2,,11 Shaftesbury Ave Malvern VIC 3144,-37.8544741,145.0381195,1100.0
4,2,2,,36B Windsor Avenue McKinnon VIC 3204,-37.9139707,145.0487015,1100.0
4,2,2,,8 Alison Street McKinnon VIC 3204,-37.9122709,145.0441269,1100.0
2,2,2,,1201/55 Queens Road Melbourne VIC 3004,-37.8478901,144.9782817,1100.0
2,2,2,,603/469 St Kilda Road Melbourne VIC 3004,-37.8414584,144.9779051,1100000000.0
2,2,1,,3203/35 Spring Street Melbourne VIC 3000,-37.8141725,144.9740049,1100000000.0
2,2,2,,1306/582 St Kilda Road Melbourne VIC 3004,-37.8493082,144.9794216,1100000000.0
5,3,2,,19 Reys Close Mordialloc VIC 3195,-38.0033438,145.1032092,1100000000.0
2,2,1,,6/28 Main Street Mornington VIC 3931,-38.2174013,145.0373926,1100000000.0
4,3,2,,12 Debbie Street Mount Waverley VIC 3149,-37.8602221,145.1375403,1100000000.0
3,3,1,,4 Gordon Grove Northcote VIC 3070,-37.7750642,144.9908068,3490000871.0
4,3,2,,A &amp; B/19 Elm Grove Parkdale VIC 3195,-37.994951,145.0803029,1100.0
3,2,2,,3764 Point Nepean Road Portsea VIC 3944,-38.3199024,144.7141488,1100000000.0
3,2,1,,49 Highbury Grove Prahran VIC 3181,-37.855997,145.00721,1100000000.0
3,2,2,,6/10 Lalbert Crescent Prahran VIC 3181,-37.8560703,145.0101562,1100.0
3,3,2,,3/56 Larnook Street Prahran VIC 3181,-37.8578253,145.0102208,1100.0
5,2,4,,318 Victoria Street Richmond VIC 3121,-37.8108631,145.002016,1100000000.0
4,2,1,,6/234 Domain Road South Yarra VIC 3141,-37.8343775,144.985687,1100.0
3,2,2,,2810/7 Riverside Quay Southbank VIC 3006,-37.8213341,144.9646982,1100000000.0
2,2,1,,2704/8 Kavanagh Street Southbank VIC 3006,-37.8226734,144.9665021,1100000000.0
2,2,2,,203/1 Wallace Avenue Toorak VIC 3142,-37.84068920000001,145.0068957,1100.0
3,2,1,,504/38 Rose Lane Melbourne VIC 3000,-37.8148892,144.9542038,1099000000.0
3,2,,,24/300 King St Melbourne VIC 3000,-37.8131524,144.9547736,1099000000.0
2,2,1,,1402/63 Whiteman Street Southbank VIC 3006,-37.8260485,144.956843,1099000000.0
4,2,4,,131 Ferguson Street Williamstown VIC 3016,-37.858551,144.892783,1097000000.0
3,3,2,,1/15 Thomas Street Hampton VIC 3188,-37.93945739999999,145.0129758,1095000000.0
4,2,3,,10 Claire Street McKinnon VIC 3204,-37.9119646,145.0404235,1095.0
1,,1,,110/250 Elizabeth Street Melbourne VIC 3000,-37.812564,144.9628184,1085000000.0
1,,1,,1 Freshwater Place Southbank VIC 3006,-37.8219933,144.9621236,1085000000.0
1,,7,625m²,3A Bonview Circuit Truganina VIC 3029,-37.8350857,144.7380499,1080174865.0
2,2,1,,701/118 Russell Street Melbourne VIC 3000,-37.8135864,144.9687232,1075000000.0
3,2,2,,2/116 Anderson Street South Yarra VIC 3141,-37.8302942,144.9846734,1075.0
3,2,2,,295 Inkerman Street Balaclava VIC 3183,-37.8657031,144.9939881,1050000000.0
4,2,2,,25 Spicer Street Beaumaris VIC 3193,-37.9771021,145.0485406,1050000000.0
4,3,2,,36B Thomasina Street Bentleigh East VIC 3165,-37.9123487,145.0594803,1050.0
4,3,2,,36a Thomasina Street Bentleigh East VIC 3165,-37.9123487,145.0594803,1050.0
3,2,1,,148 Fitzroy Street Fitzroy VIC 3065,-37.804306,144.976491,1050.0
4,2,2,,24 Daff Avenue Hampton East VIC 3188,-37.9418547,145.0358373,1050000000.0
1,,1,,250 Elizabeth Street Melbourne VIC 3000,-37.812564,144.9628184,1050000000.0
3,,,,27 Carroll Street North Melbourne VIC 3051,-37.7953063,144.9455898,1050.0
5,,,,487 Dryburgh Street North Melbourne VIC 3051,-37.7934519,144.9448585,1050.0
4,,,,27 Hawthorn Road Northcote VIC 3070,-37.7707631,144.9934343,1050.0
3,,,,9/90-110 Smythe Street Portarlington VIC 3223,-38.1209242,144.6521696,2025009651.0
4,3,1,,88 Brighton Street Richmond VIC 3121,-37.829552,144.998683,1050.0
4,2,2,,7/371 Toorak Road South Yarra VIC 3141,-37.8397296,145.0003852,1050000000.0
2,2,3,,1203/12 Yarra Street South Yarra VIC 3141,-37.8369998,144.9931976,1050000000.0
4,2,2,,195A Alma Road St Kilda East VIC 3183,-37.8632364,145.0043962,1050000000.0
3,2,,,5 Dunstan Street St Leonards VIC 3223,-38.1719411,144.7086311,1050000000.0
3,2,1,,2/494 Toorak Road Toorak VIC 3142,-37.8416749,145.0119857,1050.0
5,2,2,,492 Toorak Road Toorak VIC 3142,-37.8415911,145.011796,1050.0
3,2,1,,2/7 Lascelles Avenue Toorak VIC 3142,-37.840197,145.0125233,1050000000.0
3,2,3,,644 Toorak Road Toorak VIC 3142,-37.8435642,145.028079,1050000000.0
3,2,2,,5 Lucas Street Brighton East VIC 3187,-37.9223246,145.0063451,1049.0
3,2,1,,48 Somerset Street Richmond VIC 3121,-37.8157632,145.0025928,1045000000.0
1,,1,,1705/1 Freshwater Place Southbank VIC 3006,-37.8219262,144.962153,1036000000.0
2,2,1,,135 Inkerman Street St Kilda VIC 3182,-37.8650204,144.9876674,1029000000.0
4,2,2,,9A Hornby Street Brighton East VIC 3187,-37.91376,145.0188947,1025000000.0
4,2,,,5 Cole Street Richmond VIC 3121,-37.81235849999999,145.0056149,1025000000.0
2,2,1,,428/539 St Kilda Road Melbourne VIC 3004,-37.8456005,144.9794822,1024000000.0
1,,1,,18 Aquitania Way Docklands VIC 3008,-37.8135752,144.9429943,1015000000.0
1,,1,,1 Freshwater Place Southbank VIC 3006,-37.8219262,144.962153,1015000000.0
2,,1,,135 Inkerman Street St Kilda VIC 3182,-37.8650204,144.9876674,1015000000.0
4,2,4,2.02ha,207 Purves Road Arthurs Seat VIC 3936,-38.3718261,144.9574408,1000000000.0
4,3,1,,2B Jordan Street Ashwood VIC 3147,-37.8675032,145.102886,1000000000.0
3,2,1,,64 Eulinga Avenue Aspendale VIC 3195,-38.0141624,145.1004835,1000000000.0
2,,4,,264 Centre Road Bentleigh VIC 3204,-37.917702,145.031081,1000000000.0
4,3,2,,12B McKittrick Street Bentleigh VIC 3204,-37.9295135,145.041263,1000.0
4,2,2,,26 Eliza Street Black Rock VIC 3193,-37.9649515,145.0148699,1000.0
4,2,2,,112 South Rd Brighton East VIC 3187,-37.9298083,145.0054858,1000000000.0
4,2,1,,78 Marriage Rd Brighton East VIC 3187,-37.9199591,145.0172807,1000000000.0
5,3,3,,16 Valdemar Court Brighton East VIC 3187,-37.928349,145.0278286,1000.0
3,3,1,,13/35 Stewart Street Brunswick VIC 3056,-37.7637067,144.9666417,1000.0
4,3,2,,7A Foden Street Brunswick West VIC 3055,-37.7704687,144.9479125,1000000000.0
3,2,1,,16 David Street Carlton VIC 3053,-37.7970303,144.9720417,1000.0
,,,,18 Drummond Street Carlton VIC 3053,-37.8065906,144.9677446,499700769.0
5,2,,,275 Rathdowne Street Carlton VIC 3053,-37.800255,144.969766,1000000000.0
3,,2,,2115 Ballarto Road Clyde VIC 3978,-38.1419998,145.3926381,1000000000.0
4,3,3,,66 Walsh Street Coburg VIC 3058,-37.7486643,144.9713588,1000000000.0
3,3,2,,91A Deakin Street Essendon VIC 3040,-37.7445849,144.8919691,1000000000.0
3,,1,,29 Falconer Street Fitzroy North VIC 3068,-37.7846717,144.9868498,1000.0
4,2,1,,27 St Georges Road Fitzroy North VIC 3068,-37.7904546,144.9768556,1000000000.0
4,2,2,,51 Charming Street Hampton East VIC 3188,-37.9350367,145.0323926,1000.0
4,2,2,,5 Donald St Highett VIC 3190,-37.951569,145.0376673,1000.0
4,2,2,657m²,2 Banchory Avenue Hillside VIC 3037,-37.6922204,144.7503551,500981697.0
3,3,2,,27B Draper Street McKinnon VIC 3204,-37.9092958,145.0495529,1000000000.0
2,,,,714/268 Flinders Street Melbourne VIC 3000,-37.8178283,144.9655259,1000000000.0
3,2,,,260 Spencer St Melbourne VIC 3000,-37.814564,144.9522856,1000000000.0
3,2,2,,2610/265 Exhibition Street Melbourne VIC 3000,-37.8095971,144.9692227,1000.0
4,2,2,396m²,14 Yacht Court Mornington VIC 3931,-38.2276906,145.0293786,1000.0
4,2,4,,91 Baden Powell Drive Mount Eliza VIC 3930,-38.17480400000001,145.1035539,1000.0
5,2,2,,241 Noble Street Newtown VIC 3220,-38.15209249999999,144.3278864,500118585.0
5,2,2,,97 Oak Street Parkville VIC 3052,-37.781196,144.9418287,1000000000.0
3,2,2,,73 The Crescent Port Melbourne VIC 3207,-37.8384283,144.9280851,1000000000.0
2,,,,2/90-110 Smythe Street Portarlington VIC 3223,-38.1209242,144.6521696,1700009300.0
2,,,,3/84-110 Smythe Street Portarlington VIC 3223,-38.1209242,144.6521696,1700001888.0
2,,,,1/90-110 Smythe Street Portarlington VIC 3223,-38.1209242,144.6521696,1700003137.0
2,,,,4/84-110 Smythe Street Portarlington VIC 3223,-38.1209242,144.6521696,1700002610.0
2,2,4,,15 Blair Road Portsea VIC 3944,-38.3248976,144.7156558,850007108.0
4,2,,,77 Bayview Street Prahran VIC 3181,-37.8522278,145.0058732,1000.0
3,,1,195m²,60 Williams Road Prahran VIC 3181,-37.8549619,145.0023977,1000000000.0
4,,3,,2/320 Kings Way South Melbourne VIC 3205,-37.834489,144.969154,1000000000.0
2,2,1,,1601/661 Chapel Street South Yarra VIC 3141,-37.8364238,144.9958037,1000000000.0
3,2,2,,7/225 Williams Road South Yarra VIC 3141,-37.8440504,145.0036564,1000000000.0
2,,1,,20 Medley Place South Yarra VIC 3141,-37.843228,144.993711,1000000000.0
4,2,2,,10 Marne Street South Yarra VIC 3141,-37.8372095,144.9839347,1000000000.0
3,2,2,,402/42 Ralston Street South Yarra VIC 3141,-37.83866769999999,144.9871326,1000000000.0
3,,1,,St Kilda VIC 3182,-37.864,144.982,1000000000.0
3,2,2,,21 Wavenhoe Ave St Kilda East VIC 3183,-37.8630337,145.002774,1000.0
2,2,2,,303/1 Wallace Avenue Toorak VIC 3142,-37.84068920000001,145.0068957,1000.0
3,3,2,,13 Ann Street Williamstown VIC 3016,-37.8649898,144.9077344,1000000000.0
3,2,2,,148a Melbourne Road Williamstown VIC 3016,-37.8545376,144.891722,1000000000.0
3,2,2,,1 Lewisham Lane Windsor VIC 3181,-37.8568553,144.9984418,1000.0
6,2,1,,22 Dickens Street Elwood VIC 3184,-37.8728014,144.9829767,998000000.0
5,4,2,667m²,22 Strathmore street Bentleigh VIC 3204,-37.9157719,145.0445573,998627109.0
4,3,4,735m²,1 Marabou place Aspendale VIC 3195,-38.02665349999999,145.1048037,998522152.0
6,2,,,11 Alfred Street Balaclava VIC 3183,-37.8674984,144.9923666,998000000.0
4,3,4,,24 Studley Road Brighton East VIC 3187,-37.9296247,145.0251604,995.0
4,2,2,,15 Dumaresq St Brighton East VIC 3187,-37.9303903,145.0276133,995000000.0
2,2,1,,24/1-3 Dods Street Brunswick VIC 3056,-37.7730257,144.9624476,3157008459.0
4,2,,,14 Methven Street Brunswick East VIC 3057,-37.772174,144.973948,995.0
3,2,1,,1/207 Balaclava Road Caulfield North VIC 3161,-37.8727991,145.0238245,995000000.0
6,2,2,,29 Rose Street Coburg VIC 3058,-37.744497,144.9467081,995000000.0
4,2,1,,40 Belchers Lane Connewarre VIC 3227,-38.2491124,144.4321999,995000000.0
4,2,5,,1 Fiona Drive Cranbourne South VIC 3977,-38.1519658,145.2761583,994279659.0
1,,1,,158 Simpson Street East Melbourne VIC 3002,-37.8106622,144.9890725,995000000.0
5,2,3,,54-84 Stotts Lane Frankston South VIC 3199,-38.1846927,145.1517661,995000000.0
4,,2,,31 Foster Ave Glen Huntly VIC 3163,-37.8950744,145.0397127,995000000.0
4,2,2,,25 Wolseley Parade Kensington VIC 3031,-37.7963558,144.9295311,995000000.0
3,2,,,211 Richardson Street Middle Park VIC 3206,-37.8491529,144.9616461,995.0
3,,2,,17-19 Aberdeen Grove Northcote VIC 3070,-37.7741676,144.9920571,995.0
3,2,2,,18/15 Beach Street Port Melbourne VIC 3207,-37.8427163,144.9396756,995000000.0
3,,1,121m²,148 Adderley Street West Melbourne VIC 3003,-37.80973530000001,144.9472135,995000000.0
4,2,2,298m²,13B Claronga Street Bentleigh East VIC 3165,-37.92607479999999,145.0808465,990000000.0
4,2,1,,647 Hawthorn Road Brighton East VIC 3187,-37.9036566,145.0190954,990000000.0
3,2,2,,2/308 Brunswick Road Brunswick VIC 3056,-37.776352,144.95291,3141003620.0
3,2,2,,81 Spensley Street Clifton Hill VIC 3068,-37.7883643,144.9992446,990000000.0
4,,,,560 Victoria Parade East Melbourne VIC 3002,-37.81013799999999,144.990052,990000000.0
3,2,2,,54 Dickens Street Elwood VIC 3184,-37.8743039,144.97918,990000000.0
5,3,4,,3 Thistle Street Pascoe Vale South VIC 3044,-37.7405597,144.934579,3140505611.0
2,,1,,14 David Street Richmond VIC 3121,-37.8151727,145.011509,990000000.0
5,2,4,,43 Menzies Street Rye VIC 3941,-38.3867777,144.797561,990000000.0
3,2,1,,603/915 Collins Street Docklands VIC 3008,-37.8206034,144.9402399,985000000.0
4,4,2,,10A Mackie Road Bentleigh East VIC 3165,-37.9218231,145.0737812,980.0
4,,,,23 Union Street Brunswick VIC 3056,-37.774083,144.958206,3109003985.0
3,,1,,127 Drummond Street Carlton VIC 3053,-37.80358,144.967673,3129002042.0
4,2,1,,779 Drummond Street Carlton North VIC 3054,-37.786402,144.970509,980.0
4,2,3,,20 Poplar Grove Carnegie VIC 3163,-37.8865577,145.0635722,980000000.0
3,2,,,1602/270 King Street Melbourne VIC 3000,-37.813751,144.9550317,980000000.0
4,2,4,,54 Panorama Drive Mount Martha VIC 3934,-38.2838083,145.0078963,980000000.0
3,2,2,,14 Swallow Court Patterson Lakes VIC 3197,-38.07544230000001,145.1427138,980000000.0
3,,1,,4 Palfreyman Street South Yarra VIC 3141,-37.844978,144.997811,980000000.0
1,,1,,619/1 Freshwater Place  Southbank VIC 3006,-37.82606121944571,144.96225599537507,980000000.0
3,2,,,11A Canterbury Road Toorak VIC 3142,-37.8479151,145.0091877,980.0
3,3,2,,3/22B South Road Brighton VIC 3186,-37.9286085,144.9951343,975.0
3,,,,42 O'Grady Street Clifton Hill VIC 3068,-37.78685249999999,144.9989864,975.0
4,3,,,19 Henry Street Kensington VIC 3031,-37.7949024,144.9281604,975000000.0
5,2,2,,10 Darling Road Malvern East VIC 3145,-37.8826854,145.0586761,975000000.0
3,2,1,,73 Holtom Street West Princes Hill VIC 3054,-37.7804014,144.9651201,975000000.0
3,,1,,41 Wall Street Richmond VIC 3121,-37.8226328,145.0042913,975.0
4,3,2,,27B Park Street Seaford VIC 3198,-38.1008907,145.1314187,975000000.0
4,4,2,,16B Keswick Street Bentleigh East VIC 3165,-37.9103419,145.0696027,965.0
3,3,2,,231 Barkly Street Brunswick VIC 3056,-37.7765421,144.9655357,965000000.0
4,4,2,151m²,107 Field Street Clifton Hill VIC 3068,-37.7908537,145.0026019,965000000.0
3,2,1,,10 Saint Mangos Lane Docklands VIC 3008,-37.8145392,144.9414692,1000000000.0
5,2,1,,1/325 Johnston Street Abbotsford VIC 3067,-37.80042299999999,144.997448,950000000.0
2,2,1,,4 Pickles Street Albert Park VIC 3206,-37.8448754,144.9442563,945.0
3,2,1,,90 Sutherland Rd Armadale VIC 3143,-37.8559285,145.0177542,950.0
5,,7,,19 Monash St Ascot Vale VIC 3032,-37.7808854,144.9082194,945.0
4,3,2,,1 Sanctuary Way Ascot Vale VIC 3032,-37.7763314,144.9036514,950000000.0
3,2,2,,4/77 Hitchcock Avenue Barwon Heads VIC 3227,-38.278744,144.491935,950000000.0
4,3,2,,60 Martin St Brighton VIC 3186,-37.8965987,144.995285,950000000.0
3,2,2,,27 Creswick St Brighton East VIC 3187,-37.9280946,145.0156878,950000000.0
3,2,2,,1/31A Thomas Street Brighton East VIC 3187,-37.9155285,145.0231357,950.0
4,3,2,,1/22 Albert Street Brunswick East VIC 3057,-37.7699724,144.9709715,950.0
6,,,,318 Cardigan Street Carlton VIC 3053,-37.797374,144.966264,950.0
4,2,2,,2/41 Woornack Road Carnegie VIC 3163,-37.89825099999999,145.0598033,950000000.0
4,2,3,,370B Koornang Road Carnegie VIC 3163,-37.902624,145.0547394,950.0
4,2,2,,1/41 Woornack Road Carnegie VIC 3163,-37.89825099999999,145.0598033,950000000.0
3,2,2,259m²,10/649-657 Inkerman Road Caulfield North VIC 3161,-37.869499,145.020775,950000000.0
4,3,2,,24 Orrong Crescent Caulfield North VIC 3161,-37.8665791,145.0165807,950000000.0
4,2,2,,1/253 North Road Caulfield South VIC 3162,-37.9009197,145.0184432,950.0
4,2,2,,2 Wedd Street Cheltenham VIC 3192,-37.9670758,145.0599756,474429178.0
2,2,1,,1510/21 Wellington Street Collingwood VIC 3066,-37.8082312,144.9855712,950000000.0
1,,1,,203/150 Clarendon Street East Melbourne VIC 3002,-37.8120899,144.9835967,950000000.0
2,2,1,,304/280 Albert Street East Melbourne VIC 3002,-37.8097936,144.9817503,950000000.0
3,,2,,57 Westgarth Street Fitzroy VIC 3065,-37.7943702,144.9775548,950.0
2,2,2,,302/270 Young Street Fitzroy VIC 3065,-37.7989978,144.9788387,950.0
3,,1,,411 Napier Street Fitzroy VIC 3065,-37.7953686,144.981008,950000000.0
2,2,1,,186 Queens Pde Fitzroy North VIC 3068,-37.7903424,144.985863,945000000.0
3,,1,,448 Rae Street Fitzroy North VIC 3068,-37.7818483,144.9807068,950.0
4,2,3,,7 Iris Court Keysborough VIC 3173,-38.0047373,145.1753403,950000000.0
3,2,,352m²,16 Chandlers Road Malvern VIC 3144,-37.8653273,145.0297661,950000000.0
3,2,1,,3113/639 Lonsdale Street Melbourne VIC 3000,-37.8150689,144.9534096,950.0
3,2,1,,2607R/33 Rose Lane Melbourne VIC 3000,-37.8150137,144.9538694,950000000.0
2,2,1,,7910/228 La Trobe Street Melbourne VIC 3000,-37.8097514,144.9626141,950000000.0
3,2,1,,5310/500 Elizabeth Street Melbourne VIC 3000,-37.8072443,144.9602814,950000000.0
2,2,2,,55/1 Albert Road Melbourne VIC 3000,-37.833957,144.972793,950000000.0
4,2,2,,34a St Albans Street Mount Waverley VIC 3149,-37.8736601,145.1342532,950000000.0
4,,,,48 South Crescent Northcote VIC 3070,-37.7787649,145.0043236,950.0
3,,,,58 Bastings Street Northcote VIC 3070,-37.7747148,145.0033121,950000000.0
4,3,2,,2/15 Malane Street Ormond VIC 3204,-37.9019454,145.0365263,950.0
5,2,2,,22 Sauvage Street Parkville VIC 3052,-37.7760972,144.9415896,950000000.0
2,2,2,,76 Esplanade West Port Melbourne VIC 3207,-37.84216869999999,144.9424699,950000000.0
3,,1,,17/201 Graham Street Port Melbourne VIC 3207,-37.839572,144.939072,950.0
3,2,1,,22 Banole Avenue Prahran VIC 3181,-37.854454,145.00467,950000000.0
2,2,1,,8/1 York Street Prahran VIC 3181,-37.852003,144.997803,950.0
3,2,1,,60A High Street Prahran VIC 3181,-37.851271,144.98762,950000000.0
4,3,2,,32A Foch Street Reservoir VIC 3073,-37.7282315,145.0120324,950.0
3,2,2,,121 Lord Street Richmond VIC 3121,-37.8239815,145.0045819,950000000.0
3,3,2,,1/4 Margaret Street Richmond VIC 3121,-37.8231131,144.9901798,950000000.0
3,2,2,,35 Hofert Lane Richmond VIC 3121,-37.8233119,145.0092632,950000000.0
3,2,1,,188 Ferrars Street South Melbourne VIC 3205,-37.8324814,144.9543972,950000000.0
4,2,2,,71-73 Bromby Street South Yarra VIC 3141,-37.8350296,144.9759005,950.0
3,2,2,,15B Albion Street South Yarra VIC 3141,-37.8428543,144.9866346,950.0
3,2,2,,1B Wordsworth Street St Kilda VIC 3182,-37.87307699999999,144.977474,950000000.0
3,,1,,57 Old St Leonards Road St Leonards VIC 3223,-38.1743629,144.7020593,1982286539.0
4,2,2,,33A Dublin Avenue Strathmore VIC 3041,-37.7361866,144.9077465,3014003356.0
3,4,1,,1/91 Grange Road Toorak VIC 3142,-37.8339303,145.0116742,950.0
3,2,,,4 James Street Williamstown VIC 3016,-37.8586638,144.9006528,950000000.0
4,2,3,,13 McGuire crescent Williamstown VIC 3016,-37.8581525,144.8755072,950000000.0
2,2,1,,1502/260 City Rd Southbank VIC 3006,-37.8260239,144.9595477,945000000.0
3,,2,,91 Rowena Parade Richmond VIC 3121,-37.8206041,144.9936112,940000000.0
4,3,2,,96 Paloma Street Bentleigh East VIC 3165,-37.91540430000001,145.0839095,930.0
5,3,1,,Hawthorn Road Caulfield South VIC 3162,-37.8913443,145.0211278,930000000.0
3,2,2,,70 Grange Road Sandringham VIC 3191,-37.9488895,145.018809,930.0
3,2,2,,60a Barkly Street St Kilda VIC 3182,-37.8614652,144.9824406,930.0
1,,,,1311/1 Freshwater Place Southbank VIC 3006,-37.8219262,144.962153,926000000.0
4,2,2,,30A Herbert Street Mornington VIC 3931,-38.21793470000001,145.0481789,925000000.0
3,2,1,,19 Athol Street Prahran VIC 3181,-37.847391,144.987336,925.0
2,2,1,,1006/138 Ferrars Street South Melbourne VIC 3205,-37.8299599,144.9532581,925000000.0
3,2,1,,3/7 Marine Avenue St Kilda VIC 3182,-37.873741,144.9779224,925000000.0
2,,,,19 Mathoura Road Toorak VIC 3142,-37.8473979,145.0068151,925.0
3,2,1,,5/126 Were Street Brighton VIC 3186,-37.926373,144.999794,920.0
3,2,1,,21/35 Stewart Street Brunswick VIC 3056,-37.7637067,144.9666417,920000000.0
3,2,2,,100 Union Street Brunswick VIC 3056,-37.7732736,144.9546661,920.0
3,3,2,,19 Raven Close Ocean Grove VIC 3226,-38.2604027,144.5232196,-890.5
3,2,2,,1/494 Toorak Road Toorak VIC 3142,-37.8416749,145.0119857,915.0
5,5,4,,16 Nepean Highway Brighton VIC 3186,-37.885457,144.997909,910.0
3,2,2,,1/38 Walker Street Parkville VIC 3052,-37.7843969,144.9578844,910.0
4,3,1,,9/220 Roden Street West Melbourne VIC 3003,-37.8095385,144.945096,1410003006.0
3,,2,,3745 Point Nepean Road Portsea VIC 3944,-38.3205931,144.7144976,47000000000.0
4,2,2,,4 West Street Ascot Vale VIC 3032,-37.7773029,144.9240858,900000000.0
4,2,2,,8 Mooroopna Court Barwon Heads VIC 3227,-38.2759101,144.4843718,900000000.0
4,2,2,,11-13 Tibbles Street Beaumaris VIC 3193,-37.9723213,145.0373265,895.0
3,2,3,,11A Smith St Bentleigh VIC 3204,-37.9179122,145.0435022,900000000.0
4,3,2,,7b Bevis Street Bentleigh East VIC 3165,-37.9181291,145.0525744,900000000.0
3,,,,34 David Street Brunswick VIC 3056,-37.7701775,144.9627539,899949840.0
4,3,1,,76B Oakleigh Road Carnegie VIC 3163,-37.8993167,145.052826,900000000.0
3,2,2,,14 Acacia Street Carnegie VIC 3163,-37.8866741,145.0647782,900000000.0
3,2,2,,32A Wanda Road Caulfield North VIC 3161,-37.8669287,145.0220917,895000000.0
3,2,3,,12B Hudson Street Caulfield North VIC 3161,-37.8793081,145.0331244,900.0
3,2,2,,163B Sycamore Street Caulfield South VIC 3162,-37.8902835,145.0259557,900.0
6,2,4,"7,349m²",34 Collison Road Cranbourne East VIC 3977,-38.1072312,145.3148243,900000000.0
3,2,1,,1107/60 Siddeley Street Docklands VIC 3008,-37.8228429,144.9523646,900000000.0
3,3,1,,2004/231 harbour esp Docklands VIC 3008,-37.813577,144.9429949,900000000.0
4,2,2,,47 Glenister Drive Eltham VIC 3095,-37.7173613,145.1569209,900.0
3,2,,,10 Leicester Street Fitzroy VIC 3065,-37.7951965,144.9762515,900.0
3,2,2,,G09/22 Nicholson Street Fitzroy North VIC 3068,-37.774652,144.979206,900000000.0
4,2,2,,501/110 Brougham Street Geelong VIC 3220,-38.1467412,144.3660609,900.0
4,3,2,,1/35 Mount Street Glen Waverley VIC 3150,-37.8831117,145.1670118,900000000.0
4,3,2,,3 Porter Street Hampton VIC 3188,-37.941685,145.020045,900.0
3,2,2,,32a Gilarth Street Highett VIC 3190,-37.948747,145.0292925,895.0
4,3,2,,2 Argyle Close Hughesdale VIC 3166,-37.9043949,145.0752029,895.0
4,2,2,,49 Wright Street McKinnon VIC 3204,-37.9127454,145.0301984,900000000.0
3,2,2,,801/12 Queens Road Melbourne VIC 3004,-37.8384194,144.9747126,900.0
2,2,,,6016/228 La Trobe Street Melbourne VIC 3000,-37.8097612,144.962455,900000000.0
2,2,,,7305/228 La Trobe Street Melbourne VIC 3000,-37.8097514,144.9626141,900000000.0
2,2,,,4916/228 La Trobe Street Melbourne VIC 3000,-37.8097514,144.9626141,900000000.0
2,2,,,8303/228 La Trobe Street Melbourne VIC 3000,-37.8097688,144.9624585,900000000.0
3,2,1,,4313/560 Lonsdale Street Melbourne VIC 3000,-37.8140313,144.9556025,900.0
2,,2,,91/604 St Kilda Road Melbourne VIC 3004,-37.8512141,144.9800934,900000000.0
2,2,,,3817/228 La Trobe Street Melbourne VIC 3000,-37.8097688,144.9624585,900000000.0
3,2,2,,37 Beach Road Mentone VIC 3194,-37.9856825,145.0524109,900000000.0
4,,2,680m²,70 HOLMES ROAD Moonee Ponds VIC 3039,-37.7658658,144.9149268,895000000.0
4,3,1,,30 Carrington Rd Niddrie VIC 3042,-37.7373686,144.8885733,900000000.0
3,2,1,,303/392-398 Victoria Street North Melbourne VIC 3051,-37.8053255,144.9528938,895000000.0
2,2,1,,2A Jamieson street Northcote VIC 3070,-37.7784364,145.003678,900000000.0
3,3,2,,42 Scarborough Drive Patterson Lakes VIC 3197,-38.069791,145.139607,900000000.0
3,2,1,,6 Bowen Street Prahran VIC 3181,-37.8551905,145.0039741,900000000.0
5,3,2,,41 Beauford Rd Red Hill VIC 3937,-38.3774515,145.035073,900000000.0
3,2,1,,32 Jessie St Richmond VIC 3121,-37.8258902,144.990142,900000000.0
3,2,2,,9/69 River Street Richmond VIC 3121,-37.8185419,145.0137411,895000000.0
4,2,3,,1/65 Grange Road Sandringham VIC 3191,-37.9485267,145.0190891,900.0
2,2,1,,1104/138 Ferrars Street South Melbourne VIC 3205,-37.8299599,144.9532581,900000000.0
3,2,,,13 Lyell Street South Melbourne VIC 3205,-37.8367732,144.9509774,900.0
3,2,2,,704/99 Palmerston Crescent South Melbourne VIC 3205,-37.8362161,144.9672523,900000000.0
3,2,,,46 Alexandra Street South Yarra VIC 3141,-37.8408625,144.988399,900000000.0
3,2,2,,276 Punt Road South Yarra VIC 3141,-37.8448242,144.9855587,895000000.0
2,,,,1502/42-48 Claremont St South Yarra VIC 3141,-37.836712,144.994183,900000000.0
2,2,,,2803/260 City Rd Southbank VIC 3006,-37.8260239,144.9595477,900000000.0
3,,1,,1 Neptune Street St Kilda VIC 3182,-37.8636,144.978221,900000000.0
3,2,1,,3/49 Alexandra Street St Kilda East VIC 3183,-37.86510579999999,145.0026449,895000000.0
2,,1,,16 Glyndebourne Avenue Toorak VIC 3142,-37.8409071,145.0261925,900.0
3,2,2,,9 Tyalla Crescent Toorak VIC 3142,-37.8382884,145.0234414,895.0
3,2,1,,123/33 Jeffcott Street West Melbourne VIC 3003,-37.8118081,144.9525983,900000000.0
3,2,1,,228 Adderley Street West Melbourne VIC 3003,-37.80806,144.944867,900000000.0
3,,1,,4 High Street Windsor VIC 3181,-37.8505521,144.9819272,900000000.0
4,2,2,397m²,55 Powell Street Yarraville VIC 3013,-37.8173979,144.8852636,900000000.0
4,2,2,,20 Windsor Avenue Bentleigh VIC 3204,-37.915437,145.0485193,899000000.0
,,,,639 Chapel Street South Yarra VIC 3141,-37.8378503,144.9957013,896000000.0
4,3,3,,6A Quinns Road Bentleigh East VIC 3165,-37.919139,145.060632,895000000.0
4,3,2,,2/10 Ozone Street Rye VIC 3941,-38.3725067,144.8288467,895132686.0
4,4,2,,24 Tedesco Circuit Williamstown North VIC 3016,-37.8554804,144.8730145,895000000.0
4,2,2,,8A St James Avenue Bentleigh VIC 3204,-37.9165941,145.0476597,890.0
4,2,2,597m²,20 St James Avenue Bentleigh VIC 3204,-37.9168994,145.0492299,890000000.0
3,2,2,,2C Ratho Avenue Brighton East VIC 3187,-37.9284887,145.0049275,890.0
4,3,2,,1A Murray Drive Burwood VIC 3125,-37.8458283,145.1007098,890000000.0
3,2,2,,1240A Malvern Road Malvern VIC 3144,-37.8525717,145.0358547,890.0
2,2,2,,102/8 Bligh Place Melbourne VIC 3000,-37.817252,144.963903,890.0
3,,,,175 Richardson Street Middle Park VIC 3206,-37.8484445,144.9603124,890.0
3,2,3,,2/5 Northcote Terrace Mornington VIC 3931,-38.219288,145.033481,890000000.0
3,2,2,,32 Tanner Grove Northcote VIC 3070,-37.7711424,145.0106082,890.0
4,,1,,6 Beavers Road Northcote VIC 3070,-37.7665606,144.9983838,880.0
4,2,3,,12A Bevan Street Ormond VIC 3204,-37.9055098,145.0269244,890.0
3,2,2,,1/128 Burnley Street Richmond VIC 3121,-37.817182,145.00844,890000000.0
3,,3,439m²,427 Punt Road Richmond VIC 3121,-37.8272203,144.9888186,890000000.0
2,,1,,2/50 Waterloo Crescent St Kilda VIC 3182,-37.8624577,144.9828046,890000000.0
1,,1,,1/50 Waterloo Crescent St Kilda VIC 3182,-37.8624577,144.9828046,890000000.0
4,4,2,,6 Tedesco Circuit Williamstown North VIC 3016,-37.8558071,144.872155,870000000.0
4,4,2,,4 Tedesco Circuit Williamstown North VIC 3016,-37.8558071,144.872155,870000000.0
3,,2,463m²,30 Simpson Street Yarraville VIC 3013,-37.8171873,144.892356,890000000.0
4,2,2,,13 Burns Street Yarraville VIC 3013,-37.8105769,144.8846189,890000000.0
4,,,,803 Park Street Brunswick VIC 3056,-37.7769045,144.9534508,880.0
10,10,,,8 Inverness Avenue Burwood VIC 3125,-37.8454058,145.1196726,880000000.0
3,2,1,,670 Rathdowne Street Carlton North VIC 3054,-37.7815039,144.9736392,880.0
4,,,,690 Canning Street Carlton North VIC 3054,-37.7804667,144.9761779,880.0
4,,2,,390 Bay Road Cheltenham VIC 3192,-37.9569885,145.0468213,880.0
3,2,1,,1107/8 Marmion Place Docklands VIC 3008,-37.8133446,144.9425312,880000000.0
4,3,5,,263 Glenlyon Road Fitzroy North VIC 3068,-37.7734473,144.9812124,880000000.0
4,2,5,700m²,70 Emo Road Malvern East VIC 3145,-37.8759864,145.0522876,880000000.0
2,2,,,3815/228 La Trobe Street Melbourne VIC 3000,-37.8097688,144.9624585,880000000.0
4,3,2,,13 Balcombe Street Mornington VIC 3931,-38.2181631,145.0503281,880000000.0
4,2,2,,106 Summerfield Drive Mornington VIC 3931,-38.2428085,145.0677289,880000000.0
4,2,4,,14 John William Drive Mount Martha VIC 3934,-38.2505609,145.0569391,880000000.0
4,,1,,9 Tyson Street Richmond VIC 3121,-37.8223537,144.9906369,880000000.0
3,2,1,,33 Albion Street South Yarra VIC 3141,-37.8430442,144.9874092,880.0
3,2,1,,1612/80 Clarendon Street Southbank VIC 3006,-37.8271147,144.9575927,880000000.0
2,2,,,1802/260 City Rd Southbank VIC 3006,-37.8260239,144.9595477,880000000.0
4,3,2,,219A Collins Street Thornbury VIC 3071,-37.7563301,145.0231787,880.0
3,2,1,,3/536 Toorak Road Toorak VIC 3142,-37.8425614,145.0190673,880.0
4,3,2,,47 Waterline Place Williamstown VIC 3016,-37.8648707,144.9079614,880000000.0
3,2,2,332m²,22 Union Street Windsor VIC 3181,-37.8538133,144.9849563,880000000.0
3,2,2,,33 Deakin Street Bentleigh East VIC 3165,-37.9139314,145.0655536,875.0
4,3,1,,18 Latham Street Bentleigh East VIC 3165,-37.9136466,145.0682673,875000000.0
4,2,1,,3 Chummie Place Carlton VIC 3053,-37.8016602,144.966273,875.0
3,2,2,,9/3 Wilks Street Caulfield North VIC 3161,-37.8629701,145.0143103,875.0
4,2,2,,147 O'Hea Street Coburg VIC 3058,-37.7366392,144.9537412,875.0
4,2,1,,26 Carlisle Crescent Hughesdale VIC 3166,-37.8973011,145.0803295,875000000.0
4,2,2,,149 Park Street Moonee Ponds VIC 3039,-37.7608459,144.9067146,2776008838.0
3,2,2,,40 Arthurs Seat Road Red Hill VIC 3937,-38.3759194,145.0262356,875000000.0
3,,2,,8B Allowah Terrace Richmond VIC 3121,-37.818702,144.995885,875000000.0
2,2,1,,3813/70 Southbank Bvd Southbank VIC 3006,-37.8232421,144.9640661,875000000.0
1,,1,,202/154 Chapel Street St Kilda VIC 3182,-37.8702738,144.9902496,875000000.0
3,2,2,,90 Pakington Street St Kilda VIC 3182,-37.8660039,144.9899431,863082206.0
3,,1,,147 Pigdon Street Carlton North VIC 3054,-37.7822945,144.97223,850000000.0
2,2,2,,7/37 Groom Street Clifton Hill VIC 3068,-37.7935643,144.9984269,870.0
3,2,2,,107 Forest Dr Mount Martha VIC 3934,-38.2902274,145.0164197,870000000.0
3,2,2,,701/188 Macaulay Road North Melbourne VIC 3051,-37.7962788,144.9401218,900000000.0
4,2,2,,172 Raleigh St Thornbury VIC 3071,-37.7600488,145.0112171,870000000.0
4,2,4,,131 Fleetwood Crescent Frankston South VIC 3199,-38.16811149999999,145.1060103,865000000.0
4,2,2,,2/15 Leyden Street Brunswick East VIC 3057,-37.7743323,144.9735962,900000000.0
6,5,1,,1B Osborne Avenue Bentleigh VIC 3204,-37.9160643,145.0488638,860000000.0
3,2,2,,2 Gray Street Bentleigh East VIC 3165,-37.9221947,145.0530198,860000000.0
4,2,2,,80 Schutt Street Newport VIC 3015,-37.8365084,144.8817391,860000000.0
5,2,2,,7 Eastwood Avenue Preston VIC 3072,-37.7379798,144.9975445,860000000.0
5,2,2,,47 Elwood St Brighton VIC 3186,-37.9001465,144.9954786,856517886.0
2,,1,,466 Dandenong Road Caulfield North VIC 3161,-37.8637592,145.0206462,855000000.0
3,,,,131 George Street Fitzroy VIC 3065,-37.804804,144.980644,855091041.0
1,,1,,1706/200 Spencer Street Melbourne VIC 3000,-37.816228,144.9532465,854000000.0
2,,1,,22 Little Graham Street Albert Park VIC 3206,-37.8440497,144.9483716,850.0
3,2,2,,31A Shiers Street Alphington VIC 3078,-37.7725249,145.0303259,845.0
2,2,2,,205/835 High Street Armadale VIC 3143,-37.8546269,145.0153947,850.0
3,2,2,,2/62 The Parade Ascot Vale VIC 3032,-37.7726271,144.9167757,850.0
4,2,,,38 Grove Road Barwon Heads VIC 3227,-38.2789531,144.4903817,-8249.0
4,2,2,,5B Delma Street Bentleigh East VIC 3165,-37.9321774,145.0523108,850.0
5,3,4,,14 Thomasina Street Bentleigh East VIC 3165,-37.9119548,145.0565945,850.0
4,2,2,,1A Harper Avenue Bentleigh East VIC 3165,-37.928627,145.0534935,850000000.0
3,2,1,,7/8-10 Durrant Street Brighton VIC 3186,-37.9074458,145.0013663,850000000.0
3,,1,,153 South Road Brighton VIC 3186,-37.9291962,145.0058301,850000000.0
3,3,2,,4/6 Hemming Street Brighton East VIC 3187,-37.9319088,145.0320912,2532009775.0
3,2,2,,27A Hornby Street Brighton East VIC 3187,-37.9122056,145.0191425,850000000.0
3,2,2,,40 Cassels Road Brunswick VIC 3056,-37.7568902,144.9599467,850.0
6,2,,,8 Uganda Street Burwood VIC 3125,-37.8440268,145.1088331,850000000.0
2,2,,,4016/160 Victoria Street Carlton VIC 3053,-37.8062149,144.9618804,850000000.0
2,2,,,4912/160 Victoria St Carlton VIC 3053,-37.8061768,144.9617429,850000000.0
2,2,,,5109/160 Victoria Street Carlton VIC 3053,-37.8062149,144.9618804,850000000.0
3,2,,,607 Rathdowne Street Carlton North VIC 3054,-37.7909036,144.971348,850.0
3,2,2,,1/55 Wanda Rd Caulfield North VIC 3161,-37.867261,145.0198444,850000000.0
4,2,1,,1/12 Cole Crescent Chadstone VIC 3148,-37.8873931,145.0908422,850.0
3,2,2,,1/1A Goulburn Street Cheltenham VIC 3192,-37.963682,145.0579728,850000000.0
6,3,2,,1/3 Lillian Street Clayton VIC 3168,-37.9207361,145.1163969,850000000.0
6,3,1,,2/89 Moriah Street Clayton VIC 3168,-37.9249308,145.1293337,850000000.0
2,2,2,,1102/70 Lorimer Street Docklands VIC 3008,-37.824812,144.945973,849327571.0
2,2,2,,2403/80 Lorimer Street Docklands VIC 3008,-37.8249068,144.945158,849155529.0
2,2,1,,1703/100 Lorimer Street Docklands VIC 3008,-37.8240855,144.9430305,850000000.0
3,2,3,,55B The Esplanade Drumcondra VIC 3215,-38.1305157,144.3558109,850000000.0
3,2,3,,400 Lower Heidelberg Road Eaglemont VIC 3084,-37.7637316,145.068052,2696505172.0
3,2,2,,4/34-44 Regent Street Elsternwick VIC 3185,-37.88032,145.0021924,850.0
5,2,1,,2/280 Barkly Street Elwood VIC 3184,-37.8746852,144.979986,846000000.0
4,,2,,227 Pascoe Vale Rd Essendon VIC 3040,-37.754216,144.9255479,850000000.0
3,,,,372A Gore Street Fitzroy VIC 3065,-37.7977708,144.9834056,850.0
3,2,1,,199 Victoria Parade Fitzroy VIC 3065,-37.8084816,144.982035,850.0
3,,,,40 Church Street Fitzroy North VIC 3068,-37.788472,144.978386,850000000.0
2,2,1,,86 Barkly Street Fitzroy North VIC 3068,-37.7789231,144.9821484,850000000.0
5,2,,,23 Brighton Street Flemington VIC 3031,-37.7844232,144.9298913,2696503343.0
4,2,4,,20 St Anns Road Flinders VIC 3929,-38.4716825,145.0231827,850000000.0
9,3,3,,69 Hyde Street Footscray VIC 3011,-37.806049,144.9009967,850000000.0
4,3,3,560m²,5 Lakeview Court Glen Waverley VIC 3150,-37.886278,145.152601,850000000.0
4,3,2,,149 Ludstone Street Hampton VIC 3188,-37.9347164,145.0193043,845.0
5,3,2,,50 Kyeema Avenue Highton VIC 3216,-38.1661198,144.3044953,850000000.0
4,3,2,,5/80 Hobsons Road Kensington VIC 3031,-37.7953098,144.9168363,850000000.0
3,,1,,92 Emo Road Malvern East VIC 3145,-37.8745267,145.0525032,850000000.0
4,2,2,,58 Wright Street McKinnon VIC 3204,-37.9122425,145.0309717,850.0
2,,1,,3003/228 La Trobe Street Melbourne VIC 3000,-37.8097514,144.9626141,850000000.0
2,2,1,,709/14 Queens Road Melbourne VIC 3004,-37.8389211,144.9749946,850000000.0
4,2,2,,723 Mt Alexander Road Moonee Ponds VIC 3039,-37.7629044,144.9218927,2696505354.0
3,2,1,,110 Park Street Moonee Ponds VIC 3039,-37.7607599,144.9098962,2696502271.0
4,2,2,,29 Dactyl Road Moorabbin VIC 3189,-37.9390408,145.0426004,1773677861.5
3,2,2,,1 Wimborne Avenue Mount Eliza VIC 3930,-38.1799814,145.0803941,850000000.0
5,3,2,,2/47 Briggs Street Mount Waverley VIC 3149,-37.8963456,145.1126257,850.0
4,2,1,439.81m²,18 Ardyne Street Murrumbeena VIC 3163,-37.8926347,145.0686981,850000000.0
4,2,,,475 Neerim Road Murrumbeena VIC 3163,-37.8910654,145.0704212,850000000.0
3,2,2,,26B Wallace Avenue Murrumbeena VIC 3163,-37.904382,145.0679004,850000000.0
4,2,3,,3 Anderson Street Newport VIC 3015,-37.8453704,144.8786446,850000000.0
4,2,3,,3 Anderson Street Newport VIC 3015,-37.8453704,144.8786446,850000000.0
4,2,2,,15a Ida Street Niddrie VIC 3042,-37.7461933,144.8892396,850.0
2,,1,,101/17 Robbs Parade Northcote VIC 3070,-37.7685243,144.9995905,850000000.0
3,,1,,2 Vauxhall Road Northcote VIC 3070,-37.7769208,145.01185,850.0
4,2,1,,18 Walnut Street Ormond VIC 3204,-37.9085664,145.0499835,850000000.0
3,2,2,,6/11 Bay Street Parkdale VIC 3195,-38.00308,145.0810804,850000000.0
3,,,,16 Morrah Street Parkville VIC 3052,-37.795505,144.957196,2696501723.0
1,,1,,164 Commercial Road Prahran VIC 3181,-37.8467793,144.9916795,850000000.0
3,,2,,16 Baynes Road Red Hill South VIC 3937,-38.3839935,145.0230603,850000000.0
3,,1,,40 Kent Street Richmond VIC 3121,-37.8149386,145.0020401,850000000.0
4,2,2,,31 Austin Road Seaford VIC 3198,-38.1052309,145.1343501,850.0
5,2,,,12 Morobe Street Sorrento VIC 3943,-38.3543648,144.758948,850000000.0
3,2,1,,7/278 Kings Way South Melbourne VIC 3205,-37.8330825,144.9669774,850000000.0
3,,1,,7 Palermo Street South Yarra VIC 3141,-37.8415427,144.9961027,850000000.0
3,,1,,37 Cunningham Street South Yarra VIC 3141,-37.8401288,144.9965869,850000000.0
2,2,,,29 Argo Street South Yarra VIC 3141,-37.8437885,144.9872371,850000000.0
4,,2,,485 Punt Road South Yarra VIC 3141,-37.8440221,144.9851507,845.0
3,2,2,,8/21 Kensington Road South Yarra VIC 3141,-37.8381678,145.0007295,850000000.0
3,2,2,,9/168 Toorak Road West South Yarra VIC 3141,-37.8379609,144.985494,850000000.0
2,,,,67 Wilson Street South Yarra VIC 3141,-37.8439367,144.9984269,850000000.0
2,2,1,,1802/7 Claremont Street South Yarra VIC 3141,-37.83820559999999,144.9935531,850000000.0
2,2,1,,"Level 35, 3501/7 Riverside Quay Southbank VIC 3006",-37.8213341,144.9646982,850000000.0
3,2,1,,3101/1 Balston Street Southbank VIC 3006,-37.8250217,144.9615708,850.0
3,3,1,,3706/283 City Road Southbank VIC 3006,-37.82730979999999,144.9588705,850000000.0
4,2,,,36 Reed Street Spotswood VIC 3015,-37.82974979999999,144.8800414,850000000.0
3,2,1,,201/20 Blessington Street St Kilda VIC 3182,-37.8704366,144.9800936,850000000.0
3,2,1,,202/20 Blessington Street St Kilda VIC 3182,-37.8704366,144.9800936,850000000.0
4,2,6,"1,894m²",85-86 Bluff Rd St Leonards VIC 3223,-38.1858684,144.7119873,850000000.0
1,,,,14/70 Canterbury Road Toorak VIC 3142,-37.8424594,145.0108016,850000000.0
4,2,1,,8 Balmerino Avenue Toorak VIC 3142,-37.836467,145.008938,850.0
3,2,1,,2 Woodside Crescent Toorak VIC 3142,-37.8432232,145.0047456,850000000.0
3,3,2,,2/63 Rosslyn Street West Melbourne VIC 3003,-37.8079901,144.9527455,850000000.0
3,2,2,,10 Ryans Lane Williamstown VIC 3016,-37.8587579,144.9009858,850.0
4,4,2,,10 Tedesco Circuit Williamstown North VIC 3016,-37.8554804,144.8730145,850000000.0
4,4,2,,8 Tedesco Circuit Williamstown North VIC 3016,-37.8554804,144.8730145,850000000.0
4,2,2,,124 Punt Road Windsor VIC 3181,-37.8518796,144.9843108,850.0
4,3,2,,6 Benbow Street Yarraville VIC 3013,-37.8225708,144.8807506,850000000.0
5,3,2,185.7m²,Ashwood VIC 3147,-37.864355,145.0981134,845000000.0
2,,1,,656 Blackburn Road Notting Hill VIC 3168,-37.9043048,145.1428862,845000000.0
4,,1,,389 Napier Street Fitzroy VIC 3065,-37.7959254,144.9809542,840.0
3,3,1,,13 Kent Street Richmond VIC 3121,-37.814476,145.0009559,840000000.0
4,2,3,,1/2 Manatee Avenue Mount Eliza VIC 3930,-38.1871177,145.0745741,835.0
4,2,2,,3a Victoria Street Sandringham VIC 3191,-37.9560339,145.0120456,835.0
4,2,2,,59B Castlewood Street Bentleigh East VIC 3165,-37.9158714,145.0695596,830.0
4,2,3,,37 Warwick Street Bentleigh East VIC 3165,-37.9207366,145.0706796,830.0
5,2,2,,18 Muyan Circuit Burwood VIC 3125,-37.8491937,145.1252114,820000000.0
4,,,,124 Rathdowne Street Carlton VIC 3053,-37.796727,144.970899,830.0
5,2,2,,45 Normanby Road Caulfield North VIC 3161,-37.87309520000001,145.0363755,830000000.0
3,2,2,,710B/455 Glen Huntly Road Elsternwick VIC 3185,-37.8848879,145.0067786,830000000.0
4,3,2,,24 Kurrajong Avenue Glen Waverley VIC 3150,-37.892676,145.1576971,830000000.0
3,3,2,,20a Horsmunden Road Moorabbin VIC 3189,-37.9398108,145.047335,830000000.0
2,,1,,617/14 David Street Richmond VIC 3121,-37.815212,145.0117552,830000000.0
6,3,2,,5 Kenway Street Sunbury VIC 3429,-37.5538819,144.7302627,830000000.0
3,2,2,,2/17 Potter Street Black Rock VIC 3193,-37.96353149999999,145.0147737,825000000.0
3,2,2,,2/1 Barkly Street Brighton VIC 3186,-37.9046299,144.9935077,825.0
3,,,,165 Brunswick Road Brunswick VIC 3056,-37.7775899,144.9664108,825.0
3,2,1,,3/22 Albert Street Brunswick East VIC 3057,-37.7695439,144.9667127,825.0
3,,,,320 Rae Street Fitzroy North VIC 3068,-37.7847804,144.9801474,825.0
3,2,2,,802/701 Mt Alexander Road Moonee Ponds VIC 3039,-37.7644929,144.9228602,825000000.0
4,2,2,,89 Wilsons Road Mornington VIC 3931,-38.2304377,145.0384209,825000000.0
3,,1,,9 Derby Street Northcote VIC 3070,-37.7755362,145.0042806,2617008975.0
4,,,,10 Williams Road Prahran VIC 3181,-37.858134,145.0019347,825000000.0
3,,,,29 Tanner Street Richmond VIC 3121,-37.8229219,144.9906542,825.0
3,2,1,,157 Somerset Street Richmond VIC 3121,-37.816018,145.00725,825000000.0
3,,1,180m²,43 Chestnut Street Richmond VIC 3121,-37.8279526,144.9956293,825000000.0
2,2,,,308/260 City Rd Southbank VIC 3006,-37.8260239,144.9595477,825000000.0
4,3,3,,4 Stephenson Street Spotswood VIC 3015,-37.82712860000001,144.8750774,825000000.0
3,2,3,,1/22 Jackson Street St Kilda VIC 3182,-37.8617319,144.9756185,825000000.0
3,,,,17 Empress Rd St Kilda East VIC 3183,-37.8678997,145.0013106,825000000.0
3,,,,24 Union Street Windsor VIC 3181,-37.853952,144.9850423,825000000.0
3,2,2,,8/8 Grange Road Alphington VIC 3078,-37.7808504,145.02503,820000000.0
4,2,2,,1/1 River Avenue Ascot Vale VIC 3032,-37.7800091,144.9014122,820000000.0
4,3,3,,1/1 Allanby Grove Bentleigh East VIC 3165,-37.9226306,145.0571042,820.0
3,2,2,,8 Orloff Street Bentleigh East VIC 3165,-37.9330623,145.0648644,820000000.0
4,3,2,,54 Marriage Road Brighton East VIC 3187,-37.9195634,145.0137506,820000000.0
4,2,1,,382 Albion Street Brunswick VIC 3056,-37.7591821,144.9480631,820000000.0
4,2,2,,1/11 Takapuna Street Caulfield South VIC 3162,-37.89928,145.028296,820.0
4,3,3,,1-2 Turner Court Glen Waverley VIC 3150,-37.882463,145.146883,820000000.0
6,3,4,,33 Kallara Grove Maribyrnong VIC 3032,-37.7858024,144.8874987,820000000.0
3,2,2,,3/63 Buckley Street Moonee Ponds VIC 3039,-37.7578054,144.9223107,820000000.0
2,2,1,,207/107 Beach Street Port Melbourne VIC 3207,-37.8407178,144.931117,820000000.0
3,,,,34 Trinian Street Prahran VIC 3181,-37.8512056,145.0019993,820000000.0
3,2,1,,6 Cromwell Place South Yarra VIC 3141,-37.8465516,144.9987118,820000000.0
3,2,,,76 Shaftesbury Parade Thornbury VIC 3071,-37.7595488,144.9945103,2601509508.0
3,2,2,,4/23 Maple Walk Moonee Ponds VIC 3039,-37.7675363,144.9198932,850000000.0
2,,1,,1707/620 Collins St Melbourne VIC 3000,-37.81883699999999,144.954343,815000000.0
2,,1,,2101/200 Spencer St Melbourne VIC 3000,-37.816228,144.9532465,815000000.0
4,2,2,,34 The Parkway Patterson Lakes VIC 3197,-38.0560354,145.1412695,815000000.0
1,,1,,135 Inkerman Street St Kilda VIC 3182,-37.8650204,144.9876674,812000000.0
3,2,2,,30B McKittrick Road Bentleigh VIC 3204,-37.929744,145.0436099,810000000.0
4,2,,,409 Lygon Street Carlton VIC 3053,-37.7949483,144.9676693,810000000.0
4,2,,,409 Lygon Street Carlton VIC 3053,-37.7949483,144.9676693,810000000.0
4,2,1,436m²,23 Garnet Street Preston VIC 3072,-37.74617910000001,145.003678,2425000264.0
2,2,1,,310/243 TOORAK ROAD South Yarra VIC 3141,-37.8392541,144.995015,850000000.0
3,,,,46 Greig Street Albert Park VIC 3206,-37.8416324,144.9487728,795.0
4,3,2,,80c First Ave Altona North VIC 3025,-37.8331978,144.8552887,800000000.0
2,2,1,,201/737 High Street Armadale VIC 3143,-37.8542296,145.0124538,800000000.0
3,,1,,5 Llaneast Street Armadale VIC 3143,-37.8615111,145.0274411,795.0
5,2,2,,1/178 Nepean Highway Aspendale VIC 3195,-38.0298143,145.1025197,800.0
4,2,,,14 Ozone Road Barwon Heads VIC 3227,-38.2782553,144.4914939,795000000.0
3,2,1,,1/15 Smith Street Bentleigh VIC 3204,-37.91805,145.043824,795000000.0
3,2,1,,10/30 Willansby Avenue Brighton VIC 3186,-37.9073116,145.0036956,800.0
2,2,2,,Unit 8/17A Martin St Brighton VIC 3186,-37.8953152,144.9891952,10598.0
3,,2,,10 Montrose Avenue Brighton VIC 3186,-37.8921888,144.9991585,800.0
3,,,222m²,32 Rusden Street Brighton VIC 3186,-37.887015,144.9971034,800000000.0
3,2,2,,1/3 Asling Street Brighton VIC 3186,-37.904604,145.00152,800000000.0
3,,1,,26 Budd Street Brighton VIC 3186,-37.90218,145.0000194,795.0
3,2,2,,15 Plunket Street Brighton East VIC 3187,-37.9200485,145.0141596,800.0
4,2,2,,2 Loyola Avenue Brunswick VIC 3056,-37.7710607,144.9699819,2522004429.0
4,,,,40 Frederick Street Brunswick VIC 3056,-37.7615156,144.9596133,800.0
3,3,2,,195 Glenlyon Road Brunswick East VIC 3057,-37.7727109,144.9739834,800000000.0
2,,,,4605/160 Victoria Street Carlton VIC 3053,-37.8060742,144.9618361,800000000.0
2,2,,,1612/160 Victoria Street Carlton VIC 3053,-37.8062149,144.9618804,800000000.0
2,2,,,1716/160 Victoria Street Carlton VIC 3053,-37.8062149,144.9618804,800000000.0
2,2,,,1816/160 Victoria Street Carlton VIC 3053,-37.8062149,144.9618804,800000000.0
2,2,,,2008/160 Victoria Street Carlton VIC 3053,-37.8062149,144.9618804,800000000.0
3,,1,,258 Amess Street Carlton North VIC 3054,-37.7813048,144.9747472,2538005461.0
4,3,2,,2/22 Woornack Road Carnegie VIC 3163,-37.8975654,145.0579943,800.0
3,2,2,,11 Gnarwyn Road Carnegie VIC 3163,-37.8942463,145.0610693,800000000.0
3,2,2,,7 Raglan Street Caulfield North VIC 3161,-37.8694137,145.0202942,795.0
3,2,2,,2/55 Wanda Rd Caulfield North VIC 3161,-37.867261,145.0198444,800000000.0
4,2,3,,46 Venus Street Caulfield South VIC 3162,-37.894172,145.0149991,800000000.0
4,3,2,,1/4 Reeve Court Cheltenham VIC 3192,-37.9606169,145.0579082,800.0
4,2,3,,23 Weymar Street Cheltenham VIC 3192,-37.9619413,145.0619785,795.0
4,,,,23 Woolacott Street Coburg VIC 3058,-37.7493384,144.9627969,2522005538.0
3,2,2,,17/174 Smith Street Collingwood VIC 3066,-37.8033362,144.9837513,795000000.0
3,,4,,18 Olive Road Devon Meadows VIC 3977,-38.1652368,145.2974811,800000000.0
2,2,2,,1101/81 South Wharf Drive Docklands VIC 3008,-37.8222526,144.9360816,800000000.0
2,2,2,,304/30 Rakaia Way Docklands VIC 3008,-37.8148828,144.9414987,800000000.0
2,2,2,,184/8 Waterside Place Docklands VIC 3008,-37.819887,144.9421624,800000000.0
2,2,1,,1413/25 Waterfront Way Docklands VIC 3008,-37.8136903,144.9392889,800000000.0
2,2,1,,801/387 Docklands Drive Docklands VIC 3008,-37.8137388,144.9409209,800000000.0
4,,2,,54 Shoobra Road Elsternwick VIC 3185,-37.8893846,145.0075519,800000000.0
3,2,2,,1/18 Blanche Street Elsternwick VIC 3185,-37.879647,145.014745,800000000.0
3,2,1,,2/107 Addison Street Elwood VIC 3184,-37.8807827,144.9803303,795000000.0
4,3,2,,81 Deakin Street Essendon VIC 3040,-37.7461693,144.8917972,800.0
3,2,2,,5 Woodland Way Fingal VIC 3939,-38.4096896,144.8544938,800000000.0
3,,,, Upstairs 173 Brunswick Street Fitzroy VIC 3065,-37.7974551,144.9804594,795.0
3,,,,117 Rowe Street Fitzroy North VIC 3068,-37.7848882,144.9909059,800.0
5,2,4,,41 Nursery Avenue Frankston VIC 3199,-38.1492097,145.1450204,799000000.0
3,2,2,,3/114 Yarra Street Geelong VIC 3220,-38.15118349999999,144.3614269,800000000.0
5,2,2,,2 Burramine Road Glen Waverley VIC 3150,-37.8841459,145.1714324,880000000.0
3,,2,,8 Gillies St Hampton VIC 3188,-37.9406337,145.0069923,800.0
5,3,2,,11 Tweed Street Highett VIC 3190,-37.9461668,145.0294217,795.0
6,2,2,,62 Daly Boulevard Highton VIC 3216,-38.1976013,144.3080163,800000000.0
4,3,2,,2/88 Beatty Street Ivanhoe VIC 3079,-37.75830819999999,145.0344163,2538005585.0
3,2,1,,18 Mountview Road Malvern VIC 3144,-37.8509834,145.0346567,795000000.0
4,3,3,,5a Shrewsbury Street Malvern East VIC 3145,-37.8788544,145.0874534,800000000.0
4,3,1,,24 Chicago St Maribyrnong VIC 3032,-37.76603,144.887887,800000000.0
2,2,,,5612/370 Queen Street Melbourne VIC 3000,-37.8101314,144.9587648,800000000.0
2,,,,5313/228 La Trobe Street Melbourne VIC 3000,-37.8097514,144.9626141,800000000.0
2,2,,,3502/318 Russell Street Melbourne VIC 3000,-37.8091709,144.966801,800000000.0
2,2,1,,2802/160 Spencer Street Melbourne VIC 3000,-37.8172652,144.953648,800000000.0
3,2,1,104m²,503/8 Bowen Crescent Melbourne VIC 3004,-37.8354199,144.9725792,800964179.0
2,,2,,2514/250 Elizabeth Street Melbourne VIC 3000,-37.812564,144.9628184,800000000.0
2,2,1,,1003/29 Market Street Melbourne VIC 3000,-37.8186838,144.9604134,800000000.0
2,2,,,1502/157 A'Beckett Street Melbourne VIC 3000,-37.8099156,144.9591846,800000000.0
2,2,1,,5605/560 Lonsdale Street Melbourne VIC 3000,-37.8140313,144.9556025,800.0
3,2,1,,478 St Kilda Road Melbourne VIC 3004,-37.8425885,144.9770385,800000000.0
3,2,2,,106 Dominion Road Mount Martha VIC 3934,-38.2724048,145.0247502,795000000.0
4,2,4,,11 Davies Street Newport VIC 3015,-37.8454775,144.8871978,800000000.0
3,2,2,,9B Fernery Grove Newtown VIC 3220,-38.150523,144.3355048,800.0
3,,,,14 Christmas Street Northcote VIC 3070,-37.766279,145.0063897,1269467833.5
3,,1,,2 Langwells Parade Northcote VIC 3070,-37.76723399999999,145.000761,2538000967.0
4,,1,,80 Bastings Street Northcote VIC 3070,-37.7749002,145.0050984,2538003323.0
4,2,2,,134C Atherton Road Oakleigh VIC 3166,-37.9002553,145.0989861,795.0
4,3,2,,3/14 Macrina Street Oakleigh East VIC 3166,-37.8992087,145.1151299,800000000.0
4,2,4,,24 Wetland Drive Patterson Lakes VIC 3197,-38.060544,145.1402779,795.0
5,2,,,164 Yan Yean Road Plenty VIC 3090,-37.6658007,145.1254061,2538009775.0
3,3,2,,6 Tomkins Road Port Melbourne VIC 3207,-37.8286796,144.9426648,800.0
2,,1,,4/42 Princes Street Port Melbourne VIC 3207,-37.840685,144.935477,800.0
2,2,1,,16 The Crescent Port Melbourne VIC 3207,-37.8377841,144.9304598,795000000.0
2,2,2,,8/97-101 Cruikshank Street Port Melbourne VIC 3207,-37.837822,144.947196,800.0
3,2,3,"1,070m²",10-12 Franzel Avenue Portarlington VIC 3223,-38.1130496,144.6474211,800000000.0
3,2,,,1/42 Grandview Grove Prahran VIC 3181,-37.8495243,145.0083913,800000000.0
3,,1,,12 Gertrude Street Prahran VIC 3181,-37.8554678,144.9967375,795000000.0
2,,,,5 Pickford Street Prahran VIC 3181,-37.85725559999999,145.0066049,800.0
3,,,,26 Mcilwraith Street Princes Hill VIC 3054,-37.7846678,144.9684653,2522002856.0
2,2,1,,210/172 Lennox Street Richmond VIC 3121,-37.8185433,144.994252,800.0
3,,,,29 Berry Street Richmond VIC 3121,-37.8191637,144.998556,795000000.0
2,2,1,,4/81 Abinger Street Richmond VIC 3121,-37.8204882,145.0047756,800000000.0
2,2,,,402/246 Church St Richmond VIC 3121,-37.8186651,144.9989039,1240009750.0
2,2,1,,303/246 Church St Richmond VIC 3121,-37.8186651,144.9989039,1240001263.0
3,2,2,,49 Helm Ave Safety Beach VIC 3936,-38.3045717,145.0051341,800000000.0
5,4,6,,48 McCormicks Road Skye VIC 3977,-38.1127667,145.1959112,800000000.0
4,3,2,,92 Grant Road Somerville VIC 3912,-38.2095241,145.1792007,800000000.0
2,2,2,,503/78 Eastern Road South Melbourne VIC 3205,-37.8369768,144.9669056,800000000.0
2,2,1,,106/5 John Street South Melbourne VIC 3205,-37.8329942,144.9598221,800000000.0
2,,1,,South Melbourne VIC 3205,-37.8338889,144.963937,800000000.0
2,2,1,,1706/138 Ferrars Street South Melbourne VIC 3205,-37.8299599,144.9532581,800000000.0
3,2,1,,3 Cromwell Place South Yarra VIC 3141,-37.8464983,144.9992016,800000000.0
3,,1,,1/74 Leopold Street South Yarra VIC 3141,-37.83616250000001,144.9830964,800.0
2,2,2,,301/79 River Street South Yarra VIC 3141,-37.8363356,144.9975876,795000000.0
3,2,2,,70/183 City Road Southbank VIC 3006,-37.8247376,144.9617561,800.0
2,2,1,,2910/241 City Road Southbank VIC 3006,-37.8265171,144.960065,800000000.0
1,,1,,2307/14-16 The Esplanade St Kilda VIC 3182,-37.8650177,144.9746821,800000000.0
3,2,1,,17a Talbot Avenue St Kilda East VIC 3183,-37.8730379,145.0012289,800000000.0
3,,,,29 Godfrey Avenue St Kilda East VIC 3183,-37.8634208,144.9927568,799000000.0
3,2,2,,2B Bickhams Court St Kilda East VIC 3183,-37.8689471,145.0030538,800000000.0
4,,1,,23 Clyde Street Thornbury VIC 3071,-37.7608354,145.0070354,795.0
3,2,1,,2/1065 Malvern Road Toorak VIC 3142,-37.850778,145.026527,800000000.0
4,3,2,,8 Society Boulevard Truganina VIC 3029,-37.8358354,144.714448,800000000.0
3,2,2,,72A Morris Street Williamstown VIC 3016,-37.869905,144.9036159,800.0
4,2,,,31 Simpson Street Yarraville VIC 3013,-37.8174496,144.8920551,800000000.0
4,,,,7 Avoca Street Yarraville VIC 3013,-37.8141713,144.88939,800000000.0
2,2,2,,Armadale VIC 3143,-37.857253,145.0190242,798319474.0
2,3,2,,Brighton VIC 3186,-37.9043383,144.9931825,798724012.0
2,2,2,,Brighton VIC 3186,-37.9044002,144.9997396,799266429.0
2,2,2,,Brighton VIC 3186,-37.9044002,144.9997396,799128318.0
2,2,1,,Brighton VIC 3186,-37.9044002,144.9997396,799808890.0
2,2,2,,Brighton VIC 3186,-37.9043383,144.9931825,799196218.0
2,2,2,,Brighton VIC 3186,-37.9043383,144.9931825,798529930.0
2,2,2,,Brighton VIC 3186,-37.9044002,144.9997396,798659467.0
2,2,2,,Brighton VIC 3186,-37.9044002,144.9997396,798518106.0
2,2,1,,Malvern VIC 3144,-37.852403,145.0357348,798448448.0
2,2,1,,Toorak VIC 3142,-37.8432402,145.0190242,798795912.0
2,2,1,,Toorak VIC 3142,-37.8416709,145.013845,797963069.0
3,3,1,,17 Henderson Street Brunswick West VIC 3055,-37.7624513,144.9403404,795000000.0
3,2,3,,337 Nepean Highway Chelsea VIC 3196,-38.0458074,145.1124317,795000000.0
3,2,2,,2/91 Brighton Rd Elwood VIC 3184,-37.8733009,144.9893772,850000000.0
4,2,3,,9 Gertrude Street Geelong West VIC 3218,-38.1449175,144.3465017,795000000.0
3,2,2,,1 Bluff Rd Merricks Beach VIC 3926,-38.3997481,145.1048468,795000000.0
3,2,2,,1/11 Bay Street Parkdale VIC 3195,-38.00308,145.0810804,795000000.0
2,2,1,,2 Sutton Grove Richmond VIC 3121,-37.8225969,144.990798,795000000.0
2,,1,,2/261 Williams Road South Yarra VIC 3141,-37.8420314,145.004217,795000000.0
,,,,"Level 1, 301/13-15 Lake Street Caroline Springs VIC 3023",-37.7316459,144.7446886,41250000000.0
4,3,1,,65 South Street Ascot Vale VIC 3032,-37.7780919,144.9253329,790000000.0
3,3,2,,1/235 Ascot Vale Road Ascot Vale VIC 3032,-37.77483489999999,144.9233434,790.0
4,,2,,45 Murdock Street Brunswick VIC 3056,-37.757776,144.9587099,790.0
4,2,1,,17 Owen Street Brunswick West VIC 3055,-37.766182,144.938694,790.0
4,2,4,,329 Alma Road Caulfield North VIC 3161,-37.8648675,145.0168932,790000000.0
3,2,1,,506 Victoria Parade East Melbourne VIC 3002,-37.809935,144.988228,790000000.0
3,2,1,,5/148A Barkly Street Fitzroy North VIC 3068,-37.779046,144.983578,790.0
3,,,,20 Miller Street Fitzroy North VIC 3068,-37.7762156,144.9781835,790.0
2,2,1,,5106/560 Lonsdale Street Melbourne VIC 3000,-37.8140313,144.9556025,790.0
4,2,2,,24 Stafford Street Preston VIC 3072,-37.7440193,144.9853436,2506500919.0
3,,,,35 Duke Street Richmond VIC 3121,-37.8237917,145.0038071,775000000.0
2,2,2,,20 Lord Street Richmond VIC 3121,-37.8207326,145.004773,790000000.0
3,,2,,62 Sims Street Sandringham VIC 3191,-37.9539971,145.0125453,790.0
2,2,2,,12/45 Marine Parade St Kilda VIC 3182,-37.874449,144.977025,790.0
3,2,2,,6/5 Woorigoleen Rd Toorak VIC 3142,-37.8429886,145.0169363,790.0
