,address,latitude,longitude,nbed,nbath,ncar,price,type,historical_dates,postcode,year,month,suburb,weekly_rent,SA2_CODE
6,"108 ADELAIDE STREET, CHEWTON",-37.093186,144.254132,2.0,1.0,2,$250_pw,Residential Lease,October 2010,3451,2010,10,CHEWTON,250,202021027
41,"224 MAIN ROAD, CHEWTON",-37.0800585,144.2635775,1.0,1.0,0,$200_pw,House,January 2010,3451,2010,1,CHEWTON,200,202021027
93,"12 FRYERS ROAD, CHEWTON",-37.082726,144.256496,3.0,1.0,1,$220_pw,House,May 2010,3451,2010,5,CHEWTON,220,202021027
461,"1/31 COUNTRY CLUB DRIVE, CHIRNSIDE PARK",-37.756332,145.325246,3.0,1.0,1,$320_pw,House,March 2010,3116,2010,3,PARK,320,214011370
505,"5 YARRARIDGE DRIVE, CHIRNSIDE PARK",-37.757684,145.305604,3.0,1.0,2,$340_pw,House,December 2010,3116,2010,12,PARK,340,211051275
646,"55 CHIRNSIDE DRIVE, CHIRNSIDE PARK",-37.754336,145.320414,4.0,2.0,2,$380_pw,House,February 2010,3116,2010,2,PARK,380,213021346
681,"56 MUIR ROAD, CHRISTMAS HILLS",-37.657453,145.338221,2.0,1.0,0,$300_per_week,Rental_residential,July 2010,3775,2010,7,HILLS,300,209031212
742,"585 CHUM CREEK ROAD, CHUM CREEK",-37.64491085,145.49757232,3.0,1.0,4,$375_per_week,House,March 2010,3777,2010,3,CREEK,375,216021413
807,"15 CURRINGA COURT, CHURCHILL",-38.319109,146.420642,4.0,2.0,2,$300_per_week,none,December 2010,3842,2010,12,CHURCHILL,300,205041094
889,"5 AMAROO DRIVE, CHURCHILL",-38.323465,146.422057,3.0,1.0,1,$200_pw,none,September 2010,3842,2010,9,CHURCHILL,200,213021345
984,"31 DAVANZO AVENUE, CLARINDA",-37.944702,145.105229,3.0,1.0,2,$400,none,April 2010,3169,2010,4,CLARINDA,400,207021156
1173,"20 CRAWFORD ROAD, CLARINDA",-37.929396,145.101594,2.0,1.0,1,$290,House,April 2010,3169,2010,4,CLARINDA,290,208031186
1256,"430 WEBSTERS ROAD, CLARKEFIELD",-37.480097,144.737853,5.0,2.0,4,$380_per_week,House,February 2010,3430,2010,2,CLARKEFIELD,380,213011569
1271,"600 KONAGADERRA ROAD, CLARKEFIELD",-37.515177,144.783865,3.0,1.0,0,$400_per_week,House,March 2010,3430,2010,3,CLARKEFIELD,400,209011198
1295,"554 HEATHS LANE, CLARKEFIELD",-37.460714,144.804313,3.0,1.0,2,$250_pw,House,April 2010,3430,2010,4,CLARKEFIELD,250,210021235
1302,"0 HEATHS LANE, CLARKEFIELD",-37.453903,144.752682,3.0,1.0,0,$230_per_week,none,August 2010,3430,2010,8,CLARKEFIELD,230,216011408
1303,"1 GATEHOUSE, BOLINDA VALE, CLARKEFIELD",-37.4487718,144.6856322,3.0,1.0,1,$200_per_week,none,August 2010,3430,2010,8,CLARKEFIELD,200,206031115
1304,"COTTAGE/ 1556 MELBOURNE-LANCEFIELD ROAD, CLARKEFIELD",-37.4757072,144.7495857,3.0,1.0,1,$185_per_week,none,March 2010,3430,2010,3,CLARKEFIELD,185,206031115
1553,"12 BOTANIC DRIVE, CLAYTON SOUTH",-37.939354,145.13641,3.0,2.0,2,$420,none,January 2010,3169,2010,1,SOUTH,420,212041310
1722,"1/46 OAKES AVENUE, CLAYTON SOUTH",-37.935999,145.134164,2.0,1.0,1,$250,Unit/apmt,September 2010,3169,2010,9,SOUTH,250,202011021
1723,"1/46 OAKES AVENUE, CLAYTON SOUTH",-37.935999,145.134164,2.0,1.0,1,$250_Weekly,Unit/apmt,September 2010,3169,2010,9,SOUTH,250,212041310
1724,"1/46 OAKES AVENUE, CLAYTON SOUTH",-37.935999,145.134164,2.0,1.0,1,$250_p.w.,Unit/apmt,September 2010,3169,2010,9,SOUTH,250,212041310
1834,"1/16 BROWNING AVENUE, CLAYTON SOUTH",-37.937626,145.133325,2.0,1.0,1,$290,Unit/apmt,January 2010,3169,2010,1,SOUTH,290,212041310
1983,"3/44 OAKES AVENUE, CLAYTON SOUTH",-37.935969,145.133936,2.0,1.0,1,$250_Weekly,House,December 2010,3169,2010,12,SOUTH,250,209021526
2033,"13 SPRING VALLEY DRIVE, CLAYTON SOUTH",-37.947671,145.137097,3.0,2.0,2,$350,House,October 2010,3169,2010,10,SOUTH,350,212041310
2046,"1/14 MOORE AVENUE, CLAYTON SOUTH",-37.938438,145.135784,2.0,1.0,1,$250,Unit/apmt,December 2010,3169,2010,12,SOUTH,250,212041310
2047,"1/14 MOORE AVENUE, CLAYTON SOUTH",-37.938438,145.135784,2.0,1.0,1,$250_pw,Unit/apmt,December 2010,3169,2010,12,SOUTH,250,212041310
2125,"4/15 OAKES AVENUE, CLAYTON SOUTH",-37.935135,145.129653,3.0,2.0,1,$430,House,January 2010,3169,2010,1,SOUTH,430,201011483
2226,"1 MELOSA AVENUE, CLAYTON SOUTH",-37.937284,145.114101,3.0,1.0,2,$320_per_week,House,May 2010,3169,2010,5,SOUTH,320,209021525
2227,"1 MELOSA AVENUE, CLAYTON SOUTH",-37.937284,145.114101,3.0,1.0,2,$320,House,May 2010,3169,2010,5,SOUTH,320,207011152
2292,"1/60 OAKES AVENUE, CLAYTON SOUTH",-37.93713,145.136159,3.0,2.0,2,$290_p.w.,Townhouse,December 2010,3169,2010,12,SOUTH,290,207011152
2293,"1/60 OAKES AVENUE, CLAYTON SOUTH",-37.93713,145.136159,3.0,2.0,2,$290,Townhouse,December 2010,3169,2010,12,SOUTH,290,207011152
2294,"1/60 OAKES AVENUE, CLAYTON SOUTH",-37.93713,145.136159,3.0,2.0,2,$290_Weekly,Townhouse,December 2010,3169,2010,12,SOUTH,290,206041121
2323,"5/30 MADELEINE ROAD, CLAYTON",-37.916743,145.120384,2.0,1.0,1,$280,Unit/apmt,October 2010,3168,2010,10,CLAYTON,280,212051568
2324,"5/30 MADELEINE ROAD, CLAYTON",-37.916743,145.120384,2.0,1.0,1,$280_Weekly,Unit/apmt,October 2010,3168,2010,10,CLAYTON,280,212051568
2349,"13 BROWNS ROAD, CLAYTON",-37.920978,145.127558,3.0,1.0,2,$420,House,June 2010,3168,2010,6,CLAYTON,420,212051568
2350,"13 BROWNS ROAD, CLAYTON",-37.920978,145.127558,3.0,1.0,2,$420_Weekly,House,June 2010,3168,2010,6,CLAYTON,420,212051568
2414,"5/42 EVELYN STREET, CLAYTON",-37.921181,145.131503,3.0,2.0,2,$350_p.w.,Townhouse,December 2010,3168,2010,12,CLAYTON,350,211011446
2415,"5/42 EVELYN STREET, CLAYTON",-37.921181,145.131503,3.0,2.0,2,$350,Townhouse,December 2010,3168,2010,12,CLAYTON,350,212051568
2416,"5/42 EVELYN STREET, CLAYTON",-37.921181,145.131503,3.0,2.0,2,$350_Weekly,Townhouse,December 2010,3168,2010,12,CLAYTON,350,212051568
2417,"5/42 EVELYN STREET, CLAYTON",-37.921181,145.131503,3.0,2.0,2,$360,Townhouse,November 2010,3168,2010,11,CLAYTON,360,212051568
2418,"5/42 EVELYN STREET, CLAYTON",-37.921181,145.131503,3.0,2.0,2,$360_Weekly,Townhouse,November 2010,3168,2010,11,CLAYTON,360,205021081
2427,"4/10 PANORAMA STREET, CLAYTON",-37.918065,145.130143,3.0,1.0,1,$380,Townhouse,December 2010,3168,2010,12,CLAYTON,380,205041095
2428,"4/10 PANORAMA STREET, CLAYTON",-37.918065,145.130143,3.0,1.0,1,$380_Weekly,Townhouse,December 2010,3168,2010,12,CLAYTON,380,206061135
2429,"4/10 PANORAMA STREET, CLAYTON",-37.918065,145.130143,3.0,1.0,1,$380_p.w.,Townhouse,December 2010,3168,2010,12,CLAYTON,380,206021112
2521,"30/2 GREENFIELD DRIVE, CLAYTON",-37.923181,145.128623,2.0,1.0,1,$365,Unit,September 2010,3168,2010,9,CLAYTON,365,211031452
2522,"30/2 GREENFIELD DRIVE, CLAYTON",-37.923181,145.128623,2.0,1.0,1,$390,Unit,March 2010,3168,2010,3,CLAYTON,390,201021011
2533,"1/34 WELLINGTON ROAD, CLAYTON",-37.915779,145.133915,1.0,1.0,1,$240,Unit,June 2010,3168,2010,6,CLAYTON,240,211011446
2534,"1/34 WELLINGTON ROAD, CLAYTON",-37.915779,145.133915,1.0,1.0,1,$240,Unit,May 2010,3168,2010,5,CLAYTON,240,208031193
2535,"1/34 WELLINGTON ROAD, CLAYTON",-37.915779,145.133915,1.0,1.0,1,$240,Unit,March 2010,3168,2010,3,CLAYTON,240,206061135
2687,"33 ALICE STREET, CLAYTON",-37.917622,145.115287,4.0,2.0,1,$390_Weekly,House,December 2010,3168,2010,12,CLAYTON,390,212051568
2729,"10/2 MONASH GREEN DRIVE, CLAYTON",-37.918788,145.127626,2.0,1.0,1,$350,Unit,December 2010,3168,2010,12,CLAYTON,350,207021157
2730,"10/2 MONASH GREEN DRIVE, CLAYTON",-37.918788,145.127626,2.0,1.0,1,$370,Unit,May 2010,3168,2010,5,CLAYTON,370,207021157
2787,"71 CLAYTON ROAD, CLAYTON",-37.9139021,145.1218545,4.0,2.0,2,$310,House,December 2010,3168,2010,12,CLAYTON,310,212051568
2804,"1/31 GLENBROOK AVENUE, CLAYTON",-37.909275,145.123752,3.0,1.0,2,$300,House,October 2010,3168,2010,10,CLAYTON,300,211031451
2805,"1/31 GLENBROOK AVENUE, CLAYTON",-37.909275,145.123752,3.0,1.0,2,$330_per_week,House,September 2010,3168,2010,9,CLAYTON,330,213031352
2806,"1/31 GLENBROOK AVENUE, CLAYTON",-37.909275,145.123752,3.0,1.0,2,$330,House,September 2010,3168,2010,9,CLAYTON,330,212051567
2807,"1/31 GLENBROOK AVENUE, CLAYTON",-37.909275,145.123752,3.0,1.0,2,$330,House,August 2010,3168,2010,8,CLAYTON,330,212051567
2808,"1/31 GLENBROOK AVENUE, CLAYTON",-37.909275,145.123752,3.0,1.0,2,$360_per_week,House,May 2010,3168,2010,5,CLAYTON,360,207021157
2961,"10 SHADY MEWS, CLAYTON",-37.922472,145.127818,3.0,1.0,1,$400,Townhouse,June 2010,3168,2010,6,CLAYTON,400,212051568
2962,"10 SHADY MEWS, CLAYTON",-37.922472,145.127818,3.0,1.0,1,$390,Townhouse,June 2010,3168,2010,6,CLAYTON,390,206051513
3120,"5/645 BLACKBURN ROAD, CLAYTON",-37.917981,145.139598,1.0,1.0,1,$220_p.w.,Unit,July 2010,3168,2010,7,CLAYTON,220,209041530
3249,"1/13 EVELYN STREET, CLAYTON",-37.918973,145.130798,6.0,2.0,1,$700,House,May 2010,3168,2010,5,CLAYTON,700,207031167
3380,"1953 DANDENONG ROAD, CLAYTON",-37.91327,145.126079,5.0,4.0,3,$350,Townhouse,January 2010,3168,2010,1,CLAYTON,350,216021413
3408,"1/67 MADELEINE ROAD, CLAYTON",-37.919718,145.118887,2.0,1.0,1,$310_pw,none,August 2010,3168,2010,8,CLAYTON,310,213031349
3573,"4/22 WRIGHT STREET, CLAYTON",-37.922062,145.124729,2.0,1.0,1,$280,House,November 2010,3168,2010,11,CLAYTON,280,212051568
3574,"4/22 WRIGHT STREET, CLAYTON",-37.922062,145.124729,2.0,1.0,1,$280_Weekly,House,November 2010,3168,2010,11,CLAYTON,280,212051324
3580,"3/21 FRANCIS STREET, CLAYTON",-37.924041,145.121709,2.0,1.0,1,$310,none,August 2010,3168,2010,8,CLAYTON,310,212051568
3581,"3/21 FRANCIS STREET, CLAYTON",-37.924041,145.121709,2.0,1.0,1,$310_Weekly,none,August 2010,3168,2010,8,CLAYTON,310,213021346
3591,"23 BRUSHBOX COURT, CLAYTON",-37.92356953,145.12906235,3.0,1.0,1,$420,Townhouse,December 2010,3168,2010,12,CLAYTON,420,212051568
3693,"13/9-11 BROWNS ROAD, CLAYTON",-37.918418,145.127927,2.0,1.0,1,$250,House,April 2010,3168,2010,4,CLAYTON,250,202021030
3694,"13/9-11 BROWNS ROAD, CLAYTON",-37.918418,145.127927,2.0,1.0,1,$250_Weekly,House,April 2010,3168,2010,4,CLAYTON,250,206061135
3721,"9 SHADY MEWS, CLAYTON",-37.922424,145.12782,2.0,1.0,2,$350_per_week,Rental_residential,December 2010,3168,2010,12,CLAYTON,350,212051568
3722,"9 SHADY MEWS, CLAYTON",-37.922424,145.12782,2.0,1.0,2,$370,Rental_residential,December 2010,3168,2010,12,CLAYTON,370,212051568
3723,"9 SHADY MEWS, CLAYTON",-37.922424,145.12782,2.0,1.0,2,$370_pw,Rental_residential,December 2010,3168,2010,12,CLAYTON,370,206031502
3835,"6/1-3 ARNOTT STREET, CLAYTON",-37.916516,145.134721,3.0,1.0,1,$410_pw,none,January 2010,3168,2010,1,CLAYTON,410,211011257
3876,"1/31 GLENBROOK AVE, CLAYTON",-37.909189,145.123384,3.0,1.0,2,$300,House,October 2010,3168,2010,10,CLAYTON,300,212051567
3877,"1/31 GLENBROOK AVE, CLAYTON",-37.909189,145.123384,3.0,1.0,2,$300_per_week,House,October 2010,3168,2010,10,CLAYTON,300,208021177
3934,"2B HOURIGAN AVENUE, CLAYTON",-37.917265,145.121913,3.0,2.0,2,$400,Townhouse,January 2010,3168,2010,1,CLAYTON,400,212051568
4058,"23 MCBEAN STREET, CLAYTON",-37.923718,145.111716,2.0,1.0,2,$350_per_week,Townhouse,December 2010,3168,2010,12,CLAYTON,350,209041530
4095,"18/1 MONASH GREEN DRIVE, CLAYTON",-37.922584,145.128255,2.0,1.0,1,$350,Unit/apmt,June 2010,3168,2010,6,CLAYTON,350,212051568
4096,"18/1 MONASH GREEN DRIVE, CLAYTON",-37.922584,145.128255,2.0,1.0,1,$360,Unit/apmt,June 2010,3168,2010,6,CLAYTON,360,212051568
4097,"18/1 MONASH GREEN DRIVE, CLAYTON",-37.922584,145.128255,2.0,1.0,1,$345,Unit/apmt,June 2010,3168,2010,6,CLAYTON,345,202011018
4098,"18/1 MONASH GREEN DRIVE, CLAYTON",-37.922584,145.128255,2.0,1.0,1,$340,Unit/apmt,June 2010,3168,2010,6,CLAYTON,340,207031163
4099,"18/1 MONASH GREEN DRIVE, CLAYTON",-37.922584,145.128255,2.0,1.0,1,$340,Unit/apmt,May 2010,3168,2010,5,CLAYTON,340,207031163
4143,"3/1450 NORTH ROAD, CLAYTON",-37.914333,145.120368,2.0,1.0,1,$280_pw,Rental_residential,July 2010,3168,2010,7,CLAYTON,280,212051568
4144,"3/1450 NORTH ROAD, CLAYTON",-37.914333,145.120368,2.0,1.0,1,$290_pw,Rental_residential,June 2010,3168,2010,6,CLAYTON,290,207011520
4305,"5/1 GREENFIELD DRIVE, CLAYTON",-37.923144,145.128169,1.0,1.0,1,$300_pw,Unit/apmt,February 2010,3168,2010,2,CLAYTON,300,210031439
4349,"33/2 GREENFIELD DRIVE, CLAYTON",-37.91529,145.12957,2.0,1.0,1,$300,Unit/apmt,May 2010,3168,2010,5,CLAYTON,300,208041194
4751,"2 BRUSHBOX COURT, CLAYTON",-37.925488,145.119662,3.0,1.0,2,$430,Townhouse,July 2010,3168,2010,7,CLAYTON,430,212051568
4770,"9/56-58 KANOOKA GROVE, CLAYTON",-37.921688,145.126396,3.0,1.0,1,$400_p.w.,House,December 2010,3168,2010,12,CLAYTON,400,206051514
4771,"9/56-58 KANOOKA GROVE, CLAYTON",-37.921688,145.126396,3.0,1.0,1,$400,House,December 2010,3168,2010,12,CLAYTON,400,212051568
4772,"9/56-58 KANOOKA GROVE, CLAYTON",-37.921688,145.126396,3.0,1.0,1,$400_pw,House,December 2010,3168,2010,12,CLAYTON,400,217031475
4781,"153B CARINISH ROAD, CLAYTON",-37.924677,145.121359,3.0,2.0,2,$400,Unit/apmt,December 2010,3168,2010,12,CLAYTON,400,208031190
4863,"1/74-76 BROWNS ROAD, CLAYTON",-37.924868,145.126121,2.0,1.0,1,$310,Unit/apmt,June 2010,3168,2010,6,CLAYTON,310,206071518
4864,"1/74-76 BROWNS ROAD, CLAYTON",-37.924868,145.126121,2.0,1.0,1,$310_Weekly,Unit/apmt,June 2010,3168,2010,6,CLAYTON,310,212051568
5045,"1/39 MADELEINE ROAD, CLAYTON",-37.917598,145.11945,3.0,1.0,1,$380,Unit/apmt,February 2010,3168,2010,2,CLAYTON,380,212051568
5095,"10 VICTOR ROAD, CLEMATIS",-37.929733,145.419864,5.0,2.0,0,$400_per_week,none,September 2010,3782,2010,9,CLEMATIS,400,212011289
5132,"6 VICTOR ROAD, CLEMATIS",-37.929987,145.420214,2.0,1.0,1,$300_per_week,none,October 2010,3782,2010,10,CLEMATIS,300,207011520
5160,"10 VICTOR RD, CLEMATIS",-37.929733,145.419864,5.0,2.0,0,$400_per_week,House,August 2010,3782,2010,8,CLEMATIS,400,205041098
5161,"8A PARADISE AVENUE, CLEMATIS",-37.934181,145.419749,1.0,1.0,0,$170_pw,Unit/apmt,July 2010,3782,2010,7,CLEMATIS,170,216011407
5211,"29 FENWICK STREET, CLIFTON HILL",-37.789226,144.999862,2.0,1.0,0,$440_pw,none,January 2010,3068,2010,1,HILL,440,212051325
5260,"70 NOONE STREET, CLIFTON HILL",-37.793407,144.992413,2.0,1.0,0,$365_pw,Rental_residential,April 2010,3068,2010,4,HILL,365,209041435
5416,"7/9 SOUTH TERRACE, CLIFTON HILL",-37.79235,144.99226,1.0,1.0,1,$240_pw,Unit/apmt,July 2010,3068,2010,7,HILL,240,206071145
5433,"2/57 CAROLINE STREET, CLIFTON HILL",-37.790209,145.00096,1.0,1.0,1,$210_pw,Rental_residential,January 2010,3068,2010,1,HILL,210,206071145
5449,"18/14 THE ESPLANADE, CLIFTON HILL",-37.788057,145.005844,1.0,1.0,1,$260_p.w.,Rental_residential,August 2010,3068,2010,8,HILL,260,206071145
5450,"18/14 THE ESPLANADE, CLIFTON HILL",-37.788057,145.005844,1.0,1.0,1,$260_pw,Rental_residential,August 2010,3068,2010,8,HILL,260,206071145
5451,"18/14 THE ESPLANADE, CLIFTON HILL",-37.788057,145.005844,1.0,1.0,1,$260,Rental_residential,August 2010,3068,2010,8,HILL,260,206071145
5469,"205 SPENSLEY STREET, CLIFTON HILL",-37.786573,145.004419,2.0,1.0,1,$495_pw,House,April 2010,3068,2010,4,HILL,495,213031351
5475,"19 GROOM STREET, CLIFTON HILL",-37.794371,144.998236,2.0,1.0,0,$450_pw,none,January 2010,3068,2010,1,HILL,450,206071145
5576,"11 DALLY STREET, CLIFTON HILL",-37.792519,144.999611,2.0,1.0,0,$470_pw,none,November 2010,3068,2010,11,HILL,470,206021110
5611,"53 DWYER STREET, CLIFTON HILL",-37.785982,145.001994,2.0,1.0,0,$500_pw,none,March 2010,3068,2010,3,HILL,500,206071145
5668,"6/37 YAMBLA STREET, CLIFTON HILL",-37.791488,145.000891,2.0,1.0,1,$365_per_week,Unit/apmt,September 2010,3068,2010,9,HILL,365,212031561
5742,"1 YAMBLA STREET, CLIFTON HILL",-37.792736,145.000619,2.0,1.0,1,$475_pw,none,September 2010,3068,2010,9,HILL,475,206071145
5743,"1 YAMBLA STREET, CLIFTON HILL",-37.792736,145.000619,2.0,1.0,1,$475_pw,none,August 2010,3068,2010,8,HILL,475,206071145
5755,"40 O GRADY STREET, CLIFTON HILL",-37.786837,144.998903,3.0,1.0,2,$700_pw,Rental_residential,October 2010,3068,2010,10,HILL,700,208011172
5756,"40 O GRADY STREET, CLIFTON HILL",-37.786837,144.998903,3.0,1.0,2,$700,Rental_residential,October 2010,3068,2010,10,HILL,700,206071145
5792,"16 COUNCIL STREET, CLIFTON HILL",-37.792331,144.986235,2.0,2.0,0,$570_pw,none,September 2010,3068,2010,9,HILL,570,213031347
5815,"16/16 THE ESPLANADE, CLIFTON HILL",-37.7879444,145.0061292,1.0,1.0,1,$275_pw,none,June 2010,3068,2010,6,HILL,275,206021110
5850,"32 YAMBLA STREET, CLIFTON HILL",-37.791828,145.001142,3.0,2.0,1,$700_pw,House,August 2010,3068,2010,8,HILL,700,206071145
5851,"32 YAMBLA STREET, CLIFTON HILL",-37.791828,145.001142,3.0,2.0,1,$700_pw,House,July 2010,3068,2010,7,HILL,700,206071145
5971,"30 WRIGHT STREET, CLIFTON HILL",-37.78906,145.00174,2.0,1.0,1,$500_pw,Rental_residential,January 2010,3068,2010,1,HILL,500,206071140
6131,"5/56 JOHN STREET, CLIFTON HILL",-37.78723145,144.99583435,1.0,1.0,1,$345_per_week,none,October 2010,3068,2010,10,HILL,345,206071145
6250,"1/211 GOLD STREET, CLIFTON HILL",-37.791306,144.990222,2.0,1.0,1,$395_per_week,none,August 2010,3068,2010,8,HILL,395,213021342
6456,"10 LACORRA COURT, CLIFTON SPRINGS",-38.151941,144.576798,4.0,2.0,1,$295_pw,Rental_residential,December 2010,3222,2010,12,SPRINGS,295,216011410
6583,"10 ALBERT STREET, CLUNES",-37.287198,143.78807,3.0,2.0,1,$180_Weekly,House,February 2010,3370,2010,2,CLUNES,180,216031416
6663,"6 CAMERON STREET, CLUNES",-37.292247,143.791814,2.0,1.0,2,$160,none,September 2010,3370,2010,9,CLUNES,160,206061136
7299,"107 COBAINS ESTATE ROAD, COBAINS",-38.0840691,147.1410804,3.0,2.0,0,$220_Weekly,House,November 2010,3851,2010,11,COBAINS,220,206061138
7300,"263 BENGWORDEN ROAD, COBAINS",-38.071445,147.103421,3.0,1.0,3,$250_pw,House,October 2010,3851,2010,10,COBAINS,250,206061138
7339,"2/86 CURDIE STREET, COBDEN",-38.327394,143.071066,2.0,1.0,1,$185_per_week,House,November 2010,3266,2010,11,COBDEN,185,217031475
7356,"74 WALKER STREET, COBDEN",-38.32536,143.080733,2.0,1.0,1,$170_per_week,House,October 2010,3266,2010,10,COBDEN,170,217031475
7396,"22 PARROTT STREET, COBDEN",-38.32951,143.076719,4.0,1.0,3,$220_per_week,House,January 2010,3266,2010,1,COBDEN,220,217031475
7464,"1 MITCHELL STREET, COBDEN",-38.3321,143.073485,4.0,1.0,2,$235_per_week,House,October 2010,3266,2010,10,COBDEN,235,217031475
7478,"1/84 PARROTT STREET, COBDEN",-38.328608,143.068643,3.0,1.0,1,$185_per_week,House,October 2010,3266,2010,10,COBDEN,185,217031475
7692,"28 VICTORIA COURT, COBUNGRA",-37.091318,147.444334,4.0,2.0,0,$350_per_week,House,March 2010,3898,2010,3,COBUNGRA,350,205021082
7748,"34 CLAREMONT STREET, COBURG NORTH",-37.732144,144.978717,3.0,1.0,2,$340_per_week,House,June 2010,3058,2010,6,NORTH,340,210031236
7749,"34 CLAREMONT STREET, COBURG NORTH",-37.732144,144.978717,3.0,1.0,2,$340_per_week,House,May 2010,3058,2010,5,NORTH,340,210031236
7859,"1/16 TONKIN AVENUE, COBURG NORTH",-37.720549,144.953335,2.0,1.0,1,$270_p.w.,House,August 2010,3058,2010,8,NORTH,270,210031236
8072,"9 RONALD STREET, COBURG NORTH",-37.730771,144.980626,3.0,1.0,0,$310_p.w.,Rental_residential,March 2010,3058,2010,3,NORTH,310,208041195
8130,"10/23 BAXTER STREET, COBURG",-37.746319,144.963475,1.0,1.0,1,$240_pw,none,July 2010,3058,2010,7,COBURG,240,205051103
8131,"10/23 BAXTER STREET, COBURG",-37.746319,144.963475,1.0,1.0,1,$220_pw,none,January 2010,3058,2010,1,COBURG,220,206041117
8175,"2/64 VICTORIA STREET, COBURG",-37.742205,144.958461,2.0,1.0,1,$300_per_week,none,November 2010,3058,2010,11,COBURG,300,206061138
8176,"2/64 VICTORIA STREET, COBURG",-37.742205,144.958461,2.0,1.0,1,$300_per_week,none,October 2010,3058,2010,10,COBURG,300,206061138
8177,"2/64 VICTORIA STREET, COBURG",-37.742205,144.958461,2.0,1.0,1,$330_pw,none,January 2010,3058,2010,1,COBURG,330,208041195
8182,"18/23 BAXTER STREET, COBURG",-37.746319,144.963475,2.0,1.0,1,$320_pw,none,June 2010,3058,2010,6,COBURG,320,206011497
8183,"18/23 BAXTER STREET, COBURG",-37.746319,144.963475,2.0,1.0,1,$320_pw,none,May 2010,3058,2010,5,COBURG,320,206011497
8261,"11/51 STOCKADE AVENUE, COBURG",-37.7383322,144.9702595,5.0,4.0,1,$450_pw,none,July 2010,3058,2010,7,COBURG,450,202011018
8280,"19 SAUNDERS STREET, COBURG",-37.752043,144.950572,3.0,1.0,1,$420_pw,House,February 2010,3058,2010,2,COBURG,420,206011498
8390,"2/48 THE GROVE, COBURG",-37.752217,144.971599,2.0,1.0,1,$290_p.w.,Villa,September 2010,3058,2010,9,COBURG,290,206011497
8415,"8/14 BELL STREET, COBURG",-37.7424804,144.9771819,2.0,1.0,1,$380_per_week,Unit/apmt,October 2010,3058,2010,10,COBURG,380,206011497
8437,"177 URQUHART STREET, COBURG",-37.741016,144.975769,3.0,2.0,1,$450_pw,House,January 2010,3058,2010,1,COBURG,450,206011497
8501,"6/1 THE GROVE, COBURG",-37.750961,144.965767,2.0,1.0,1,$320_p.w.,Townhouse,November 2010,3058,2010,11,COBURG,320,206011497
8502,"6/1 THE GROVE, COBURG",-37.750961,144.965767,2.0,1.0,1,$330,Townhouse,November 2010,3058,2010,11,COBURG,330,207011146
8503,"6/1 THE GROVE, COBURG",-37.750961,144.965767,2.0,1.0,1,$330_pw,Townhouse,November 2010,3058,2010,11,COBURG,330,206011497
8606,"49 SOUDAN STREET, COBURG",-37.739114,144.951791,3.0,1.0,1,$425_pw,none,March 2010,3058,2010,3,COBURG,425,204021067
8722,"14A HARDWICK STREET, COBURG",-37.749445,144.968678,2.0,1.0,0,$395_pw,House,October 2010,3058,2010,10,COBURG,395,215021470
8776,"80 SHAFTSBURY STREET, COBURG",-37.748313,144.955317,4.0,2.0,4,$520_pw,none,August 2010,3058,2010,8,COBURG,520,206011498
8796,"9 BEAUMONDE STREET, COBURG",-37.755099,144.978924,4.0,2.0,1,$500_p.w.,none,June 2010,3058,2010,6,COBURG,500,207011147
8797,"9 BEAUMONDE STREET, COBURG",-37.755099,144.978924,4.0,2.0,1,$500_p.w.,none,May 2010,3058,2010,5,COBURG,500,215021470
8920,"156 GORDON STREET, COBURG",-37.7430127,144.9495076,3.0,2.0,2,$495_per_week,House,April 2010,3058,2010,4,COBURG,495,206011498
8958,"46 DAVIS STREET, COBURG",-37.740319,144.951406,3.0,1.0,3,$400_pw,House,December 2010,3058,2010,12,COBURG,400,206011498
8959,"46 DAVIS STREET, COBURG",-37.740319,144.951406,3.0,1.0,3,$400,House,December 2010,3058,2010,12,COBURG,400,206011498
8979,"13 COLLINS STREET, COBURG",-37.737022,144.954334,3.0,1.0,2,$395_per_week,Rental_residential,November 2010,3058,2010,11,COBURG,395,206011498
9007,"2/56 THE AVENUE, COBURG",-37.752826,144.968178,2.0,2.0,1,$250_pw,none,August 2010,3058,2010,8,COBURG,250,206011497
9030,"114 SHAFTSBURY STREET, COBURG",-37.745519,144.955825,3.0,2.0,1,$450_per_week,none,April 2010,3058,2010,4,COBURG,450,206011498
9185,"17/23 BAXTER STREET, COBURG",-37.746319,144.963475,1.0,1.0,1,$250_pw,Unit/apmt,May 2010,3058,2010,5,COBURG,250,206011497
9201,"12/2 WOIWURUNG CRESCENT, COBURG",-37.736061,144.974012,2.0,2.0,1,$370_pw,Unit/apmt,August 2010,3058,2010,8,COBURG,370,206011497
9227,"11/40-50 STOCKADE AVENUE, COBURG",-37.737521,144.970247,2.0,1.0,1,$380_pw,Townhouse,June 2010,3058,2010,6,COBURG,380,208031186
9228,"11/40-50 STOCKADE AVENUE, COBURG",-37.737521,144.970247,2.0,1.0,1,$400_Weekly,Townhouse,February 2010,3058,2010,2,COBURG,400,208041194
9229,"11/40-50 STOCKADE AVENUE, COBURG",-37.737521,144.970247,2.0,1.0,1,$400_pw,Townhouse,January 2010,3058,2010,1,COBURG,400,206011497
9273,"39 FISCHER STREET, COBURG",-37.733824,144.953878,3.0,1.0,1,$400_per_week,House,February 2010,3058,2010,2,COBURG,400,206011498
9356,"69 CAMPBELL STREET, COBURG",-37.753608,144.969821,2.0,2.0,1,$450_pw,Rental_residential,August 2010,3058,2010,8,COBURG,450,206011497
9420,"41/14 BELL STREET, COBURG",-37.74239,144.977185,2.0,1.0,1,$390_p.w.,none,March 2010,3058,2010,3,COBURG,390,206011497
9421,"41/14 BELL STREET, COBURG",-37.74239,144.977185,2.0,1.0,1,$390,none,February 2010,3058,2010,2,COBURG,390,215021469
9473,"20 SHACKELL STREET, COBURG",-37.742317,144.952214,3.0,1.0,2,$390_per_week,House,November 2010,3058,2010,11,COBURG,390,206011498
9600,"20/5 INDUSTRY LANE, COBURG",-37.7370286,144.9695513,2.0,1.0,1,$340_per_week,Townhouse,February 2010,3058,2010,2,COBURG,340,216011408
9620,"11/1 MANNA GUM COURT, COBURG",-37.736609,144.975974,3.0,2.0,2,$450,Available Now,December 2010,3058,2010,12,COBURG,450,206011497
9621,"11/1 MANNA GUM COURT, COBURG",-37.736609,144.975974,3.0,2.0,2,$450_pw,Available Now,December 2010,3058,2010,12,COBURG,450,206011497
9622,"11/1 MANNA GUM COURT, COBURG",-37.736609,144.975974,3.0,2.0,2,$460_Weekly,Available Now,February 2010,3058,2010,2,COBURG,460,206011497
9623,"11/1 MANNA GUM COURT, COBURG",-37.736609,144.975974,3.0,2.0,2,$460_pw,Available Now,February 2010,3058,2010,2,COBURG,460,206011497
9669,"69A MORELAND ROAD, COBURG",-37.756399,144.97422,3.0,1.0,1,$370,none,October 2010,3058,2010,10,COBURG,370,214011371
9670,"69A MORELAND ROAD, COBURG",-37.756399,144.97422,3.0,1.0,1,$370_pw,none,October 2010,3058,2010,10,COBURG,370,213021341
10022,"3/11 METHVEN STREET, COBURG",-37.746901,144.963811,2.0,1.0,1,$360_p.w.,none,December 2010,3058,2010,12,COBURG,360,206011497
10104,"5/144 NICHOLSON STREET, COBURG",-37.745681,144.977713,2.0,1.0,1,$280_pw,none,February 2010,3058,2010,2,COBURG,280,206011497
10207,"1/1 INDUSTRY LANE, COBURG",-37.7369442,144.9699153,1.0,1.0,1,$340_per_week,none,August 2010,3058,2010,8,COBURG,340,206011497
10208,"1/1 INDUSTRY LANE, COBURG",-37.7369442,144.9699153,1.0,1.0,1,$355_per_week,none,July 2010,3058,2010,7,COBURG,355,206011497
10261,"304/19 PENTRIDGE BOULEVARD, COBURG",-37.738903,144.970583,1.0,1.0,1,$330_pw,Available Now,September 2010,3058,2010,9,COBURG,330,206011497
10296,"407/19 PENTRIDGE BLVD, COBURG",-37.738903,144.970583,2.0,1.0,1,$340_p.w.,Rental_residential,August 2010,3058,2010,8,COBURG,340,206011497
10340,"2/115 HARDING STREET, COBURG",-37.746057,144.977021,2.0,1.0,1,$340_pw,none,April 2010,3058,2010,4,COBURG,340,206011497
10363,"3/170 GORDON STREET, COBURG",-37.742134,144.94979,2.0,1.0,1,$350_pw,none,August 2010,3058,2010,8,COBURG,350,209021428
10376,"3/22 CHAMBERS STREET, COBURG",-37.747267,144.96884,2.0,1.0,1,$330,none,October 2010,3058,2010,10,COBURG,330,206011497
10377,"3/22 CHAMBERS STREET, COBURG",-37.747267,144.96884,2.0,1.0,1,$330_pw,none,October 2010,3058,2010,10,COBURG,330,206011497
10386,"1 DARE STREET, COBURG",-37.749962,144.96728,3.0,3.0,2,$420_pw,none,September 2010,3058,2010,9,COBURG,420,207031161
10427,"25A FISCHER STREET, COBURG",-37.734543,144.953756,2.0,1.0,1,$350_p.w.,Rental_residential,November 2010,3058,2010,11,COBURG,350,206011498
10492,"4 FARM ROAD, COBURG",-37.736096,144.971437,4.0,2.0,3,$495_pw,Available Now,September 2010,3058,2010,9,COBURG,495,212011289
10506,"18/2 ALICE STREET, COBURG",-37.743803,144.957178,2.0,1.0,1,$290_pw,none,March 2010,3058,2010,3,COBURG,290,213021341
10507,"18/2 ALICE STREET, COBURG",-37.743803,144.957178,2.0,1.0,1,$320_pw,none,February 2010,3058,2010,2,COBURG,320,213021341
10542,"5/27 THE GROVE, COBURG",-37.751578,144.968933,2.0,1.0,1,$300_pw,Unit/apmt,December 2010,3058,2010,12,COBURG,300,206011497
10543,"5/27 THE GROVE, COBURG",-37.751578,144.968933,2.0,1.0,1,$300_per_week,Unit/apmt,November 2010,3058,2010,11,COBURG,300,206011497
10544,"5/27 THE GROVE, COBURG",-37.751578,144.968933,2.0,1.0,1,$300,Unit/apmt,November 2010,3058,2010,11,COBURG,300,206011497
10545,"5/27 THE GROVE, COBURG",-37.751578,144.968933,2.0,1.0,1,$300_pw,Unit/apmt,May 2010,3058,2010,5,COBURG,300,206011497
10546,"5/27 THE GROVE, COBURG",-37.751578,144.968933,2.0,1.0,1,$300_per_week,Unit/apmt,May 2010,3058,2010,5,COBURG,300,211031266
10604,"1 HAVEN COURT, COCKATOO",-37.948073,145.496363,2.0,1.0,2,$260_per_week,House,October 2010,3781,2010,10,COCKATOO,260,212011289
10665,"2 BELGRAVE AVENUE, COCKATOO",-37.92732,145.495818,4.0,2.0,6,$300_pw,Rental_residential,February 2010,3781,2010,2,COCKATOO,300,212011289
10753,"18 CARAWA STREET, COCKATOO",-37.926109,145.49772,3.0,2.0,1,$260_per_week,Rental_residential,June 2010,3781,2010,6,COCKATOO,260,212021454
10757,"11 ACLARE STREET, COCKATOO",-37.950754,145.509465,3.0,1.0,2,$270,House,February 2010,3781,2010,2,COCKATOO,270,207031161
10758,"11 ACLARE STREET, COCKATOO",-37.950754,145.509465,3.0,1.0,2,$270_per_week,House,February 2010,3781,2010,2,COCKATOO,270,207031161
58,"35 MARKET STREET, COHUNA",-35.812621,144.22028,4.0,2.0,2,$140_pw,House,September 2010,3568,2010,9,COHUNA,140,214021383
95,"151 KING GEORGE STREET, COHUNA",-35.802147,144.215476,3.0,1.0,1,$165_pw,House,May 2010,3568,2010,5,COHUNA,165,216011409
98,"1/12 RAILWAY AVENUE, COHUNA",-35.809827,144.21355,1.0,1.0,1,$100_pw,Unit/apmt,September 2010,3568,2010,9,COHUNA,100,215031401
102,"94 CHANNEL STREET, COHUNA",-35.804436,144.214723,2.0,1.0,1,$140_pw,House,October 2010,3568,2010,10,COHUNA,140,203031049
116,"352 COIMADAI DIGGERS REST ROAD, COIMADAI",-37.6201439,144.5063489,4.0,3.0,4,$500_p.w.,House,December 2010,3340,2010,12,COIMADAI,500,212041317
117,"352 COIMADAI DIGGERS REST ROAD, COIMADAI",-37.6201439,144.5063489,4.0,3.0,4,$450_per_week,House,August 2010,3340,2010,8,COIMADAI,450,213041353
118,"352 COIMADAI DIGGERS REST ROAD, COIMADAI",-37.6201439,144.5063489,4.0,3.0,4,$450_pw,House,August 2010,3340,2010,8,COIMADAI,450,212041460
135,"4/1 EDGAR STREET, COLAC EAST",-38.33291,143.599397,1.0,1.0,1,$150_pw,Unit/apmt,October 2010,3250,2010,10,EAST,150,217031472
136,"80 DRAPERS ROAD, COLAC EAST",-38.3319866,143.6261362,3.0,1.0,2,$240_pw,House,September 2010,3250,2010,9,EAST,240,208031191
138,"1/37 POLLACK STREET, COLAC EAST",-38.335658,143.588204,2.0,1.0,1,$220_pw,Unit/apmt,May 2010,3250,2010,5,EAST,220,204031075
139,"10 FLAXMILL ROAD, COLAC EAST",-38.327462,143.618703,4.0,2.0,0,$320_pw,House,February 2010,3250,2010,2,EAST,320,201011008
142,"53 POLLACK STREET, COLAC WEST",-38.335818,143.591217,3.0,1.0,2,$200_pw,House,August 2010,3250,2010,8,WEST,200,217031472
197,"1/42A MANIFOLD STREET, COLAC",-38.33727,143.58236,2.0,1.0,1,$240_pw,none,June 2010,3250,2010,6,COLAC,240,217031472
276,"102 QUEEN STREET, COLAC",-38.344296,143.592366,2.0,1.0,1,$185_pw,Townhouse,July 2010,3250,2010,7,COLAC,185,201021011
349,"LOT 4 BURGE COURT, COLBINABBIN",-36.591533,144.795291,3.0,1.0,1,$180_p.w.,House,September 2010,3559,2010,9,COLBINABBIN,180,210031538
454,"18 CHEVIOT AVENUE, COLDSTREAM",-37.728222,145.384468,3.0,1.0,1,$310_pw,House,November 2010,3770,2010,11,COLDSTREAM,310,207011149
455,"18 CHEVIOT AVENUE, COLDSTREAM",-37.728222,145.384468,3.0,1.0,1,$300_pw,House,April 2010,3770,2010,4,COLDSTREAM,300,207021156
713,"1166 BOONOONAR ROAD, COLIGNAN",-34.546283,142.334486,3.0,1.0,2,$180_pw,none,October 2010,3494,2010,10,COLIGNAN,180,215021398
755,"129 SACKVILLE STREET, COLLINGWOOD",-37.79908,144.991078,2.0,1.0,0,$450_pw,Rental_residential,July 2010,3066,2010,7,COLLINGWOOD,450,209011197
784,"42 BALLARAT STREET, COLLINGWOOD",-37.795156,144.990856,2.0,1.0,0,$440_pw,Rental_residential,August 2010,3066,2010,8,COLLINGWOOD,440,206071141
857,"136 RUPERT STREET, COLLINGWOOD",-37.803877,144.989676,2.0,1.0,0,$430_per_week,none,October 2010,3066,2010,10,COLLINGWOOD,430,210051245
858,"136 RUPERT STREET, COLLINGWOOD",-37.803877,144.989676,2.0,1.0,0,$480_per_week,none,February 2010,3066,2010,2,COLLINGWOOD,480,206071141
952,"5/15-17 BENDIGO STREET, COLLINGWOOD",-37.796087,144.992632,1.0,1.0,1,$265_pw,Rental_residential,June 2010,3066,2010,6,COLLINGWOOD,265,209011202
1009,"14/34 SMITH STREET, COLLINGWOOD",-37.8072953,144.9828207,1.0,1.0,1,$365_pw,Rental_residential,July 2010,3066,2010,7,COLLINGWOOD,365,212021455
1074,"9/1 PEEL STREET, COLLINGWOOD",-37.805201,144.983757,1.0,1.0,1,$345_pw,Rental_residential,April 2010,3066,2010,4,COLLINGWOOD,345,216011407
1078,"2 OTTER STREET, COLLINGWOOD",-37.800579,144.984424,1.0,1.0,0,$360_-_$1560_pw,House,June 2010,3066,2010,6,COLLINGWOOD,1560,212031300
1150,"321 WELLINGTON STREET, COLLINGWOOD",-37.795446,144.987781,2.0,1.0,0,$395_pw,none,February 2010,3066,2010,2,COLLINGWOOD,395,206071141
1193,"6/9-11 OTTER STREET, COLLINGWOOD",-37.800599,144.984519,2.0,1.0,1,$320_-_$1387_pw,Unit/apmt,January 2010,3066,2010,1,COLLINGWOOD,1387,206071141
1567,"1/1 PEEL STREET, COLLINGWOOD",-37.8050584,144.9837832,1.0,1.0,1,$390,Rental_residential,October 2010,3066,2010,10,COLLINGWOOD,390,213051589
1568,"1/1 PEEL STREET, COLLINGWOOD",-37.8050584,144.9837832,1.0,1.0,1,$390_pw,Rental_residential,October 2010,3066,2010,10,COLLINGWOOD,390,205041094
1569,"1/1 PEEL STREET, COLLINGWOOD",-37.8050584,144.9837832,1.0,1.0,1,$390_pw,Rental_residential,April 2010,3066,2010,4,COLLINGWOOD,390,213051362
1653,"8/78 OXFORD STREET, COLLINGWOOD",-37.803368,144.985101,1.0,1.0,1,$370_per_week,Unit,November 2010,3066,2010,11,COLLINGWOOD,370,206021112
1687,"15/99 OXFORD STREET, COLLINGWOOD",-37.80752,144.983944,1.0,1.0,1,$360_per_week,Unit,September 2010,3066,2010,9,COLLINGWOOD,360,202021027
1702,"55 GIPPS STREET, COLLINGWOOD",-37.804818,144.988822,2.0,1.0,1,$450_per_week,House,April 2010,3066,2010,4,COLLINGWOOD,450,205031091
1795,"162 KEELE STREET, COLLINGWOOD",-37.79749,144.992525,2.0,1.0,0,$475,House,December 2010,3066,2010,12,COLLINGWOOD,475,206071141
1796,"162 KEELE STREET, COLLINGWOOD",-37.79749,144.992525,2.0,1.0,0,$475_pw,House,December 2010,3066,2010,12,COLLINGWOOD,475,214021379
1811,"506/103-107 OXFORD STREET, COLLINGWOOD",-37.80316,144.984807,2.0,1.0,1,$495_pw,Rental_residential,July 2010,3066,2010,7,COLLINGWOOD,495,205041494
1895,"3/20 BEDFORD STREET, COLLINGWOOD",-37.800633,144.984904,2.0,1.0,1,$495_pw,none,February 2010,3066,2010,2,COLLINGWOOD,495,206071141
2018,"603/103-107 OXFORD STREET, COLLINGWOOD",-37.803187,144.984682,2.0,1.0,1,$520_pw,Unit/apmt,October 2010,3066,2010,10,COLLINGWOOD,520,206071141
2019,"603/103-107 OXFORD STREET, COLLINGWOOD",-37.803187,144.984682,2.0,1.0,1,$520,Unit/apmt,October 2010,3066,2010,10,COLLINGWOOD,520,206071141
2165,"6/15-25 OXFORD STREET, COLLINGWOOD",-37.807803,144.984175,2.0,1.0,1,$460_pw,none,October 2010,3066,2010,10,COLLINGWOOD,460,206071141
2166,"6/15-25 OXFORD STREET, COLLINGWOOD",-37.807803,144.984175,2.0,1.0,1,$460_pw,none,September 2010,3066,2010,9,COLLINGWOOD,460,208021182
2185,"9/109 OXFORD STREET, COLLINGWOOD",-37.802889,144.984737,2.0,1.0,1,$460_pw,none,February 2010,3066,2010,2,COLLINGWOOD,460,206071141
2202,"2/9-11 OTTER STREET, COLLINGWOOD",-37.800996,144.985087,2.0,1.0,1,$360_-_$1560_pw,Rental_residential,December 2010,3066,2010,12,COLLINGWOOD,1560,206031501
2237,"33 MCLEODS ROAD, CONDAH",-37.949464,141.754979,3.0,1.0,2,$170_per_week,none,December 2010,3303,2010,12,CONDAH,170,217011420
2268,"235 KNIGHTS ROAD, CONGUPNA",-36.323892,145.458638,3.0,1.0,1,$210_pw,none,February 2010,3633,2010,2,CONGUPNA,210,207021160
2289,"610 GRAHAMVALE ROAD, CONGUPNA",-36.309451,145.432335,3.0,1.0,2,$180_pw,House,January 2010,3633,2010,1,CONGUPNA,180,213051363
2290,"70 TANK CORNER ROAD, CONGUPNA",-36.30165,145.43311,3.0,1.0,1,$170_per_week,none,December 2010,3633,2010,12,CONGUPNA,170,213051363
2291,"70 TANK CORNER ROAD, CONGUPNA",-36.30165,145.43311,3.0,1.0,1,$170_pw,none,December 2010,3633,2010,12,CONGUPNA,170,207011152
2292,"70 TANK CORNER ROAD, CONGUPNA",-36.30165,145.43311,3.0,1.0,1,$170,none,December 2010,3633,2010,12,CONGUPNA,170,207011152
2298,"3593 KATAMATITE ROAD, CONGUPNA",-36.300179,145.434519,4.0,1.0,2,$250_per_week,none,September 2010,3633,2010,9,CONGUPNA,250,206051130
2299,"3593 KATAMATITE ROAD, CONGUPNA",-36.300179,145.434519,4.0,1.0,2,$250_pw,none,September 2010,3633,2010,9,CONGUPNA,250,216031418
2300,"3593 KATAMATITE ROAD, CONGUPNA",-36.300179,145.434519,4.0,1.0,2,$250_pw,none,August 2010,3633,2010,8,CONGUPNA,250,216031418
2303,"755 LEMNOS NORTH ROAD, CONGUPNA",-36.297128,145.464944,4.0,2.0,1,$360_pw,House,September 2010,3633,2010,9,CONGUPNA,360,216031418
2304,"520 GOULBURN VALLEY HIGHWAY, CONGUPNA",-36.297923,145.431809,5.0,2.0,1,$420_pw,House,July 2010,3633,2010,7,CONGUPNA,420,201011002
2306,"1120 GV HIGHWAY, CONGUPNA",-36.288857,145.4347,1.0,1.0,0,$130_pw,Unit/apmt,January 2010,3633,2010,1,CONGUPNA,130,216031418
2307,"1120 GOULBURN VALLEY HIGHWAY, CONGUPNA",-36.287375,145.432344,1.0,1.0,0,$130_pw,Unit/apmt,January 2010,3633,2010,1,CONGUPNA,130,213021346
2420,"9A WESTMERE CRESCENT, COOLAROO",-37.664659,144.93586,1.0,1.0,1,$220_per_week,Unit,August 2010,3048,2010,8,COOLAROO,220,206041121
2421,"9A WESTMERE CRESCENT, COOLAROO",-37.664659,144.93586,1.0,1.0,1,$195_per_week,Unit,May 2010,3048,2010,5,COOLAROO,195,208031193
2623,"6 LOVAT COURT, COOLAROO",-37.654336,144.930513,3.0,1.0,2,$260_pw,Rental_residential,April 2010,3048,2010,4,COOLAROO,260,210051243
2640,"44 LONGFORD CRESCENT, COOLAROO",-37.661346,144.92736,3.0,1.0,1,$290_per_week,House,October 2010,3048,2010,10,COOLAROO,290,206041121
2641,"44 LONGFORD CRESCENT, COOLAROO",-37.661346,144.92736,3.0,1.0,1,$290_Weekly,House,October 2010,3048,2010,10,COOLAROO,290,206041121
2667,"18 MOYNE CRESCENT, COOLAROO",-37.656359,144.930264,3.0,1.0,1,$280_per_week,House,November 2010,3048,2010,11,COOLAROO,280,210051243
3019,"3 LOFTY COURT, CORIO",-38.070837,144.370725,3.0,1.0,1,$215_pw,none,October 2010,3214,2010,10,CORIO,215,201021011
3020,"3 LOFTY COURT, CORIO",-38.070837,144.370725,3.0,1.0,1,$215,none,October 2010,3214,2010,10,CORIO,215,209031212
3021,"3 LOFTY COURT, CORIO",-38.070837,144.370725,3.0,1.0,1,$215_p.w.,none,September 2010,3214,2010,9,CORIO,215,209031214
3022,"3 LOFTY COURT, CORIO",-38.070837,144.370725,3.0,1.0,1,$215_p.w.,none,August 2010,3214,2010,8,CORIO,215,212031306
3023,"3 LOFTY COURT, CORIO",-38.070837,144.370725,3.0,1.0,1,$215_pw,none,August 2010,3214,2010,8,CORIO,215,212031308
3024,"3 LOFTY COURT, CORIO",-38.070837,144.370725,3.0,1.0,1,$215,none,August 2010,3214,2010,8,CORIO,215,213031349
3080,"59 CLOVERDALE DRIVE, CORIO",-38.067956,144.347957,4.0,2.0,2,$350,House,January 2010,3214,2010,1,CORIO,350,203021486
3271,"124 PLANTATION ROAD, CORIO",-38.067161,144.362963,3.0,2.0,2,$270,none,January 2010,3214,2010,1,CORIO,270,206021112
3272,"124 PLANTATION ROAD, CORIO",-38.067161,144.362963,3.0,2.0,2,$270_p.w.,none,January 2010,3214,2010,1,CORIO,270,203021486
3273,"124 PLANTATION ROAD, CORIO",-38.067161,144.362963,3.0,2.0,2,$270_pw,none,January 2010,3214,2010,1,CORIO,270,212051323
3287,"5 VERMONT AVENUE, CORIO",-38.082459,144.357115,2.0,1.0,1,$210_per_week,none,March 2010,3214,2010,3,CORIO,210,207021159
3303,"14 CORANGAMITE DRIVE, CORIO",-38.067773,144.34357,4.0,1.0,2,$270,House,June 2010,3214,2010,6,CORIO,270,203021486
3304,"14 CORANGAMITE DRIVE, CORIO",-38.067773,144.34357,4.0,1.0,2,$270_p.w.,House,June 2010,3214,2010,6,CORIO,270,203021486
3318,"89 COLORADO DRIVE, CORIO",-38.078145,144.350478,3.0,1.0,1,$190,House,September 2010,3214,2010,9,CORIO,190,206051128
3319,"89 COLORADO DRIVE, CORIO",-38.078145,144.350478,3.0,1.0,1,$190_p.w.,House,September 2010,3214,2010,9,CORIO,190,203021486
3340,"25 QUEBEC AVENUE, CORIO",-38.078008,144.360939,3.0,1.0,4,$250_pw,House,July 2010,3214,2010,7,CORIO,250,214021592
3434,"3/8-9 FIELDMAN COURT, CORIO",-38.068974,144.350346,2.0,1.0,1,$230_pw,none,January 2010,3214,2010,1,CORIO,230,216021413
3731,"182 LARPENT ROAD, COROROOKE",-38.285258,143.504604,1.0,1.0,1,$130_pw,House,April 2010,3254,2010,4,COROROOKE,130,217031473
3984,"10 OUTLOOK DRIVE, COWES",-38.456911,145.205001,4.0,1.0,2,$280,House,May 2010,3922,2010,5,COWES,280,206051513
3999,"31 OUTLOOK DRIVE, COWES",-38.457133,145.202724,4.0,2.0,0,$430_p.w.,House,July 2010,3922,2010,7,COWES,430,213051368
4000,"31 OUTLOOK DRIVE, COWES",-38.457133,145.202724,4.0,2.0,0,$430_pw,House,July 2010,3922,2010,7,COWES,430,213051368
4001,"31 OUTLOOK DRIVE, COWES",-38.457133,145.202724,4.0,2.0,0,$430,House,July 2010,3922,2010,7,COWES,430,205031091
4002,"31 OUTLOOK DRIVE, COWES",-38.457133,145.202724,4.0,2.0,0,$430_p.w.,House,May 2010,3922,2010,5,COWES,430,205031091
4003,"31 OUTLOOK DRIVE, COWES",-38.457133,145.202724,4.0,2.0,0,$430_pw,House,May 2010,3922,2010,5,COWES,430,205031091
4004,"31 OUTLOOK DRIVE, COWES",-38.457133,145.202724,4.0,2.0,0,$430,House,May 2010,3922,2010,5,COWES,430,207011519
4100,"1/96-100 THOMPSON AVENUE, COWES",-38.451396,145.238254,2.0,2.0,1,$190,Unit,August 2010,3922,2010,8,COWES,190,207011521
4101,"1/96-100 THOMPSON AVENUE, COWES",-38.451396,145.238254,2.0,2.0,1,$190_per_week,Unit,August 2010,3922,2010,8,COWES,190,207011521
4293,"1/30 WYNDHAM AVENUE, COWES",-38.455184,145.233564,2.0,1.0,1,$220_per_week,House,August 2010,3922,2010,8,COWES,220,205031091
4294,"1/30 WYNDHAM AVENUE, COWES",-38.455184,145.233564,2.0,1.0,1,$220,House,August 2010,3922,2010,8,COWES,220,206051134
4414,"57 REDWOOD DRIVE, COWES",-38.462887,145.241769,3.0,2.0,2,$350_p.w.,House,February 2010,3922,2010,2,COWES,350,208011169
4415,"57 REDWOOD DRIVE, COWES",-38.462887,145.241769,3.0,2.0,2,$350_pw,House,February 2010,3922,2010,2,COWES,350,208011169
4416,"57 REDWOOD DRIVE, COWES",-38.462887,145.241769,3.0,2.0,2,$350,House,February 2010,3922,2010,2,COWES,350,203021485
4439,"13 ROYDON ROAD, COWES",-38.453742,145.232441,2.0,1.0,0,$255_per_week,House,December 2010,3922,2010,12,COWES,255,205031091
4440,"13 ROYDON ROAD, COWES",-38.453742,145.232441,2.0,1.0,0,$255,House,December 2010,3922,2010,12,COWES,255,205031091
4578,"106 RED ROCKS ROAD, COWES",-38.4618,145.201229,2.0,1.0,0,$310_p.w.,Unit/apmt,June 2010,3922,2010,6,COWES,310,204011054
4579,"106 RED ROCKS ROAD, COWES",-38.4618,145.201229,2.0,1.0,0,$310_pw,Unit/apmt,June 2010,3922,2010,6,COWES,310,207031163
4580,"106 RED ROCKS ROAD, COWES",-38.4618,145.201229,2.0,1.0,0,$310,Unit/apmt,June 2010,3922,2010,6,COWES,310,207031163
4592,"4/35 CHAPEL STREET, COWES",-38.450944,145.24391,2.0,1.0,1,$205,Rental_residential,July 2010,3922,2010,7,COWES,205,208031190
4593,"4/35 CHAPEL STREET, COWES",-38.450944,145.24391,2.0,1.0,1,$205_per_week,Rental_residential,July 2010,3922,2010,7,COWES,205,208031190
4650,"2/64 JUSTICE ROAD, COWES",-38.4557179,145.2106686,3.0,2.0,2,$330,Townhouse,August 2010,3922,2010,8,COWES,330,205031091
4651,"2/64 JUSTICE ROAD, COWES",-38.4557179,145.2106686,3.0,2.0,2,$330_per_week,Townhouse,June 2010,3922,2010,6,COWES,330,205031091
4652,"2/64 JUSTICE ROAD, COWES",-38.4557179,145.2106686,3.0,2.0,2,$330,Townhouse,June 2010,3922,2010,6,COWES,330,205031091
4918,"15 CRICKET ST, COWWARR",-38.0125485,146.6979245,3.0,1.0,0,$270_Weekly,House,February 2010,3857,2010,2,COWWARR,270,214021385
4948,"2 ELWOOD COURT, CRAIGIE",-31.78481,115.76898,3.0,1.0,0,$365_per_week,House,September 2010,3465,2010,9,CRAIGIE,365,213011340
5005,"22 FLAGSTAFF LOOP, CRAIGIEBURN",-37.584694,144.939183,3.0,2.0,2,$340_per_week,House,August 2010,3064,2010,8,CRAIGIEBURN,340,206051514
5463,"8 BRECON NOOK, CRAIGIEBURN",-37.608906,144.924308,3.0,1.0,0,$265_p.w.,House,November 2010,3064,2010,11,CRAIGIEBURN,265,204011059
5464,"8 BRECON NOOK, CRAIGIEBURN",-37.608906,144.924308,3.0,1.0,0,$265,House,November 2010,3064,2010,11,CRAIGIEBURN,265,204011059
5510,"274 WATERVIEW BOULEVARD, CRAIGIEBURN",-37.582363,144.907861,4.0,2.0,2,$390,House,December 2010,3064,2010,12,CRAIGIEBURN,390,213031347
5905,"33 PRINCES CIRCUIT, CRAIGIEBURN",-37.584038,144.936392,3.0,2.0,2,$365_p.w.,House,May 2010,3064,2010,5,CRAIGIEBURN,365,210051442
5906,"33 PRINCES CIRCUIT, CRAIGIEBURN",-37.584038,144.936392,3.0,2.0,2,$365,House,May 2010,3064,2010,5,CRAIGIEBURN,365,206071140
6106,"22 DAN MORGAN DRIVE, CRANBOURNE EAST",-38.099713,145.318784,4.0,2.0,2,$380_per_week,House,July 2010,3977,2010,7,EAST,380,212031557
6513,"11 BEECHTREE WAY, CRANBOURNE NORTH",-38.083203,145.318652,4.0,2.0,2,$340,House,November 2010,3977,2010,11,NORTH,340,212031559
6514,"11 BEECHTREE WAY, CRANBOURNE NORTH",-38.083203,145.318652,4.0,2.0,2,$340_pw,House,November 2010,3977,2010,11,NORTH,340,206041505
6608,"4/20 HUON PARK ROAD, CRANBOURNE NORTH",-38.074527,145.27318,3.0,2.0,2,$310,none,September 2010,3977,2010,9,NORTH,310,206061136
6609,"4/20 HUON PARK ROAD, CRANBOURNE NORTH",-38.074527,145.27318,3.0,2.0,2,$310,none,August 2010,3977,2010,8,NORTH,310,208021178
6610,"4/20 HUON PARK ROAD, CRANBOURNE NORTH",-38.074527,145.27318,3.0,2.0,2,$310_pw,none,July 2010,3977,2010,7,NORTH,310,211031267
6710,"12 ISLINGTON AVENUE, CRANBOURNE NORTH",-38.069538,145.289037,4.0,2.0,2,$360_pw,House,November 2010,3977,2010,11,NORTH,360,209031209
6740,"27 ELIZA STREET, CRANBOURNE NORTH",-38.07808763,145.28925138,3.0,1.0,1,$280_per_week,House,October 2010,3977,2010,10,NORTH,280,208041195
6741,"27 ELIZA STREET, CRANBOURNE NORTH",-38.07808763,145.28925138,3.0,1.0,1,$280,House,October 2010,3977,2010,10,NORTH,280,214021377
6772,"20 COURTENAY AVENUE, CRANBOURNE NORTH",-38.077896,145.27619,3.0,1.0,1,$290,House,October 2010,3977,2010,10,NORTH,290,212031560
6773,"20 COURTENAY AVENUE, CRANBOURNE NORTH",-38.077896,145.27619,3.0,1.0,1,$280,House,August 2010,3977,2010,8,NORTH,280,206051129
6774,"20 COURTENAY AVENUE, CRANBOURNE NORTH",-38.077896,145.27619,3.0,1.0,1,$280_per_week,House,August 2010,3977,2010,8,NORTH,280,214021379
6958,"590 CRANBOURNE FRANKSTON ROAD, CRANBOURNE SOUTH",-38.133811,145.229305,4.0,2.0,4,$360_Weekly,Available Now,December 2010,3977,2010,12,SOUTH,360,212031303
7146,"10 NERRENA RISE, CRANBOURNE WEST",-38.096508,145.259518,3.0,2.0,2,$340,House,December 2010,3977,2010,12,WEST,340,214011373
7210,"28 SCOTT STREET, CRANBOURNE",-38.109806,145.280379,3.0,1.0,2,$250_per_week,none,March 2010,3977,2010,3,CRANBOURNE,250,212031300
7361,"27 PEPPERBUSH CIRCUIT, CRANBOURNE",-38.086679,145.281677,4.0,2.0,2,$310,House,February 2010,3977,2010,2,CRANBOURNE,310,212031300
7412,"2/25 ROUSE STREET, CRANBOURNE",-38.091277,145.271737,3.0,2.0,1,$230_per_week,Unit/apmt,July 2010,3977,2010,7,CRANBOURNE,230,212031300
7413,"2/25 ROUSE STREET, CRANBOURNE",-38.091277,145.271737,3.0,2.0,1,$225,Unit/apmt,February 2010,3977,2010,2,CRANBOURNE,225,212031300
7449,"1/18 STAWELL STREET, CRANBOURNE",-38.108585,145.286482,2.0,1.0,1,$235_per_week,Unit/apmt,September 2010,3977,2010,9,CRANBOURNE,235,212031300
7472,"19 THOMAS CRESCENT, CRANBOURNE",-38.106523,145.270989,3.0,1.0,1,$270,House,March 2010,3977,2010,3,CRANBOURNE,270,212031300
7473,"19 THOMAS CRESCENT, CRANBOURNE",-38.106523,145.270989,3.0,1.0,1,$270_Weekly,House,March 2010,3977,2010,3,CRANBOURNE,270,214021381
7518,"23 LAMONT CRESCENT, CRANBOURNE",-38.099023,145.270836,3.0,1.0,1,$280_Weekly,House,August 2010,3977,2010,8,CRANBOURNE,280,212031300
7563,"2/36 VIRGINIA STREET, CRANBOURNE",-38.094064,145.274541,3.0,2.0,1,$280_per_week,Unit,April 2010,3977,2010,4,CRANBOURNE,280,213011339
7651,"19 JILLIAN STREET, CRANBOURNE",-38.107651,145.274156,3.0,1.0,1,$300_per_week,Rental_residential,August 2010,3977,2010,8,CRANBOURNE,300,212031300
7730,"8 CANTERBURY STREET, CRANBOURNE",-38.100922,145.285479,3.0,2.0,2,$330_per_week,House,November 2010,3977,2010,11,CRANBOURNE,330,208021181
7869,"1/2 BARILLA COURT, CRANBOURNE",-38.103908,145.27493,2.0,1.0,1,$230_Weekly,Unit/apmt,July 2010,3977,2010,7,CRANBOURNE,230,211011448
7940,"1/6 GORDON STREET, CRANBOURNE",-38.105634,145.287844,2.0,1.0,1,$230,Unit/apmt,August 2010,3977,2010,8,CRANBOURNE,230,207011146
8158,"2 PEPPERBUSH CIRCUIT, CRANBOURNE",-38.086034,145.283276,4.0,2.0,2,$350_p.w.,House,November 2010,3977,2010,11,CRANBOURNE,350,211051282
8159,"2 PEPPERBUSH CIRCUIT, CRANBOURNE",-38.086034,145.283276,4.0,2.0,2,$350_per_week,House,November 2010,3977,2010,11,CRANBOURNE,350,212031300
8160,"2 PEPPERBUSH CIRCUIT, CRANBOURNE",-38.086034,145.283276,4.0,2.0,2,$350,House,November 2010,3977,2010,11,CRANBOURNE,350,212031300
8161,"2 PEPPERBUSH CIRCUIT, CRANBOURNE",-38.086034,145.283276,4.0,2.0,2,$350_pw,House,November 2010,3977,2010,11,CRANBOURNE,350,211011447
349,"4 BLAXLAND STREET, BURNSIDE HEIGHTS",-37.73260444,144.76011929,3.0,3.0,2,$350_per_week,House,September 2010,3023,2010,9,HEIGHTS,350,210031538
443,"25 BELLEVILLE CLOSE, BURNSIDE HEIGHTS",-37.72466778,144.75340716,3.0,2.0,2,$310_per_week,House,December 2010,3023,2010,12,HEIGHTS,310,213041462
465,"2 FLORIDA COURT, BURNSIDE HEIGHTS",-37.7357208,144.75009035,3.0,2.0,2,$350_per_week,House,December 2010,3023,2010,12,HEIGHTS,350,213041462
555,"15 WYLIE CIRCUIT, BURNSIDE HEIGHTS",-37.73201578,144.75406918,4.0,2.0,2,$350_per_week,House,October 2010,3023,2010,10,HEIGHTS,350,211011254
656,"3 SAVIOUR ROAD, BURNSIDE HEIGHTS",-37.7263099,144.7571593,3.0,2.0,1,$385_per_week,none,October 2010,3023,2010,10,HEIGHTS,385,213041462
1434,"3 GOULD PLACE, BURNSIDE",-37.751245,144.749376,3.0,1.0,1,$300_p.w.,none,November 2010,3023,2010,11,BURNSIDE,300,211011251
1435,"3 GOULD PLACE, BURNSIDE",-37.751245,144.749376,3.0,1.0,1,$300_pw,none,November 2010,3023,2010,11,BURNSIDE,300,213041461
1806,"97 BURWOOD HIGHWAY, BURWOOD EAST",-37.850939,145.140001,3.0,1.0,2,$350,House,January 2010,3151,2010,1,EAST,350,208031185
1903,"25 DOROTHY STREET, BURWOOD EAST",-37.854663,145.145829,3.0,1.0,1,$350,House,January 2010,3151,2010,1,EAST,350,207031166
1947,"295 BLACKBURN ROAD, BURWOOD EAST",-37.846728,145.153585,4.0,2.0,2,$410_pw,House,January 2010,3151,2010,1,EAST,410,210011226
1948,"295 BLACKBURN ROAD, BURWOOD EAST",-37.846728,145.153585,4.0,2.0,2,$430_pw,House,January 2010,3151,2010,1,EAST,430,207031166
1991,"75 SEVENOAKS ROAD, BURWOOD EAST",-37.858463,145.155964,3.0,1.0,1,$430,House,January 2010,3151,2010,1,EAST,430,202011021
2005,"15 MOONA STREET, BURWOOD EAST",-37.852733,145.138887,3.0,1.0,2,$350_per_week,House,July 2010,3151,2010,7,EAST,350,207031166
2060,"2/8 MEDHURST STREET, BURWOOD EAST",-37.850272,145.138278,3.0,1.0,1,$350,Unit/apmt,October 2010,3151,2010,10,EAST,350,207031166
2061,"2/8 MEDHURST STREET, BURWOOD EAST",-37.850272,145.138278,3.0,1.0,1,$350_pw,Unit/apmt,October 2010,3151,2010,10,EAST,350,207031166
2293,"48 ROBINLEE AVENUE, BURWOOD EAST",-37.849451,145.158313,3.0,1.0,2,$395_p.w.,House,July 2010,3151,2010,7,EAST,395,207011152
2294,"48 ROBINLEE AVENUE, BURWOOD EAST",-37.849451,145.158313,3.0,1.0,2,$395_pw,House,July 2010,3151,2010,7,EAST,395,206041121
2295,"48 ROBINLEE AVENUE, BURWOOD EAST",-37.849451,145.158313,3.0,1.0,2,$395,House,July 2010,3151,2010,7,EAST,395,205041095
2334,"68A ROSLYN STREET, BURWOOD",-37.845154,145.103348,1.0,1.0,1,$220,none,June 2010,3125,2010,6,BURWOOD,220,207031165
2439,"3/5 RENOWN STREET, BURWOOD",-37.852087,145.122778,2.0,1.0,1,$350_p.w.,Unit/apmt,June 2010,3125,2010,6,BURWOOD,350,202011021
2440,"3/5 RENOWN STREET, BURWOOD",-37.852087,145.122778,2.0,1.0,1,$350_pw,Unit/apmt,June 2010,3125,2010,6,BURWOOD,350,213031352
2441,"3/5 RENOWN STREET, BURWOOD",-37.852087,145.122778,2.0,1.0,1,$350,Unit/apmt,June 2010,3125,2010,6,BURWOOD,350,207031165
2774,"58 ROSLYN STREET, BURWOOD",-37.845828,145.103217,4.0,1.0,2,$450_pw,none,December 2010,3125,2010,12,BURWOOD,450,207021157
2775,"58 ROSLYN STREET, BURWOOD",-37.845828,145.103217,4.0,1.0,2,$450,none,December 2010,3125,2010,12,BURWOOD,450,209041529
2871,"80 PARER STREET, BURWOOD",-37.844473,145.104706,3.0,2.0,2,$430_p.w.,none,July 2010,3125,2010,7,BURWOOD,430,207031165
2872,"80 PARER STREET, BURWOOD",-37.844473,145.104706,3.0,2.0,2,$430_pw,none,July 2010,3125,2010,7,BURWOOD,430,207031165
2873,"80 PARER STREET, BURWOOD",-37.844473,145.104706,3.0,2.0,2,$430,none,July 2010,3125,2010,7,BURWOOD,430,207031165
2874,"80 PARER STREET, BURWOOD",-37.844473,145.104706,3.0,2.0,2,$465_per_week,none,February 2010,3125,2010,2,BURWOOD,465,207031165
2939,"17 CROMWELL STREET, BURWOOD",-37.85218,145.105285,3.0,1.0,2,$450_p.w.,House,June 2010,3125,2010,6,BURWOOD,450,206031502
2940,"17 CROMWELL STREET, BURWOOD",-37.85218,145.105285,3.0,1.0,2,$450_pw,House,June 2010,3125,2010,6,BURWOOD,450,213011336
2941,"17 CROMWELL STREET, BURWOOD",-37.85218,145.105285,3.0,1.0,2,$470,House,May 2010,3125,2010,5,BURWOOD,470,206021112
2995,"1/2 FINCH STREET, BURWOOD",-37.851738,145.12391,3.0,2.0,2,$550,Townhouse,December 2010,3125,2010,12,BURWOOD,550,207031165
3039,"2/365 BURWOOD HIGHWAY, BURWOOD",-37.851292,145.128462,4.0,2.0,2,$550,Townhouse,July 2010,3125,2010,7,BURWOOD,550,207031165
3208,"2A RENOWN STREET, BURWOOD",-37.851639,145.122251,3.0,2.0,1,$400_per_week,House,November 2010,3125,2010,11,BURWOOD,400,213031349
3216,"17 STEPHENS STREET, BURWOOD",-37.856717,145.108984,2.0,1.0,2,$335_per_week,House,September 2010,3125,2010,9,BURWOOD,335,208041194
3286,"1/8 RENOWN STREET, BURWOOD",-37.852163,145.12234,4.0,2.0,2,$560_per_week,Townhouse,May 2010,3125,2010,5,BURWOOD,560,213011336
3380,"7 HUGHES STREET, BURWOOD",-37.852023,145.1079,3.0,1.0,1,$325_per_week,House,June 2010,3125,2010,6,BURWOOD,325,216021413
3381,"7 HUGHES STREET, BURWOOD",-37.852023,145.1079,3.0,1.0,1,$370_pw,House,April 2010,3125,2010,4,BURWOOD,370,216021413
3502,"15 CUMMING STREET, BURWOOD",-37.851446,145.11354,3.0,1.0,2,$395,House,November 2010,3125,2010,11,BURWOOD,395,207031165
3503,"15 CUMMING STREET, BURWOOD",-37.851446,145.11354,3.0,1.0,2,$400,House,October 2010,3125,2010,10,BURWOOD,400,207031165
3504,"15 CUMMING STREET, BURWOOD",-37.851446,145.11354,3.0,1.0,2,$400,House,September 2010,3125,2010,9,BURWOOD,400,211051279
3935,"15 GILLIESTON ROAD, BYRNESIDE",-36.4167807,145.1864301,4.0,1.0,2,$300_pw,none,April 2010,3617,2010,4,BYRNESIDE,300,216031419
3970,"72 DYAR AVENUE, CABARITA",-34.2121384,142.0901623,3.0,2.0,2,$375,none,September 2010,3505,2010,9,CABARITA,375,205031091
4011,"112 CAIRNLEA DRIVE, CAIRNLEA",-37.76025238,144.78999346,4.0,3.0,2,$1560_pw,Townhouse,June 2010,3023,2010,6,CAIRNLEA,1560,202031032
4253,"24 ALIZA AVENUE, CALIFORNIA GULLY",-36.722933,144.271314,4.0,2.0,2,$310_pw,none,January 2010,3556,2010,1,GULLY,310,202011019
4258,"2/10 PEARCE STREET, CALIFORNIA GULLY",-36.730891,144.26618,3.0,1.0,1,$180_per_week,House,April 2010,3556,2010,4,GULLY,180,202011019
4526,"1/3 HALLEY AVENUE, CAMBERWELL",-37.846282,145.069709,3.0,2.0,2,$470_pw,none,July 2010,3124,2010,7,CAMBERWELL,470,213051467
4527,"1/3 HALLEY AVENUE, CAMBERWELL",-37.846282,145.069709,3.0,2.0,2,$525_pw,none,May 2010,3124,2010,5,CAMBERWELL,525,213051467
4681,"4 SEYMOUR GROVE, CAMBERWELL",-37.835861,145.060622,5.0,3.0,3,$900_p.w.,none,August 2010,3124,2010,8,CAMBERWELL,900,204031072
4682,"4 SEYMOUR GROVE, CAMBERWELL",-37.835861,145.060622,5.0,3.0,3,$1000_p.w.,none,August 2010,3124,2010,8,CAMBERWELL,1000,207011519
4683,"4 SEYMOUR GROVE, CAMBERWELL",-37.835861,145.060622,5.0,3.0,3,$1000_pw,none,August 2010,3124,2010,8,CAMBERWELL,1000,207011149
4684,"4 SEYMOUR GROVE, CAMBERWELL",-37.835861,145.060622,5.0,3.0,3,$1000,none,August 2010,3124,2010,8,CAMBERWELL,1000,206031116
4685,"4 SEYMOUR GROVE, CAMBERWELL",-37.835861,145.060622,5.0,3.0,3,$1100_p.w.,none,August 2010,3124,2010,8,CAMBERWELL,1100,207011149
4729,"2/68 BRINSLEY ROAD, CAMBERWELL",-37.831576,145.067995,2.0,1.0,1,$370_pw,none,March 2010,3124,2010,3,CAMBERWELL,370,207011149
4734,"252 HIGHFIELD ROAD, CAMBERWELL",-37.848314,145.082571,3.0,2.0,3,$680_per_week,House,November 2010,3124,2010,11,CAMBERWELL,680,207011149
4793,"6/24 ALLAMBEE AVENUE, CAMBERWELL",-37.835011,145.07699,2.0,1.0,1,$420_per_week,none,September 2010,3124,2010,9,CAMBERWELL,420,207011149
4794,"6/24 ALLAMBEE AVENUE, CAMBERWELL",-37.835011,145.07699,2.0,1.0,1,$420_pw,none,September 2010,3124,2010,9,CAMBERWELL,420,207011149
4795,"6/24 ALLAMBEE AVENUE, CAMBERWELL",-37.835011,145.07699,2.0,1.0,1,$420_per_week,none,January 2010,3124,2010,1,CAMBERWELL,420,207011149
4836,"8 MOORHOUSE STREET, CAMBERWELL",-37.826854,145.067539,4.0,3.0,3,$1200_pw,Available Now,July 2010,3124,2010,7,CAMBERWELL,1200,207011149
4933,"2/233 HIGHFIELD ROAD, CAMBERWELL",-37.8466,145.082064,3.0,2.0,1,$600_per_week,none,September 2010,3124,2010,9,CAMBERWELL,600,214021385
4981,"41 CHRISTOWEL STREET, CAMBERWELL",-37.83778,145.067185,4.0,2.0,3,$950_pw,none,April 2010,3124,2010,4,CAMBERWELL,950,205031093
4988,"43 BELLETT STREET, CAMBERWELL",-37.835812,145.066418,3.0,2.0,3,$650_pw,none,May 2010,3124,2010,5,CAMBERWELL,650,207011149
5034,"18 NETHERWAY STREET, CAMBERWELL",-37.842058,145.08912,3.0,2.0,1,$450,House,December 2010,3124,2010,12,CAMBERWELL,450,201011002
5035,"18 NETHERWAY STREET, CAMBERWELL",-37.842058,145.08912,3.0,2.0,1,$450_pw,House,December 2010,3124,2010,12,CAMBERWELL,450,208011169
5071,"5/25 THOMAS STREET, CAMBERWELL",-37.842495,145.09375,2.0,1.0,1,$380,Unit/apmt,September 2010,3124,2010,9,CAMBERWELL,380,206051513
5141,"3/36 BRINGA AVENUE, CAMBERWELL",-37.836259,145.07794,2.0,1.0,1,$330,Unit/apmt,November 2010,3124,2010,11,CAMBERWELL,330,207011149
5142,"3/36 BRINGA AVENUE, CAMBERWELL",-37.836259,145.07794,2.0,1.0,1,$330,Unit/apmt,October 2010,3124,2010,10,CAMBERWELL,330,207011149
5230,"16/700 RIVERSDALE ROAD, CAMBERWELL",-37.83425,145.074497,3.0,1.0,1,$450_pw,House,October 2010,3124,2010,10,CAMBERWELL,450,201011001
5231,"16/700 RIVERSDALE ROAD, CAMBERWELL",-37.83425,145.074497,3.0,1.0,1,$450_per_week,House,October 2010,3124,2010,10,CAMBERWELL,450,207011149
5232,"16/700 RIVERSDALE ROAD, CAMBERWELL",-37.83425,145.074497,3.0,1.0,1,$480_per_week,House,October 2010,3124,2010,10,CAMBERWELL,480,207011149
5270,"62A CHRISTOWEL STREET, CAMBERWELL",-37.839021,145.066556,3.0,1.0,1,$575_per_week,House,October 2010,3124,2010,10,CAMBERWELL,575,205011078
5271,"62A CHRISTOWEL STREET, CAMBERWELL",-37.839021,145.066556,3.0,1.0,1,$575_per_week,House,September 2010,3124,2010,9,CAMBERWELL,575,207011149
5280,"1/31 HIGH ROAD, CAMBERWELL",-37.842785,145.057707,3.0,2.0,2,$520_pw,House,December 2010,3124,2010,12,CAMBERWELL,520,207011149
5281,"1/31 HIGH ROAD, CAMBERWELL",-37.842785,145.057707,3.0,2.0,2,$520_pw,House,March 2010,3124,2010,3,CAMBERWELL,520,207011149
5342,"1/37 THOMAS STREET, CAMBERWELL",-37.842376,145.092577,2.0,1.0,1,$330_pw,Unit/apmt,June 2010,3124,2010,6,CAMBERWELL,330,207011149
5343,"1/37 THOMAS STREET, CAMBERWELL",-37.842376,145.092577,2.0,1.0,1,$330_pw,Unit/apmt,May 2010,3124,2010,5,CAMBERWELL,330,210011228
5344,"1/37 THOMAS STREET, CAMBERWELL",-37.842376,145.092577,2.0,1.0,1,$350_pw,Unit/apmt,March 2010,3124,2010,3,CAMBERWELL,350,207011149
5391,"10A JUDD STREET, CAMBERWELL",-37.836455,145.064137,2.0,1.0,1,$480,Rental_residential,October 2010,3124,2010,10,CAMBERWELL,480,213041576
5482,"1/911 TOORAK ROAD, CAMBERWELL",-37.845911,145.057483,4.0,3.0,2,$985,Townhouse,November 2010,3124,2010,11,CAMBERWELL,985,207011149
5498,"39 LYNDEN STREET, CAMBERWELL",-37.840895,145.086331,6.0,2.0,2,$800,Rental_residential,May 2010,3124,2010,5,CAMBERWELL,800,209041436
5499,"39 LYNDEN STREET, CAMBERWELL",-37.840895,145.086331,6.0,2.0,2,$800_pw,Rental_residential,February 2010,3124,2010,2,CAMBERWELL,800,207011149
5596,"3/17 GARDEN ROAD, CAMBERWELL",-37.843659,145.091424,2.0,1.0,1,$300,Rental_residential,July 2010,3124,2010,7,CAMBERWELL,300,207011149
5667,"2/28 ALLAMBEE AVENUE, CAMBERWELL",-37.835228,145.077317,2.0,1.0,1,$360_pw,Rental_residential,September 2010,3124,2010,9,CAMBERWELL,360,211051274
40,"500 FLINDERS STREET, MELBOURNE",-37.820019,144.957827,1.0,1.0,0,$230_pw,Available Now,March 2010,3000,2010,3,MELBOURNE,230,202021026
116,"1711/668 BOURKE STREET, MELBOURNE",-37.816897,144.953675,3.0,2.0,2,$660_pw,Available Now,April 2010,3000,2010,4,MELBOURNE,660,212041317
234,"909/565 FLINDERS STREET, MELBOURNE",-37.821127,144.955764,2.0,2.0,1,$2470,none,September 2010,3000,2010,9,MELBOURNE,2470,217041479
323,"603/8 EXPLORATION LANE, MELBOURNE",-37.8092558,144.9683848,2.0,2.0,0,$480,Available Now,October 2010,3000,2010,10,MELBOURNE,480,211051285
324,"603/8 EXPLORATION LANE, MELBOURNE",-37.8092558,144.9683848,2.0,2.0,0,$480_pw,Available Now,October 2010,3000,2010,10,MELBOURNE,480,209041432
365,"1110/22-24 JANE BELL LANE, MELBOURNE",-37.81022,144.966265,1.0,1.0,1,$400_pw,none,October 2010,3000,2010,10,MELBOURNE,400,202011024
391,"124/546 FLINDERS STREET, MELBOURNE",-37.820521,144.956143,1.0,1.0,0,$240_p.w.,none,November 2010,3000,2010,11,MELBOURNE,240,206041505
392,"124/546 FLINDERS STREET, MELBOURNE",-37.820521,144.956143,1.0,1.0,0,$240,none,November 2010,3000,2010,11,MELBOURNE,240,206041505
393,"124/546 FLINDERS STREET, MELBOURNE",-37.820521,144.956143,1.0,1.0,0,$250_pw,none,November 2010,3000,2010,11,MELBOURNE,250,207011152
418,"3305/483 SWANSTON STREET, MELBOURNE",-37.807218,144.962336,2.0,1.0,1,$550_pw,none,October 2010,3000,2010,10,MELBOURNE,550,211051285
524,"1403/225 ELIZABETH STREET, MELBOURNE",-37.813122,144.962367,2.0,1.0,0,$500_pw,none,August 2010,3000,2010,8,MELBOURNE,500,203021487
525,"1403/225 ELIZABETH STREET, MELBOURNE",-37.813122,144.962367,2.0,1.0,0,$540_pw,none,June 2010,3000,2010,6,MELBOURNE,540,206041505
717,"2402/250 ELIZABETH STREET, MELBOURNE",-37.812679,144.962733,2.0,1.0,1,$600,Available Now,October 2010,3000,2010,10,MELBOURNE,600,207021425
718,"2402/250 ELIZABETH STREET, MELBOURNE",-37.812679,144.962733,2.0,1.0,1,$600_pw,Available Now,October 2010,3000,2010,10,MELBOURNE,600,211051276
754,"605/455 ELIZABETH STREET, MELBOURNE",-37.808429,144.960206,2.0,1.0,0,$450_pw,none,June 2010,3000,2010,6,MELBOURNE,450,206041504
772,"705/422 COLLINS STREET, MELBOURNE",-37.817217,144.96034,2.0,1.0,0,$450_pw,Available Now,March 2010,3000,2010,3,MELBOURNE,450,210021232
773,"705/422 COLLINS STREET, MELBOURNE",-37.817217,144.96034,2.0,1.0,0,$400_Weekly,Available Now,March 2010,3000,2010,3,MELBOURNE,400,206041505
870,"250 ELIZABETH STREET, MELBOURNE",-37.81278992,144.96253967,1.0,1.0,1,$480_Weekly,Available Now,December 2010,3000,2010,12,MELBOURNE,480,214011374
871,"250 ELIZABETH STREET, MELBOURNE",-37.81278992,144.96253967,1.0,1.0,1,$470,Available Now,September 2010,3000,2010,9,MELBOURNE,470,214011374
872,"250 ELIZABETH STREET, MELBOURNE",-37.81278992,144.96253967,1.0,1.0,1,$470_pw,Available Now,September 2010,3000,2010,9,MELBOURNE,470,206041503
873,"250 ELIZABETH STREET, MELBOURNE",-37.81278992,144.96253967,1.0,1.0,1,$500_p.w.,Available Now,September 2010,3000,2010,9,MELBOURNE,500,206041503
874,"250 ELIZABETH STREET, MELBOURNE",-37.81278992,144.96253967,1.0,1.0,1,$500,Available Now,September 2010,3000,2010,9,MELBOURNE,500,212021456
875,"250 ELIZABETH STREET, MELBOURNE",-37.81278992,144.96253967,1.0,1.0,1,$500_pw,Available Now,September 2010,3000,2010,9,MELBOURNE,500,214021382
876,"250 ELIZABETH STREET, MELBOURNE",-37.81278992,144.96253967,1.0,1.0,1,$410_per_week,Available Now,July 2010,3000,2010,7,MELBOURNE,410,206041121
877,"250 ELIZABETH STREET, MELBOURNE",-37.81278992,144.96253967,1.0,1.0,1,$420_per_week,Available Now,July 2010,3000,2010,7,MELBOURNE,420,213011328
878,"250 ELIZABETH STREET, MELBOURNE",-37.81278992,144.96253967,1.0,1.0,1,$545_per_week,Available Now,July 2010,3000,2010,7,MELBOURNE,545,206041503
879,"250 ELIZABETH STREET, MELBOURNE",-37.81278992,144.96253967,1.0,1.0,1,$400_per_week,Available Now,June 2010,3000,2010,6,MELBOURNE,400,206041503
880,"250 ELIZABETH STREET, MELBOURNE",-37.81278992,144.96253967,1.0,1.0,1,$530_per_week,Available Now,June 2010,3000,2010,6,MELBOURNE,530,206041503
881,"250 ELIZABETH STREET, MELBOURNE",-37.81278992,144.96253967,1.0,1.0,1,$400_pw,Available Now,May 2010,3000,2010,5,MELBOURNE,400,206041503
882,"250 ELIZABETH STREET, MELBOURNE",-37.81278992,144.96253967,1.0,1.0,1,$400_per_week,Available Now,May 2010,3000,2010,5,MELBOURNE,400,206041503
883,"250 ELIZABETH STREET, MELBOURNE",-37.81278992,144.96253967,1.0,1.0,1,$420_pw,Available Now,May 2010,3000,2010,5,MELBOURNE,420,208021426
884,"250 ELIZABETH STREET, MELBOURNE",-37.81278992,144.96253967,1.0,1.0,1,$475_pw,Available Now,April 2010,3000,2010,4,MELBOURNE,475,206041503
885,"250 ELIZABETH STREET, MELBOURNE",-37.81278992,144.96253967,1.0,1.0,1,$525_pw,Available Now,April 2010,3000,2010,4,MELBOURNE,525,205051103
886,"250 ELIZABETH STREET, MELBOURNE",-37.81278992,144.96253967,1.0,1.0,1,$500_pw,Available Now,February 2010,3000,2010,2,MELBOURNE,500,213021345
887,"250 ELIZABETH STREET, MELBOURNE",-37.81278992,144.96253967,1.0,1.0,1,$530_pw,Available Now,February 2010,3000,2010,2,MELBOURNE,530,213021345
888,"250 ELIZABETH STREET, MELBOURNE",-37.81278992,144.96253967,1.0,1.0,1,$520_pw,Available Now,February 2010,3000,2010,2,MELBOURNE,520,213021345
889,"250 ELIZABETH STREET, MELBOURNE",-37.81278992,144.96253967,1.0,1.0,1,$420_pw,Available Now,January 2010,3000,2010,1,MELBOURNE,420,213021345
890,"250 ELIZABETH STREET, MELBOURNE",-37.81278992,144.96253967,1.0,1.0,1,$525_pw,Available Now,January 2010,3000,2010,1,MELBOURNE,525,206041503
891,"250 ELIZABETH STREET, MELBOURNE",-37.81278992,144.96253967,1.0,1.0,1,$520_pw,Available Now,January 2010,3000,2010,1,MELBOURNE,520,206041503
892,"250 ELIZABETH STREET, MELBOURNE",-37.81278992,144.96253967,1.0,1.0,1,$410_pw,Available Now,January 2010,3000,2010,1,MELBOURNE,410,203031053
893,"250 ELIZABETH STREET, MELBOURNE",-37.81278992,144.96253967,1.0,1.0,1,$400_pw,Available Now,January 2010,3000,2010,1,MELBOURNE,400,206041503
934,"603/25-33 WILLS STREET, MELBOURNE",-37.810743,144.956997,1.0,1.0,0,$390,Available Now,November 2010,3000,2010,11,MELBOURNE,390,205051103
935,"603/25-33 WILLS STREET, MELBOURNE",-37.810743,144.956997,1.0,1.0,0,$390_pw,Available Now,November 2010,3000,2010,11,MELBOURNE,390,206041504
936,"603/25-33 WILLS STREET, MELBOURNE",-37.810743,144.956997,1.0,1.0,0,$400,Available Now,November 2010,3000,2010,11,MELBOURNE,400,213011333
937,"603/25-33 WILLS STREET, MELBOURNE",-37.810743,144.956997,1.0,1.0,0,$400_pw,Available Now,November 2010,3000,2010,11,MELBOURNE,400,206041504
938,"603/25-33 WILLS STREET, MELBOURNE",-37.810743,144.956997,1.0,1.0,0,$400,Available Now,October 2010,3000,2010,10,MELBOURNE,400,206041504
939,"603/25-33 WILLS STREET, MELBOURNE",-37.810743,144.956997,1.0,1.0,0,$400_pw,Available Now,October 2010,3000,2010,10,MELBOURNE,400,214021382
949,"6B/131 LONSDALE STREET, MELBOURNE",-37.810713,144.968409,1.0,1.0,0,$350,none,July 2010,3000,2010,7,MELBOURNE,350,206041503
1035,"200 SPENCER STREET, MELBOURNE",-37.81613541,144.95289612,2.0,2.0,1,$400_pw,none,April 2010,3000,2010,4,MELBOURNE,400,212051326
1036,"200 SPENCER STREET, MELBOURNE",-37.81613541,144.95289612,2.0,2.0,1,$450_pw,none,February 2010,3000,2010,2,MELBOURNE,450,212051326
1072,"812/29-31 MARKET STREET, MELBOURNE",-37.818652,144.960479,2.0,2.0,0,$550_pw,Available Now,November 2010,3000,2010,11,MELBOURNE,550,213021345
1278,"2803/483 SWANSTON STREET, MELBOURNE",-37.807218,144.962336,2.0,1.0,0,$550_pw,none,February 2010,3000,2010,2,MELBOURNE,550,213011340
1369,"1108/68 LA TROBE STREET, MELBOURNE",-37.809552,144.9617995,2.0,1.0,1,$500_per_week,none,November 2010,3000,2010,11,MELBOURNE,500,211051286
1445,"42/140 FLINDERS STREET, MELBOURNE",-37.816395,144.970345,1.0,1.0,1,$430_per_week,Unit/apmt,February 2010,3000,2010,2,MELBOURNE,430,210041541
1451,"204/565 FLINDERS ST, MELBOURNE",-37.821068,144.9559,2.0,1.0,0,$420_per_week,Unit/apmt,September 2010,3000,2010,9,MELBOURNE,420,213051362
1461,"618/360 ST KILDA ROAD, MELBOURNE",-37.831814,144.971113,1.0,1.0,1,$415_pw,Unit/apmt,September 2010,3000,2010,9,MELBOURNE,415,202021027
1462,"618/360 ST KILDA ROAD, MELBOURNE",-37.831814,144.971113,1.0,1.0,1,$425_pw,Unit/apmt,September 2010,3000,2010,9,MELBOURNE,425,208031185
1492,"211A/441 LONSDALE STREET, MELBOURNE",-37.813345,144.959379,1.0,1.0,0,$280_per_week,Unit/apmt,November 2010,3000,2010,11,MELBOURNE,280,206041505
1653,"10/17 QUEENS ROAD, MELBOURNE",-37.818427,144.9621,1.0,1.0,1,$360_per_week,none,July 2010,3000,2010,7,MELBOURNE,360,206021112
1916,"1/43 WICKHAM STREET, MELTON SOUTH",-37.705238,144.569962,2.0,1.0,1,$185_per_week,Unit/apmt,July 2010,3338,2010,7,SOUTH,185,213031352
1920,"3 WENTWORTH ROAD, MELTON SOUTH",-37.713127,144.568503,3.0,1.0,5,$220_per_week,House,January 2010,3338,2010,1,SOUTH,220,213041578
1986,"2 WILSON ROAD, MELTON SOUTH",-37.708944,144.57278,3.0,1.0,2,$240_Weekly,House,June 2010,3338,2010,6,SOUTH,240,207021425
2066,"7/43 WICKHAM STREET, MELTON SOUTH",-37.705238,144.569962,2.0,1.0,1,$200_per_week,Unit/apmt,July 2010,3338,2010,7,SOUTH,200,213041578
2225,"11 LINCOLN WAY, MELTON WEST",-37.672746,144.558418,4.0,2.0,3,$265,House,September 2010,3337,2010,9,WEST,265,209021525
2290,"1 STATON CRESCENT, MELTON WEST",-37.681347,144.541885,4.0,2.0,4,$335_p.w.,House,September 2010,3337,2010,9,WEST,335,213051363
2291,"1 STATON CRESCENT, MELTON WEST",-37.681347,144.541885,4.0,2.0,4,$320,House,September 2010,3337,2010,9,WEST,320,207011152
2481,"1 JOAN STREET, MELTON",-37.687138,144.574592,3.0,1.0,4,$210_per_week,House,February 2010,3337,2010,2,MELTON,210,214011375
2482,"1 JOAN STREET, MELTON",-37.687138,144.574592,3.0,1.0,4,$210_per_week,House,January 2010,3337,2010,1,MELTON,210,206061135
2527,"9 WESTMILL VISTA, MELTON",-37.686721,144.555458,2.0,1.0,1,$230_per_week,House,January 2010,3337,2010,1,MELTON,230,213041358
2615,"5 ESSEX DRIVE, MELTON",-37.679341,144.586785,3.0,1.0,1,$250_per_week,Rental_residential,January 2010,3337,2010,1,MELTON,250,208011170
2634,"32 LAKEWOOD BOULEVARD, MELTON",-37.690675,144.587912,3.0,2.0,2,$300_p.w.,House,May 2010,3337,2010,5,MELTON,300,213041577
2635,"32 LAKEWOOD BOULEVARD, MELTON",-37.690675,144.587912,3.0,2.0,2,$300,House,May 2010,3337,2010,5,MELTON,300,206021112
2636,"32 LAKEWOOD BOULEVARD, MELTON",-37.690675,144.587912,3.0,2.0,2,$300_pw,House,May 2010,3337,2010,5,MELTON,300,206021112
2683,"80 LAKEWOOD BOULEVARD, MELTON",-37.6887863,144.588889,3.0,2.0,2,$260_per_week,House,July 2010,3337,2010,7,MELTON,260,208011168
2734,"27 MARINA DRIVE, MELTON",-37.677741,144.582131,3.0,1.0,1,$245_p.w.,House,May 2010,3337,2010,5,MELTON,245,206021112
3012,"8 HUDSON PLACE, MELTON",-37.678256,144.584394,3.0,1.0,2,$270_per_week,House,January 2010,3337,2010,1,MELTON,270,206031502
3052,"43 HENRY STREET, MELTON",-37.686111,144.58076,3.0,1.0,1,$255_per_week,House,August 2010,3337,2010,8,MELTON,255,208021180
3168,"56 BARRIES ROAD, MELTON",-37.688408,144.575932,3.0,2.0,1,$220_per_week,House,February 2010,3337,2010,2,MELTON,220,206051512
3169,"56 BARRIES ROAD, MELTON",-37.688408,144.575932,3.0,2.0,1,$220_per_week,House,January 2010,3337,2010,1,MELTON,220,211031451
3189,"3 CARINA DRIVE, MELTON",-37.682315,144.5689481,3.0,1.0,1,$235_p.w.,Available Now,July 2010,3337,2010,7,MELTON,235,207011520
3190,"3 CARINA DRIVE, MELTON",-37.682315,144.5689481,3.0,1.0,1,$235,Available Now,July 2010,3337,2010,7,MELTON,235,205051100
3191,"3 CARINA DRIVE, MELTON",-37.682315,144.5689481,3.0,1.0,1,$235_pw,Available Now,July 2010,3337,2010,7,MELTON,235,213031352
3471,"506 HIGH STREET, MELTON",-37.683826,144.569264,3.0,1.0,1,$240_per_week,House,December 2010,3337,2010,12,MELTON,240,206061135
3491,"23 PLOVER STREET, MELTON",-37.677741,144.573378,3.0,2.0,2,$210_Weekly,none,February 2010,3337,2010,2,MELTON,210,213041577
3492,"23 PLOVER STREET, MELTON",-37.677741,144.573378,3.0,2.0,2,$210_pw,none,January 2010,3337,2010,1,MELTON,210,208021174
3544,"21 QUAIL CRESCENT, MELTON",-37.679384,144.572241,4.0,1.0,1,$255_per_week,House,December 2010,3337,2010,12,MELTON,255,207011522
3575,"8 FALCON DRIVE, MELTON",-37.674332,144.575417,3.0,1.0,3,$210_pw,none,June 2010,3337,2010,6,MELTON,210,207011521
3676,"13 JOAN STREET, MELTON",-37.68609,144.574467,3.0,1.0,2,$240_per_week,House,February 2010,3337,2010,2,MELTON,240,208021180
3711,"9/20-24 PALMERSTON STREET, MELTON",-37.688049,144.584038,3.0,1.0,1,$290_p.w.,Rental_residential,December 2010,3337,2010,12,MELTON,290,213041577
3805,"49 TERN COURT, MELTON",-37.676632,144.571136,3.0,1.0,2,$250_per_week,House,January 2010,3337,2010,1,MELTON,250,207011522
3823,"495 BOGGY CREEK ROAD, MELWOOD",-37.746807,147.500503,3.0,1.0,3,$240_Weekly,none,July 2010,3875,2010,7,MELWOOD,240,208011169
3824,"495 BOGGY CREEK ROAD, MELWOOD",-37.746807,147.500503,3.0,1.0,3,$190_Weekly,none,June 2010,3875,2010,6,MELWOOD,190,208011169
3914,"29B SWANSTON STREET, MENTONE",-37.978348,145.065913,3.0,1.0,1,$470_pw,Available Now,November 2010,3194,2010,11,MENTONE,470,201011005
3915,"29B SWANSTON STREET, MENTONE",-37.978348,145.065913,3.0,1.0,1,$470,Available Now,October 2010,3194,2010,10,MENTONE,470,208031190
3916,"29B SWANSTON STREET, MENTONE",-37.978348,145.065913,3.0,1.0,1,$470_pw,Available Now,October 2010,3194,2010,10,MENTONE,470,212051324
3917,"29B SWANSTON STREET, MENTONE",-37.978348,145.065913,3.0,1.0,1,$485_pw,Available Now,October 2010,3194,2010,10,MENTONE,485,212051324
3918,"29B SWANSTON STREET, MENTONE",-37.978348,145.065913,3.0,1.0,1,$485,Available Now,October 2010,3194,2010,10,MENTONE,485,212051324
3919,"29B SWANSTON STREET, MENTONE",-37.978348,145.065913,3.0,1.0,1,$460_per_week,Available Now,April 2010,3194,2010,4,MENTONE,460,212051324
3920,"29B SWANSTON STREET, MENTONE",-37.978348,145.065913,3.0,1.0,1,$420_per_week,Available Now,January 2010,3194,2010,1,MENTONE,420,208031190
4070,"4/28 OLIVE GROVE, MENTONE",-37.984026,145.079586,2.0,1.0,1,$400_per_week,Rental_residential,July 2010,3194,2010,7,MENTONE,400,212051323
4071,"4/28 OLIVE GROVE, MENTONE",-37.984026,145.079586,2.0,1.0,1,$450_per_week,Rental_residential,June 2010,3194,2010,6,MENTONE,450,206051513
4072,"4/28 OLIVE GROVE, MENTONE",-37.984026,145.079586,2.0,1.0,1,$475_per_week,Rental_residential,June 2010,3194,2010,6,MENTONE,475,214021591
4085,"1/7 PALERMO STREET, MENTONE",-37.990339,145.066493,2.0,1.0,1,$350_pw,Rental_residential,July 2010,3194,2010,7,MENTONE,350,208031190
4124,"2/133 NEPEAN HIGHWAY, MENTONE",-37.981954,145.072334,3.0,1.0,1,$320_pw,none,March 2010,3194,2010,3,MENTONE,320,208031190
4201,"14/70 BEACH ROAD, MENTONE",-37.988562,145.059898,2.0,1.0,1,$270_pw,Available Now,August 2010,3194,2010,8,MENTONE,270,207011520
4202,"14/70 BEACH ROAD, MENTONE",-37.988562,145.059898,2.0,1.0,1,$270_pw,Available Now,July 2010,3194,2010,7,MENTONE,270,216021413
4232,"5/14 VENICE STREET, MENTONE",-37.986091,145.061693,1.0,1.0,0,$250_per_week,none,October 2010,3194,2010,10,MENTONE,250,212051324
4322,"4/80 COLLINS STREET, MENTONE",-37.979001,145.053922,1.0,1.0,1,$270_pw,Unit/apmt,March 2010,3194,2010,3,MENTONE,270,208031190
4392,"1/56 BALCOMBE ROAD, MENTONE",-37.981442,145.067602,4.0,2.0,2,$495_per_week,Rental_residential,April 2010,3194,2010,4,MENTONE,495,208031190
4458,"157 LOWER DANDENONG ROAD, MENTONE",-37.98388,145.088201,3.0,1.0,3,$340_pw,House,May 2010,3194,2010,5,MENTONE,340,210011534
4541,"10/34 FLORENCE STREET, MENTONE",-37.982406,145.059833,2.0,1.0,1,$315_pw,Unit/apmt,January 2010,3194,2010,1,MENTONE,315,208031190
4554,"8 / 45 VENICE STREET, MENTONE",-37.985708,145.06118,2.0,1.0,1,$295_per_week,none,October 2010,3194,2010,10,MENTONE,295,206031116
4591,"162 BALCOMBE ROAD, MENTONE",-37.980724,145.061653,3.0,1.0,2,$480_pw,none,October 2010,3194,2010,10,MENTONE,480,207031167
4592,"162 BALCOMBE ROAD, MENTONE",-37.980724,145.061653,3.0,1.0,2,$480,none,October 2010,3194,2010,10,MENTONE,480,208031190
4593,"162 BALCOMBE ROAD, MENTONE",-37.980724,145.061653,3.0,1.0,2,$480_pw,none,May 2010,3194,2010,5,MENTONE,480,208031190
4623,"5/84 LATROBE STREET, MENTONE",-37.974858,145.062925,1.0,1.0,1,$250_per_week,none,July 2010,3194,2010,7,MENTONE,250,213031350
4641,"5/61 MILAN STREET, MENTONE",-37.982911,145.06015,2.0,1.0,1,$350,Rental_residential,December 2010,3194,2010,12,MENTONE,350,208031190
4721,"5/5 STATION STREET, MENTONE",-37.98222351,145.06625366,1.0,1.0,1,$250_pw,Rental_residential,April 2010,3194,2010,4,MENTONE,250,213031348
4741,"15/173 BALCOMBE ROAD, MENTONE",-37.98028,145.055356,1.0,1.0,1,$250,none,October 2010,3194,2010,10,MENTONE,250,208031190
4742,"15/173 BALCOMBE ROAD, MENTONE",-37.98028,145.055356,1.0,1.0,1,$250_pw,none,October 2010,3194,2010,10,MENTONE,250,210051544
4743,"15/173 BALCOMBE ROAD, MENTONE",-37.98028,145.055356,1.0,1.0,1,$250_pw,none,March 2010,3194,2010,3,MENTONE,250,210051544
4781,"18/30 MENTONE PARADE, MENTONE",-37.990008,145.065064,1.0,1.0,1,$250_pw,Rental_residential,March 2010,3194,2010,3,MENTONE,250,208031190
4892,"9/19 FLORENCE STREET, MENTONE",-37.981595,145.060811,2.0,1.0,1,$320_per_week,Unit/apmt,October 2010,3194,2010,10,MENTONE,320,208031190
4939,"11/30 SWANSTON STREET, MENTONE",-37.980014,145.065599,1.0,1.0,1,$220_per_week,Rental_residential,March 2010,3194,2010,3,MENTONE,220,214021383
4962,"5/34 VENICE STREET, MENTONE",-37.986021,145.063734,2.0,1.0,1,$300_per_week,Unit/apmt,September 2010,3194,2010,9,MENTONE,300,213031347
4963,"5/34 VENICE STREET, MENTONE",-37.986021,145.063734,2.0,1.0,1,$300_per_week,Unit/apmt,July 2010,3194,2010,7,MENTONE,300,205031093
5021,"10/30 SWANSTON STREET, MENTONE",-37.978423,145.066382,1.0,1.0,1,$230_per_week,Rental_residential,May 2010,3194,2010,5,MENTONE,230,201011483
5114,"4/41 PATTY STREET, MENTONE",-37.9773015,145.058474,3.0,1.0,1,$435_per_week,Rental_residential,April 2010,3194,2010,4,MENTONE,435,216011408
5273,"2/5 STATION STREET, MENTONE",-37.982224,145.06625,1.0,1.0,1,$240,Unit/apmt,December 2010,3194,2010,12,MENTONE,240,208031190
5274,"2/5 STATION STREET, MENTONE",-37.982224,145.06625,1.0,1.0,1,$240_pw,Unit/apmt,December 2010,3194,2010,12,MENTONE,240,208031190
5329,"7 TEAGUE AVENUE, MENTONE",-37.978533,145.063247,4.0,3.0,4,$475_pw,House,September 2010,3194,2010,9,MENTONE,475,208031190
5330,"7 TEAGUE AVENUE, MENTONE",-37.978533,145.063247,4.0,3.0,4,$600_pw,House,September 2010,3194,2010,9,MENTONE,600,208031190
5359,"15/6 ANDERSON COURT, MENTONE",-37.978794,145.060429,1.0,1.0,1,$245_pw,Rental_residential,December 2010,3194,2010,12,MENTONE,245,208021179
5360,"15/6 ANDERSON COURT, MENTONE",-37.978794,145.060429,1.0,1.0,1,$250,Rental_residential,December 2010,3194,2010,12,MENTONE,250,210011228
5361,"15/6 ANDERSON COURT, MENTONE",-37.978794,145.060429,1.0,1.0,1,$250_pw,Rental_residential,December 2010,3194,2010,12,MENTONE,250,206031116
5362,"15/6 ANDERSON COURT, MENTONE",-37.978794,145.060429,1.0,1.0,1,$250_per_week,Rental_residential,March 2010,3194,2010,3,MENTONE,250,206071518
5591,"21 OLD MENZIES CREEK ROAD, MENZIES CREEK",-37.927259,145.386538,3.0,1.0,2,$310_pw,House,September 2010,3159,2010,9,CREEK,310,211051274
5667,"31 MENZIES ROAD, MENZIES CREEK",-37.921961,145.411728,3.0,1.0,2,$280_p.w.,House,June 2010,3159,2010,6,CREEK,280,211051274
5668,"31 MENZIES ROAD, MENZIES CREEK",-37.921961,145.411728,3.0,1.0,2,$280,House,June 2010,3159,2010,6,CREEK,280,212031561
5669,"31 MENZIES ROAD, MENZIES CREEK",-37.921961,145.411728,3.0,1.0,2,$280_pw,House,June 2010,3159,2010,6,CREEK,280,207011521
5677,"14 BLACKHILL ROAD, MENZIES CREEK",-37.913803,145.398344,4.0,2.0,4,$350,House,October 2010,3159,2010,10,CREEK,350,214011371
5713,"125C SEVENTH STREET, MERBEIN SOUTH",-34.2045981,142.0387241,4.0,2.0,2,$270_pw,House,September 2010,3505,2010,9,SOUTH,270,215021396
5716,"216 SHEOAK AVENUE, MERBEIN SOUTH",-34.243444,142.063989,3.0,1.0,2,$155_per_week,House,April 2010,3505,2010,4,SOUTH,155,215021398
5846,"94 CHAFFEY STREET, MERBEIN",-34.1677452,142.0692196,3.0,1.0,2,$220_per_week,House,August 2010,3505,2010,8,MERBEIN,220,215021396
6019,"32 LINCOLN STREET MERLYNSTON, MERLYNSTON",-37.7214266,144.9614409,3.0,2.0,0,$1216_p.w.,House,January 2010,3058,2010,1,MERLYNSTON,1216,209031209
6092,"11 GREIG DRIVE, MERNDA",-37.589777,145.099407,4.0,2.0,2,$480,none,October 2010,3754,2010,10,MERNDA,480,209041531
6143,"33 SUNNYBRAE DRIVE, MERNDA",-37.609549,145.083906,4.0,2.0,2,$320_p.w.,House,April 2010,3754,2010,4,MERNDA,320,209041532
6204,"10 HOPKINS STREET, MERNDA",-37.61316,145.094706,3.0,2.0,2,$320_p.w.,House,July 2010,3754,2010,7,MERNDA,320,209041532
6205,"10 HOPKINS STREET, MERNDA",-37.61316,145.094706,3.0,2.0,2,$320_pw,House,July 2010,3754,2010,7,MERNDA,320,206031113
6206,"10 HOPKINS STREET, MERNDA",-37.61316,145.094706,3.0,2.0,2,$330_per_week,House,May 2010,3754,2010,5,MERNDA,330,209041532
6235,"3 GELLIBRAND WALK, MERNDA",-37.613174,145.093796,3.0,1.0,2,$320_per_week,Townhouse,October 2010,3754,2010,10,MERNDA,320,209041532
6399,"60 PALMERS HILL ROAD, MERRICKS BEACH",-38.396368,145.101955,4.0,2.0,2,$1200_Weekly,none,April 2010,3926,2010,4,BEACH,1200,209011200
6485,"178 WAVERLEY AVENUE, MERRIGUM",-36.36638,145.131589,3.0,1.0,2,$160,House,December 2010,3618,2010,12,MERRIGUM,160,216031419
6486,"178 WAVERLEY AVENUE, MERRIGUM",-36.36638,145.131589,3.0,1.0,2,$160_pw,House,December 2010,3618,2010,12,MERRIGUM,160,207031163
6487,"178 WAVERLEY AVENUE, MERRIGUM",-36.36638,145.131589,3.0,1.0,2,$160_per_week,House,July 2010,3618,2010,7,MERRIGUM,160,216031419
6488,"178 WAVERLEY AVENUE, MERRIGUM",-36.36638,145.131589,3.0,1.0,2,$160_per_week,House,June 2010,3618,2010,6,MERRIGUM,160,216031419
6489,"178 WAVERLEY AVENUE, MERRIGUM",-36.36638,145.131589,3.0,1.0,2,$160_per_week,House,March 2010,3618,2010,3,MERRIGUM,160,216031419
6492,"380 ANDREWS ROAD, MERRIGUM",-36.37244,145.117317,3.0,1.0,1,$150_per_week,House,June 2010,3618,2010,6,MERRIGUM,150,213021344
6493,"665 BYRNESIDE RD, MERRIGUM",-36.3898353,145.1319465,3.0,2.0,3,$180_per_week,none,January 2010,3618,2010,1,MERRIGUM,180,212041565
6881,"1670 HEATHCOTE-REDESDALE ROAD, MIA MIA",-37.0007095,144.5707348,3.0,2.0,0,$240_pw,House,January 2010,3444,2010,1,MIA,240,202021029
7035,"211 RICHARDSON STREET, MIDDLE PARK",-37.849191,144.96162,3.0,2.0,0,$850_per_week,none,January 2010,3206,2010,1,PARK,850,206051128
7055,"6/28 PATTERSON STREET, MIDDLE PARK",-37.854557,144.964909,2.0,2.0,1,$320_pw,Rental_residential,July 2010,3206,2010,7,PARK,320,213011339
7141,"64/189 BEACONSFIELD PARADE, MIDDLE PARK",-37.851526,144.956867,1.0,1.0,1,$375_pw,none,January 2010,3206,2010,1,PARK,375,206051128
7153,"5/28 PATTERSON STREET, MIDDLE PARK",-37.854557,144.964909,1.0,1.0,1,$270_pw,Rental_residential,May 2010,3206,2010,5,PARK,270,206051128
7162,"20 NIMMO STREET, MIDDLE PARK",-37.849433,144.962482,3.0,1.0,0,$525_per_week,House,November 2010,3206,2010,11,PARK,525,206051128
7169,"112 NEVILLE STREET, MIDDLE PARK",-37.850954,144.962638,3.0,2.0,0,$430_pw,Townhouse,February 2010,3206,2010,2,PARK,430,214011373
7178,"209 ASHWORTH STREET, MIDDLE PARK",-37.854827,144.964899,2.0,1.0,1,$495,Townhouse,October 2010,3206,2010,10,PARK,495,202021028
7179,"209 ASHWORTH STREET, MIDDLE PARK",-37.854827,144.964899,2.0,1.0,1,$495_pw,Townhouse,October 2010,3206,2010,10,PARK,495,202021028
7180,"209 ASHWORTH STREET, MIDDLE PARK",-37.854827,144.964899,2.0,1.0,1,$495_pw,Townhouse,June 2010,3206,2010,6,PARK,495,214011373
7181,"209 ASHWORTH STREET, MIDDLE PARK",-37.854827,144.964899,2.0,1.0,1,$500_pw,Townhouse,June 2010,3206,2010,6,PARK,500,206051128
7202,"172 CANTERBURY ROAD, MIDDLE PARK",-37.853158,144.969079,2.0,1.0,0,$395_per_week,House,March 2010,3206,2010,3,PARK,395,206031113
7219,"6/5-7 HAROLD STREET, MIDDLE PARK",-37.848481,144.961645,1.0,1.0,1,$375_per_week,Unit/apmt,November 2010,3206,2010,11,PARK,375,216031416
7220,"6/5-7 HAROLD STREET, MIDDLE PARK",-37.848481,144.961645,1.0,1.0,1,$360_per_week,Unit/apmt,May 2010,3206,2010,5,PARK,360,216031416
7221,"6/5-7 HAROLD STREET, MIDDLE PARK",-37.848481,144.961645,1.0,1.0,1,$360_per_week,Unit/apmt,April 2010,3206,2010,4,PARK,360,205031093
7274,"6/187 BEACONSFIELD PARADE, MIDDLE PARK",-37.851255,144.956318,1.0,1.0,1,$325_pw,Unit/apmt,August 2010,3206,2010,8,PARK,325,206051128
7275,"6/187 BEACONSFIELD PARADE, MIDDLE PARK",-37.851255,144.956318,1.0,1.0,1,$325_pw,Unit/apmt,July 2010,3206,2010,7,PARK,325,206051128
7304,"141 RICHARDSON STREET, MIDDLE PARK",-37.847393,144.958163,3.0,1.0,3,$680_pw,House,March 2010,3206,2010,3,PARK,680,206051128
7305,"141 RICHARDSON STREET, MIDDLE PARK",-37.847393,144.958163,3.0,1.0,3,$720_pw,House,March 2010,3206,2010,3,PARK,720,206051128
7306,"141 RICHARDSON STREET, MIDDLE PARK",-37.847393,144.958163,3.0,1.0,3,$720_pw,House,February 2010,3206,2010,2,PARK,720,207011148
7331,"23 NIMMO STREET, MIDDLE PARK",-37.849595,144.963,3.0,2.0,1,$1250_pw,Rental_residential,May 2010,3206,2010,5,PARK,1250,206051128
7333,"70 HAMBLETON STREET, MIDDLE PARK",-37.846848,144.959062,3.0,2.0,0,$775_per_week,Rental_residential,February 2010,3206,2010,2,PARK,775,206051128
7344,"9/200 BEACONSFIELD PARADE, MIDDLE PARK",-37.851917,144.957617,2.0,1.0,1,$330_per_week,Rental_residential,February 2010,3206,2010,2,PARK,330,214011373
7349,"1/61 CANTERBURY ROAD, MIDDLE PARK",-37.847396,144.962504,2.0,1.0,0,$330,Rental_residential,December 2010,3206,2010,12,PARK,330,206051128
7350,"1/61 CANTERBURY ROAD, MIDDLE PARK",-37.847396,144.962504,2.0,1.0,0,$375_pw,Rental_residential,November 2010,3206,2010,11,PARK,375,210021234
7367,"14/72-76 PATTERSON STREET, MIDDLE PARK",-37.855462,144.966635,1.0,1.0,1,$280,Unit/apmt,February 2010,3206,2010,2,PARK,280,206051128
7368,"14/72-76 PATTERSON STREET, MIDDLE PARK",-37.855462,144.966635,1.0,1.0,1,$280_pw,Unit/apmt,February 2010,3206,2010,2,PARK,280,206061138
7385,"94/195 BEACONSFIELD PARADE, MIDDLE PARK",-37.851704,144.957316,1.0,1.0,1,$365_per_week,Unit,June 2010,3206,2010,6,PARK,365,206071140
7402,"3/227 PAGE STREET, MIDDLE PARK",-37.851964,144.964015,1.0,1.0,1,$275_per_week,Unit,July 2010,3206,2010,7,PARK,275,206051128
7451,"250 RICHARDSON STREET, MIDDLE PARK",-37.849735,144.961712,2.0,1.0,0,$665_pw,House,August 2010,3206,2010,8,PARK,665,216031594
7452,"250 RICHARDSON STREET, MIDDLE PARK",-37.849735,144.961712,2.0,1.0,0,$665_pw,House,July 2010,3206,2010,7,PARK,665,213011339
7453,"250 RICHARDSON STREET, MIDDLE PARK",-37.849735,144.961712,2.0,1.0,0,$680_pw,House,July 2010,3206,2010,7,PARK,680,206051128
7470,"23 WRIGHT STREET, MIDDLE PARK",-37.84669,144.96075,3.0,3.0,1,$470_pw,none,November 2010,3206,2010,11,PARK,470,206051128
7498,"84 NEVILLE STREET, MIDDLE PARK",-37.84998,144.960921,2.0,1.0,0,$570,none,December 2010,3206,2010,12,PARK,570,206051128
7543,"158 NEVILLE STREET, MIDDLE PARK",-37.852742,144.965721,2.0,1.0,0,$500,Rental_residential,January 2010,3206,2010,1,PARK,500,206051128
7575,"204 RICHARDSON STREET, MIDDLE PARK",-37.848215,144.958765,2.0,1.0,1,$690_pw,Rental_residential,January 2010,3206,2010,1,PARK,690,206051128
7587,"133 ASHWORTH STREET, MIDDLE PARK",-37.851168,144.957581,3.0,2.0,1,$760_per_week,Rental_residential,February 2010,3206,2010,2,PARK,760,206051128
7616,"42 PARK ROAD, MIDDLE PARK",-37.853968,144.966267,2.0,1.0,1,$565_pw,Rental_residential,December 2010,3206,2010,12,PARK,565,206051128
7617,"42 PARK ROAD, MIDDLE PARK",-37.853968,144.966267,2.0,1.0,1,$565_pw,Rental_residential,November 2010,3206,2010,11,PARK,565,206051128
7667,"3/225 BEACONSFIELD PARADE, MIDDLE PARK",-37.85359,144.960535,2.0,2.0,1,$550_per_week,none,July 2010,3206,2010,7,PARK,550,213021342
7668,"3/225 BEACONSFIELD PARADE, MIDDLE PARK",-37.85359,144.960535,2.0,2.0,1,$550_per_week,none,June 2010,3206,2010,6,PARK,550,206051128
7669,"3/225 BEACONSFIELD PARADE, MIDDLE PARK",-37.85359,144.960535,2.0,2.0,1,$595_per_week,none,May 2010,3206,2010,5,PARK,595,206051128
7746,"6/109 CANTERBURY ROAD, MIDDLE PARK",-37.850255,144.965376,2.0,2.0,2,$525_pw,Rental_residential,March 2010,3206,2010,3,PARK,525,206051128
7750,"25/109 NIMMO STREET, MIDDLE PARK",-37.852473,144.960602,1.0,1.0,0,$355_per_week,none,August 2010,3206,2010,8,PARK,355,206061138
7780,"6/307 RICHARDSON STREET, MIDDLE PARK",-37.852239,144.966849,1.0,1.0,1,$395_per_week,Rental_residential,June 2010,3206,2010,6,PARK,395,208011173
7937,"4/72 PATTERSON STREET, MIDDLE PARK",-37.85546112,144.96662903,1.0,1.0,1,$270_per_week,Rental_residential,June 2010,3206,2010,6,PARK,270,206051128
7938,"4/72 PATTERSON STREET, MIDDLE PARK",-37.85546112,144.96662903,1.0,1.0,1,$270_per_week,Rental_residential,May 2010,3206,2010,5,PARK,270,206061138
7954,"3/109 NIMMO STREET, MIDDLE PARK",-37.852473,144.960602,2.0,1.0,0,$420_pw,Available Now,May 2010,3206,2010,5,PARK,420,206051128
7988,"3/51 NIMMO STREET, MIDDLE PARK",-37.850501,144.962039,2.0,1.0,1,$430_per_week,none,March 2010,3206,2010,3,PARK,430,206051128
8006,"3/264 BEACONSFIELD PARADE, MIDDLE PARK",-37.854301,144.962586,2.0,1.0,1,$400_pw,Unit/apmt,May 2010,3206,2010,5,PARK,400,206051128
8018,"11/28 PARK ROAD, MIDDLE PARK",-37.853567,144.965505,1.0,1.0,1,$325_per_week,Rental_residential,January 2010,3206,2010,1,PARK,325,206051129
8033,"10/72 PATTERSON STREET, MIDDLE PARK",-37.855462,144.966635,1.0,1.0,1,$300_pw,none,November 2010,3206,2010,11,PARK,300,206051128
8081,"201 ASHWORTH STREET, MIDDLE PARK",-37.854728,144.964601,3.0,1.0,0,$620_pw,Townhouse,April 2010,3206,2010,4,PARK,620,206051128
8093,"10 ERSKINE STREET, MIDDLE PARK",-37.847135,144.958428,3.0,1.0,1,$720_pw,House,January 2010,3206,2010,1,PARK,720,211011447
8103,"98 HAROLD STREET, MIDDLE PARK",-37.851294,144.958635,2.0,1.0,0,$615_per_week,House,October 2010,3206,2010,10,PARK,615,206051128
8134,"12/225 BEACONSFIELD PARADE, MIDDLE PARK",-37.85359,144.960535,2.0,2.0,1,$495_pw,Rental_residential,March 2010,3206,2010,3,PARK,495,206051128
8165,"3/41 PARK ROAD, MIDDLE PARK",-37.853422,144.966241,2.0,2.0,2,$600_pw,Rental_residential,February 2010,3206,2010,2,PARK,600,206051128
8205,"230 RICHARDSON STREET, MIDDLE PARK",-37.848858,144.960031,2.0,1.0,0,$820_pw,Rental_residential,October 2010,3206,2010,10,PARK,820,201021011
8206,"230 RICHARDSON STREET, MIDDLE PARK",-37.848858,144.960031,2.0,1.0,0,$820,Rental_residential,October 2010,3206,2010,10,PARK,820,208041195
8215,"5/187 BEACONSFIELD PARADE, MIDDLE PARK",-37.851255,144.956318,1.0,1.0,1,$395_per_week,none,March 2010,3206,2010,3,PARK,395,206061138
8336,"86 HERBERT STREET, MIDDLE PARK",-37.846125,144.960391,4.0,2.0,0,$1200_per_week,House,August 2010,3206,2010,8,PARK,1200,206051128
8337,"86 HERBERT STREET, MIDDLE PARK",-37.846125,144.960391,4.0,2.0,0,$1200,House,August 2010,3206,2010,8,PARK,1200,206051128
8376,"2/227 PAGE STREET, MIDDLE PARK",-37.851964,144.964015,1.0,1.0,1,$265_per_week,Unit/apmt,June 2010,3206,2010,6,PARK,265,211031268
8389,"129 NEVILLE STREET, MIDDLE PARK",-37.851477,144.964237,3.0,2.0,1,$675_pw,House,July 2010,3206,2010,7,PARK,675,206051128
8403,"301 RICHARDSON STREET, MIDDLE PARK",-37.852055,144.966626,3.0,2.0,1,$950_pw,House,January 2010,3206,2010,1,PARK,950,206051128
8447,"368 DANKS STREET, MIDDLE PARK",-37.852826,144.961684,2.0,1.0,0,$560_per_week,House,April 2010,3206,2010,4,PARK,560,206051128
8478,"3 WRIGHT STREET, MIDDLE PARK",-37.846193,144.961173,2.0,1.0,1,$395_pw,House,June 2010,3206,2010,6,PARK,395,206051128
8496,"3/82 PATTERSON STREET, MIDDLE PARK",-37.85563278,144.9669342,2.0,1.0,0,$360_per_week,Unit/apmt,January 2010,3206,2010,1,PARK,360,206061138
8518,"85A CARTER STREET, MIDDLE PARK",-37.84694,144.961375,2.0,1.0,0,$435,House,October 2010,3206,2010,10,PARK,435,206051128
8519,"85A CARTER STREET, MIDDLE PARK",-37.84694,144.961375,2.0,1.0,0,$435_pw,House,October 2010,3206,2010,10,PARK,435,206051128
8592,"421 MILAWA-BOBINAWARRAH ROAD, MILAWA",-36.4773873,146.4266275,4.0,2.0,2,$300_per_week,Residential,October 2010,3678,2010,10,MILAWA,300,209011198
8606,"5/7 MILAWA- BOBINAWARRAH ROAD, MILAWA",-36.4759144,146.4268577,2.0,1.0,2,$200_per_week,none,October 2010,3678,2010,10,MILAWA,200,204021067
8607,"5/7 MILAWA- BOBINAWARRAH ROAD, MILAWA",-36.4759144,146.4268577,2.0,1.0,2,$200_per_week,none,November 2010,3678,2010,11,MILAWA,200,204021067
8624,"4A THIRTEENTH STREET, MILDURA EAST",-34.200116,142.163296,1.0,1.0,0,$120_pw,none,July 2010,3500,2010,7,EAST,120,215021469
8626,"4 THIRTEENTH STREET, MILDURA EAST",-34.200116,142.163296,3.0,1.0,2,$190,House,September 2010,3500,2010,9,EAST,190,215021469
8627,"4 THIRTEENTH STREET, MILDURA EAST",-34.200116,142.163296,3.0,1.0,2,$190_p.w.,House,September 2010,3500,2010,9,EAST,190,215021469
8628,"4 THIRTEENTH STREET, MILDURA EAST",-34.200116,142.163296,3.0,1.0,2,$190_pw,House,July 2010,3500,2010,7,EAST,190,214011371
8632,"76 SAN MATEO AVENUE, MILDURA EAST",-34.190319,142.166762,3.0,1.0,2,$245_p.w.,House,August 2010,3500,2010,8,EAST,245,215021469
8633,"76 SAN MATEO AVENUE, MILDURA EAST",-34.190319,142.166762,3.0,1.0,2,$245_pw,House,August 2010,3500,2010,8,EAST,245,215021469
8634,"76 SAN MATEO AVENUE, MILDURA EAST",-34.190319,142.166762,3.0,1.0,2,$245,House,August 2010,3500,2010,8,EAST,245,215021469
8639,"187 WHITECLIFF AVENUE, MILDURA SOUTH",-34.241984,142.071341,4.0,2.0,2,$290_pw,House,November 2010,3500,2010,11,SOUTH,290,215021398
8650,"4 SEBASTIAN COURT, MILDURA WEST",-34.1923564,142.1354569,3.0,1.0,2,$240_p.w.,House,December 2010,3500,2010,12,WEST,240,217041477
8651,"4 SEBASTIAN COURT, MILDURA WEST",-34.1923564,142.1354569,3.0,1.0,2,$240,House,December 2010,3500,2010,12,WEST,240,215021470
8654,"1/322 EIGHTH STREET, MILDURA WEST",-34.170162,142.144736,2.0,1.0,1,$160_pw,Unit/apmt,November 2010,3500,2010,11,WEST,160,215021469
8660,"5/2 CAMERON AVENUE, MILDURA WEST",-34.181651,142.151354,2.0,1.0,1,$150_pw,Unit/apmt,October 2010,3500,2010,10,WEST,150,215021469
8667,"32 JUDE AVENUE, MILDURA WEST",-34.177624,142.147733,3.0,1.0,2,$210_pw,House,October 2010,3500,2010,10,WEST,210,215021469
8721,"3 MATOTEK COURT, MILDURA",-34.203513,142.138114,3.0,2.0,2,$270_per_week,House,September 2010,3500,2010,9,MILDURA,270,213021343
8722,"3 MATOTEK COURT, MILDURA",-34.203513,142.138114,3.0,2.0,2,$270_per_week,House,August 2010,3500,2010,8,MILDURA,270,215021470
8797,"1/32 PLANTATION STREET, MILDURA",-34.203585,142.136346,2.0,1.0,2,$200_per_week,House,July 2010,3500,2010,7,MILDURA,200,215021470
8860,"11 MATOTEK COURT, MILDURA",-34.203588,142.138517,4.0,2.0,2,$270_per_week,House,November 2010,3500,2010,11,MILDURA,270,215021470
8861,"11 MATOTEK COURT, MILDURA",-34.203588,142.138517,4.0,2.0,2,$250_per_week,House,November 2010,3500,2010,11,MILDURA,250,215021470
8895,"4/2 CAMERON AVENUE, MILDURA",-34.182067,142.150982,2.0,1.0,1,$140_pw,Unit,January 2010,3500,2010,1,MILDURA,140,206051129
8955,"14 TARELLA COURT, MILDURA",-34.168144,142.151057,3.0,1.0,4,$215_Weekly,Rental_residential,May 2010,3500,2010,5,MILDURA,215,215021469
9080,"176 WALNUT AVENUE, MILDURA",-34.186143,142.151655,3.0,2.0,1,$270_per_week,none,July 2010,3500,2010,7,MILDURA,270,206021499
9081,"176 WALNUT AVENUE, MILDURA",-34.186143,142.151655,3.0,2.0,1,$260_per_week,none,March 2010,3500,2010,3,MILDURA,260,206021499
9100,"4/124 THIRTEENTH STREET, MILDURA",-34.192858,142.154618,2.0,1.0,2,$140_per_week,Rental_residential,May 2010,3500,2010,5,MILDURA,140,208041194
9114,"108 LEMON AVENUE, MILDURA",-34.190139,142.163171,2.0,1.0,2,$205_pw,House,November 2010,3500,2010,11,MILDURA,205,206021499
9181,"2/3 EILEEN STREET, MILDURA",-34.206123,142.138747,2.0,1.0,1,$135,none,April 2010,3500,2010,4,MILDURA,135,208011173
9182,"2/3 EILEEN STREET, MILDURA",-34.206123,142.138747,2.0,1.0,1,$135_per_week,none,March 2010,3500,2010,3,MILDURA,135,208011173
9309,"4 PLANT COURT, MILDURA",-34.204522,142.137103,3.0,2.0,2,$270_pw,none,April 2010,3500,2010,4,MILDURA,270,206051129
9325,"12/280 TENTH STREET, MILDURA",-34.17703,142.146402,2.0,1.0,1,$175_per_week,Rental_residential,October 2010,3500,2010,10,MILDURA,175,214011371
9369,"9 MARY AVENUE, MILDURA",-34.199547,142.150833,3.0,2.0,1,$220_per_week,House,August 2010,3500,2010,8,MILDURA,220,215021469
9398,"138 LEMON AVENUE, MILDURA",-34.191289,142.161779,3.0,1.0,3,$210_per_week,House,September 2010,3500,2010,9,MILDURA,210,208011173
9421,"3/231 TWELFTH STREET, MILDURA",-34.183034,142.145706,3.0,1.0,1,$210_per_week,Unit/apmt,September 2010,3500,2010,9,MILDURA,210,215021469
9520,"134 ORANGE AVENUE, MILDURA",-34.190324,142.160935,3.0,2.0,2,$185_per_week,none,September 2010,3500,2010,9,MILDURA,185,215021469
9522,"4/529 WALNUT AVENUE, MILDURA",-34.206973,142.125127,3.0,2.0,2,$280_per_week,House,July 2010,3500,2010,7,MILDURA,280,215021470
9679,"2/76 RIVERSIDE AVENUE, MILDURA",-34.173419,142.147368,2.0,1.0,1,$160_per_week,Unit/apmt,August 2010,3500,2010,8,MILDURA,160,215021469
9932,"4/225 WOODHAM AVENUE, MILDURA",-34.193944,142.153472,2.0,1.0,1,$140,House,April 2010,3500,2010,4,MILDURA,140,213031350
9933,"4/225 WOODHAM AVENUE, MILDURA",-34.193944,142.153472,2.0,1.0,1,$145_per_week,House,March 2010,3500,2010,3,MILDURA,145,213031350
9960,"15/257 NINTH STREET, MILDURA",-34.175816,142.147684,3.0,1.0,2,$215_per_week,Townhouse,August 2010,3500,2010,8,MILDURA,215,215021469
9991,"8/9 LISA CRESCENT, MILDURA",-34.2050407,142.1624201,2.0,1.0,2,$195_per_week,Unit/apmt,July 2010,3500,2010,7,MILDURA,195,215021469
10169,"3/43 OLIVE AVENUE, MILDURA",-34.181349,142.158548,2.0,1.0,1,$225,House,July 2010,3500,2010,7,MILDURA,225,215021469
10170,"3/43 OLIVE AVENUE, MILDURA",-34.181349,142.158548,2.0,1.0,1,$225_per_week,House,April 2010,3500,2010,4,MILDURA,225,208021176
10318,"3 WANERA WAY, MILDURA",-34.169908,142.15599,4.0,1.0,2,$290_per_week,House,May 2010,3500,2010,5,MILDURA,290,215021469
10386,"3/40 SEVENTH STREET, MILDURA",-34.191628,142.173681,2.0,1.0,1,$160_Weekly,Unit/apmt,August 2010,3500,2010,8,MILDURA,160,207031161
10411,"3/471 WALNUT AVENUE, MILDURA",-34.204117,142.12893,3.0,1.0,1,$175_Weekly,House,December 2010,3500,2010,12,MILDURA,175,215021470
10417,"53 MAGNOLIA AVENUE, MILDURA",-34.188759,142.166144,4.0,2.0,2,$180_pw,House,December 2010,3500,2010,12,MILDURA,180,215021469
10470,"19/313 EIGHTH STREET, MILDURA",-34.172404,142.14619,2.0,1.0,1,$200_pw,Townhouse,February 2010,3500,2010,2,MILDURA,200,206071143
10497,"20 WALNUT AVENUE, MILDURA",-34.179726,142.159426,3.0,2.0,2,$180,House,May 2010,3500,2010,5,MILDURA,180,211031266
10509,"2/59 ONTARIO AVENUE, MILDURA",-34.174093,142.155371,2.0,1.0,1,$150_per_week,Unit/apmt,February 2010,3500,2010,2,MILDURA,150,213021341
10598,"1/265 TWELFTH STREET, MILDURA",-34.180731,142.142929,2.0,2.0,1,$210_pw,Rental_residential,June 2010,3500,2010,6,MILDURA,210,215021469
10642,"4/300 DEAKIN AVENUE, MILDURA",-34.198691,142.147172,3.0,1.0,1,$210,Unit/apmt,October 2010,3500,2010,10,MILDURA,210,215021470
10643,"4/300 DEAKIN AVENUE, MILDURA",-34.198691,142.147172,3.0,1.0,1,$210_per_week,Unit/apmt,August 2010,3500,2010,8,MILDURA,210,215021470
10764,"2/5 JOHN MONASH BOULEVARD, MILDURA",-34.20825,142.125652,3.0,2.0,2,$270_per_week,Townhouse,January 2010,3500,2010,1,MILDURA,270,211011254
10845,"76 MAGNOLIA AVENUE, MILDURA",-34.189603,142.165831,4.0,2.0,2,$170,House,December 2010,3500,2010,12,MILDURA,170,215021469
10846,"76 MAGNOLIA AVENUE, MILDURA",-34.189603,142.165831,4.0,2.0,2,$170_per_week,House,November 2010,3500,2010,11,MILDURA,170,215021469
10861,"1 HOMEBUSH COURT, MILDURA",-34.193428,142.135766,2.0,1.0,1,$200_per_week,none,July 2010,3500,2010,7,MILDURA,200,215021470
10862,"1 HOMEBUSH COURT, MILDURA",-34.193428,142.135766,2.0,1.0,1,$200,none,July 2010,3500,2010,7,MILDURA,200,215021470
10916,"2/482 WALNUT AVENUE, MILDURA",-34.205697,142.128552,2.0,1.0,2,$220_per_week,none,October 2010,3500,2010,10,MILDURA,220,215021470
10982,"259 WADE AVENUE, MILDURA",-34.197034,142.152382,4.0,2.0,2,$250,House,December 2010,3500,2010,12,MILDURA,250,213021341
10983,"259 WADE AVENUE, MILDURA",-34.197034,142.152382,4.0,2.0,2,$250_per_week,House,December 2010,3500,2010,12,MILDURA,250,215021469
10984,"259 WADE AVENUE, MILDURA",-34.197034,142.152382,4.0,2.0,2,$260_per_week,House,February 2010,3500,2010,2,MILDURA,260,215021469
10985,"259 WADE AVENUE, MILDURA",-34.197034,142.152382,4.0,2.0,2,$260,House,February 2010,3500,2010,2,MILDURA,260,215021469
11003,"2/250 SEVENTH STREET, MILDURA",-34.17455292,142.15359497,2.0,1.0,1,$155_per_week,Unit/apmt,December 2010,3500,2010,12,MILDURA,155,215021469
11040,"306 DEAKIN AVENUE, MILDURA",-34.1987346,142.1464103,3.0,1.0,1,$220_pw,Rental_residential,May 2010,3500,2010,5,MILDURA,220,215021470
11119,"2/367 DEAKIN AVENUE, MILDURA",-34.201056,142.142727,2.0,1.0,1,$160_per_week,none,July 2010,3500,2010,7,MILDURA,160,208031188
11282,"4 BURNETT COURT, MILL PARK",-37.659915,145.062071,3.0,2.0,1,$310_pw,none,April 2010,3082,2010,4,PARK,310,209041220
11283,"4 BURNETT COURT, MILL PARK",-37.659915,145.062071,3.0,2.0,1,$320_Weekly,none,March 2010,3082,2010,3,PARK,320,209041220
11363,"5 MELROSE PLACE, MILL PARK",-37.675923,145.059505,4.0,1.0,3,$360_p.w.,none,September 2010,3082,2010,9,PARK,360,209041221
11364,"5 MELROSE PLACE, MILL PARK",-37.675923,145.059505,4.0,1.0,3,$360,none,September 2010,3082,2010,9,PARK,360,209041221
11499,"6/1 MORANG DRIVE, MILL PARK",-37.661425,145.053371,3.0,2.0,1,$340_per_week,Townhouse,October 2010,3082,2010,10,PARK,340,203021042
11531,"1/2 BELBIN COURT, MILL PARK",-37.660624,145.040083,3.0,1.0,2,$300_per_week,none,December 2010,3082,2010,12,PARK,300,206071142
11620,"7 POSEIDON CLOSE, MILL PARK",-37.672673,145.063251,6.0,3.0,2,$375_per_week,House,December 2010,3082,2010,12,PARK,375,209041221
11719,"7 CONIFER CLOSE, MILL PARK",-37.674342,145.053191,3.0,2.0,2,$350_per_week,House,December 2010,3082,2010,12,PARK,350,209041221
11841,"235 BETULA AVENUE, MILL PARK",-37.675571,145.058318,3.0,1.0,2,$350_per_week,House,December 2010,3082,2010,12,PARK,350,209041221
11842,"235 BETULA AVENUE, MILL PARK",-37.675571,145.058318,3.0,1.0,2,$350,House,December 2010,3082,2010,12,PARK,350,209041221
11854,"41 ESTER DRIVE, MILL PARK",-37.65631,145.041829,3.0,2.0,2,$360_Weekly,House,January 2010,3082,2010,1,PARK,360,208031188
11855,"41 ESTER DRIVE, MILL PARK",-37.65631,145.041829,3.0,2.0,2,$360_pw,House,January 2010,3082,2010,1,PARK,360,209041220
12195,"5 CARBON CRESCENT, MILL PARK",-37.662395,145.0382,3.0,2.0,2,$370_p.w.,House,August 2010,3082,2010,8,PARK,370,209041221
12196,"5 CARBON CRESCENT, MILL PARK",-37.662395,145.0382,3.0,2.0,2,$370_pw,House,August 2010,3082,2010,8,PARK,370,209041221
12197,"78 CENTENARY DRIVE, MILL PARK",-37.658322,145.068755,3.0,2.0,2,$310,House,November 2010,3082,2010,11,PARK,310,209041220
12198,"78 CENTENARY DRIVE, MILL PARK",-37.658322,145.068755,3.0,2.0,2,$310_p.w.,House,November 2010,3082,2010,11,PARK,310,209041220
12199,"78 CENTENARY DRIVE, MILL PARK",-37.658322,145.068755,3.0,2.0,2,$310_pw,House,November 2010,3082,2010,11,PARK,310,209041220
12200,"78 CENTENARY DRIVE, MILL PARK",-37.658322,145.068755,3.0,2.0,2,$310_pw,House,October 2010,3082,2010,10,PARK,310,209041220
12201,"78 CENTENARY DRIVE, MILL PARK",-37.658322,145.068755,3.0,2.0,2,$310,House,October 2010,3082,2010,10,PARK,310,209041220
