,Unnamed: 0,Unnamed: 0.2,Unnamed: 0.1,address,latitude,longitude,nbed,nbath,ncar,price,type,historical_dates,postcode,year,month,suburb,weekly_rent,residence_type,SA2_CODE
0,0,0,0,"108 ADELAIDE STREET, CHEWTON",-37.093186,144.254132,2.0,1.0,2,$250_pw,Residential Lease,October 2010,3451,2010,10,CHEWTON,250,Other,202021027
1,1,1,1,"224 MAIN ROAD, CHEWTON",-37.0800585,144.2635775,1.0,1.0,0,$200_pw,House,January 2010,3451,2010,1,CHEWTON,200,House,202021027
2,2,2,2,"12 FRYERS ROAD, CHEWTON",-37.082726,144.256496,3.0,1.0,1,$220_pw,House,May 2010,3451,2010,5,CHEWTON,220,House,202021027
5,5,5,5,"1/31 COUNTRY CLUB DRIVE, CHIRNSIDE PARK",-37.756332,145.325246,3.0,1.0,1,$320_pw,House,March 2010,3116,2010,3,PARK,320,House,211051275
6,6,6,6,"5 YARRARIDGE DRIVE, CHIRNSIDE PARK",-37.757684,145.305604,3.0,1.0,2,$340_pw,House,December 2010,3116,2010,12,PARK,340,House,211051275
7,7,7,7,"55 CHIRNSIDE DRIVE, CHIRNSIDE PARK",-37.754336,145.320414,4.0,2.0,2,$380_pw,House,February 2010,3116,2010,2,PARK,380,House,211051275
8,8,8,8,"56 MUIR ROAD, CHRISTMAS HILLS",-37.657453,145.338221,2.0,1.0,0,$300_per_week,Rental_residential,July 2010,3775,2010,7,HILLS,300,Other,209031212
9,9,9,9,"585 CHUM CREEK ROAD, CHUM CREEK",-37.64491085,145.49757232,3.0,1.0,4,$375_per_week,House,March 2010,3777,2010,3,CREEK,375,House,211051276
10,10,10,10,"15 CURRINGA COURT, CHURCHILL",-38.319109,146.420642,4.0,2.0,2,$300_per_week,none,December 2010,3842,2010,12,CHURCHILL,300,Other,205041094
11,11,11,11,"5 AMAROO DRIVE, CHURCHILL",-38.323465,146.422057,3.0,1.0,1,$200_pw,none,September 2010,3842,2010,9,CHURCHILL,200,Other,205041094
12,12,12,12,"31 DAVANZO AVENUE, CLARINDA",-37.944702,145.105229,3.0,1.0,2,$400,none,April 2010,3169,2010,4,CLARINDA,400,Other,212041309
13,13,13,13,"20 CRAWFORD ROAD, CLARINDA",-37.929396,145.101594,2.0,1.0,1,$290,House,April 2010,3169,2010,4,CLARINDA,290,House,212041309
14,14,14,14,"430 WEBSTERS ROAD, CLARKEFIELD",-37.480097,144.737853,5.0,2.0,4,$380_per_week,House,February 2010,3430,2010,2,CLARKEFIELD,380,House,210021235
15,15,15,15,"600 KONAGADERRA ROAD, CLARKEFIELD",-37.515177,144.783865,3.0,1.0,0,$400_per_week,House,March 2010,3430,2010,3,CLARKEFIELD,400,House,210041240
16,16,16,16,"554 HEATHS LANE, CLARKEFIELD",-37.460714,144.804313,3.0,1.0,2,$250_pw,House,April 2010,3430,2010,4,CLARKEFIELD,250,House,210021235
17,17,17,17,"0 HEATHS LANE, CLARKEFIELD",-37.453903,144.752682,3.0,1.0,0,$230_per_week,none,August 2010,3430,2010,8,CLARKEFIELD,230,Other,210021235
18,18,18,18,"1 GATEHOUSE, BOLINDA VALE, CLARKEFIELD",-37.4487718,144.6856322,3.0,1.0,1,$200_per_week,none,August 2010,3430,2010,8,CLARKEFIELD,200,Other,210021234
19,19,19,19,"COTTAGE/ 1556 MELBOURNE-LANCEFIELD ROAD, CLARKEFIELD",-37.4757072,144.7495857,3.0,1.0,1,$185_per_week,none,March 2010,3430,2010,3,CLARKEFIELD,185,Other,210021235
20,20,20,20,"12 BOTANIC DRIVE, CLAYTON SOUTH",-37.939354,145.13641,3.0,2.0,2,$420,none,January 2010,3169,2010,1,SOUTH,420,Other,212041310
21,21,21,21,"3/44 OAKES AVENUE, CLAYTON SOUTH",-37.935969,145.133936,2.0,1.0,1,$250_Weekly,House,December 2010,3169,2010,12,SOUTH,250,House,212041310
22,22,22,22,"13 SPRING VALLEY DRIVE, CLAYTON SOUTH",-37.947671,145.137097,3.0,2.0,2,$350,House,October 2010,3169,2010,10,SOUTH,350,House,212041310
23,23,23,23,"4/15 OAKES AVENUE, CLAYTON SOUTH",-37.935135,145.129653,3.0,2.0,1,$430,House,January 2010,3169,2010,1,SOUTH,430,House,212041310
24,24,24,24,"1 MELOSA AVENUE, CLAYTON SOUTH",-37.937284,145.114101,3.0,1.0,2,$320_per_week,House,May 2010,3169,2010,5,SOUTH,320,House,212041310
25,25,25,25,"1/60 OAKES AVENUE, CLAYTON SOUTH",-37.93713,145.136159,3.0,2.0,2,$290_p.w.,Townhouse,December 2010,3169,2010,12,SOUTH,290,House,212041310
26,26,26,26,"13 BROWNS ROAD, CLAYTON",-37.920978,145.127558,3.0,1.0,2,$420,House,June 2010,3168,2010,6,CLAYTON,420,House,212051568
27,27,27,27,"5/42 EVELYN STREET, CLAYTON",-37.921181,145.131503,3.0,2.0,2,$350_p.w.,Townhouse,December 2010,3168,2010,12,CLAYTON,350,House,212051568
28,28,28,28,"5/42 EVELYN STREET, CLAYTON",-37.921181,145.131503,3.0,2.0,2,$360,Townhouse,November 2010,3168,2010,11,CLAYTON,360,House,212051568
29,29,29,29,"4/10 PANORAMA STREET, CLAYTON",-37.918065,145.130143,3.0,1.0,1,$380,Townhouse,December 2010,3168,2010,12,CLAYTON,380,House,212051568
30,30,30,30,"30/2 GREENFIELD DRIVE, CLAYTON",-37.923181,145.128623,2.0,1.0,1,$365,Unit,September 2010,3168,2010,9,CLAYTON,365,Apartment,212051568
31,31,31,31,"30/2 GREENFIELD DRIVE, CLAYTON",-37.923181,145.128623,2.0,1.0,1,$390,Unit,March 2010,3168,2010,3,CLAYTON,390,Apartment,212051568
32,32,32,32,"1/34 WELLINGTON ROAD, CLAYTON",-37.915779,145.133915,1.0,1.0,1,$240,Unit,June 2010,3168,2010,6,CLAYTON,240,Apartment,212051567
33,33,33,33,"1/34 WELLINGTON ROAD, CLAYTON",-37.915779,145.133915,1.0,1.0,1,$240,Unit,May 2010,3168,2010,5,CLAYTON,240,Apartment,212051567
34,34,34,34,"1/34 WELLINGTON ROAD, CLAYTON",-37.915779,145.133915,1.0,1.0,1,$240,Unit,March 2010,3168,2010,3,CLAYTON,240,Apartment,212051567
35,35,35,35,"33 ALICE STREET, CLAYTON",-37.917622,145.115287,4.0,2.0,1,$390_Weekly,House,December 2010,3168,2010,12,CLAYTON,390,House,212051568
36,36,36,36,"10/2 MONASH GREEN DRIVE, CLAYTON",-37.918788,145.127626,2.0,1.0,1,$350,Unit,December 2010,3168,2010,12,CLAYTON,350,Apartment,212051568
37,37,37,37,"10/2 MONASH GREEN DRIVE, CLAYTON",-37.918788,145.127626,2.0,1.0,1,$370,Unit,May 2010,3168,2010,5,CLAYTON,370,Apartment,212051568
38,38,38,38,"71 CLAYTON ROAD, CLAYTON",-37.9139021,145.1218545,4.0,2.0,2,$310,House,December 2010,3168,2010,12,CLAYTON,310,House,212051568
39,39,39,39,"1/31 GLENBROOK AVENUE, CLAYTON",-37.909275,145.123752,3.0,1.0,2,$300,House,October 2010,3168,2010,10,CLAYTON,300,House,212051567
40,40,40,40,"1/31 GLENBROOK AVENUE, CLAYTON",-37.909275,145.123752,3.0,1.0,2,$330_per_week,House,September 2010,3168,2010,9,CLAYTON,330,House,212051567
41,41,41,41,"1/31 GLENBROOK AVENUE, CLAYTON",-37.909275,145.123752,3.0,1.0,2,$330,House,August 2010,3168,2010,8,CLAYTON,330,House,212051567
42,42,42,42,"1/31 GLENBROOK AVENUE, CLAYTON",-37.909275,145.123752,3.0,1.0,2,$360_per_week,House,May 2010,3168,2010,5,CLAYTON,360,House,212051567
43,43,43,43,"10 SHADY MEWS, CLAYTON",-37.922472,145.127818,3.0,1.0,1,$400,Townhouse,June 2010,3168,2010,6,CLAYTON,400,House,212051568
44,44,44,44,"10 SHADY MEWS, CLAYTON",-37.922472,145.127818,3.0,1.0,1,$390,Townhouse,June 2010,3168,2010,6,CLAYTON,390,House,212051568
45,45,45,45,"5/645 BLACKBURN ROAD, CLAYTON",-37.917981,145.139598,1.0,1.0,1,$220_p.w.,Unit,July 2010,3168,2010,7,CLAYTON,220,Apartment,212051567
46,46,46,46,"1/13 EVELYN STREET, CLAYTON",-37.918973,145.130798,6.0,2.0,1,$700,House,May 2010,3168,2010,5,CLAYTON,700,House,212051568
47,47,47,47,"1953 DANDENONG ROAD, CLAYTON",-37.91327,145.126079,5.0,4.0,3,$350,Townhouse,January 2010,3168,2010,1,CLAYTON,350,House,212051567
48,48,48,48,"1/67 MADELEINE ROAD, CLAYTON",-37.919718,145.118887,2.0,1.0,1,$310_pw,none,August 2010,3168,2010,8,CLAYTON,310,Other,212051568
49,49,49,49,"4/22 WRIGHT STREET, CLAYTON",-37.922062,145.124729,2.0,1.0,1,$280,House,November 2010,3168,2010,11,CLAYTON,280,House,212051568
50,50,50,50,"3/21 FRANCIS STREET, CLAYTON",-37.924041,145.121709,2.0,1.0,1,$310,none,August 2010,3168,2010,8,CLAYTON,310,Other,212051568
51,51,51,51,"23 BRUSHBOX COURT, CLAYTON",-37.92356953,145.12906235,3.0,1.0,1,$420,Townhouse,December 2010,3168,2010,12,CLAYTON,420,House,212051568
52,52,52,52,"13/9-11 BROWNS ROAD, CLAYTON",-37.918418,145.127927,2.0,1.0,1,$250,House,April 2010,3168,2010,4,CLAYTON,250,House,212051568
53,53,53,53,"9 SHADY MEWS, CLAYTON",-37.922424,145.12782,2.0,1.0,2,$350_per_week,Rental_residential,December 2010,3168,2010,12,CLAYTON,350,Other,212051568
54,54,54,54,"9 SHADY MEWS, CLAYTON",-37.922424,145.12782,2.0,1.0,2,$370,Rental_residential,December 2010,3168,2010,12,CLAYTON,370,Other,212051568
55,55,55,55,"6/1-3 ARNOTT STREET, CLAYTON",-37.916516,145.134721,3.0,1.0,1,$410_pw,none,January 2010,3168,2010,1,CLAYTON,410,Other,212051567
56,56,56,56,"1/31 GLENBROOK AVE, CLAYTON",-37.909189,145.123384,3.0,1.0,2,$300,House,October 2010,3168,2010,10,CLAYTON,300,House,212051567
57,57,57,57,"2B HOURIGAN AVENUE, CLAYTON",-37.917265,145.121913,3.0,2.0,2,$400,Townhouse,January 2010,3168,2010,1,CLAYTON,400,House,212051568
58,58,58,58,"23 MCBEAN STREET, CLAYTON",-37.923718,145.111716,2.0,1.0,2,$350_per_week,Townhouse,December 2010,3168,2010,12,CLAYTON,350,House,212051568
59,59,59,59,"3/1450 NORTH ROAD, CLAYTON",-37.914333,145.120368,2.0,1.0,1,$280_pw,Rental_residential,July 2010,3168,2010,7,CLAYTON,280,Other,212051568
60,60,60,60,"3/1450 NORTH ROAD, CLAYTON",-37.914333,145.120368,2.0,1.0,1,$290_pw,Rental_residential,June 2010,3168,2010,6,CLAYTON,290,Other,212051568
61,61,61,61,"2 BRUSHBOX COURT, CLAYTON",-37.925488,145.119662,3.0,1.0,2,$430,Townhouse,July 2010,3168,2010,7,CLAYTON,430,House,212051568
62,62,62,62,"9/56-58 KANOOKA GROVE, CLAYTON",-37.921688,145.126396,3.0,1.0,1,$400_p.w.,House,December 2010,3168,2010,12,CLAYTON,400,House,212051568
63,63,63,63,"10 VICTOR ROAD, CLEMATIS",-37.929733,145.419864,5.0,2.0,0,$400_per_week,none,September 2010,3782,2010,9,CLEMATIS,400,Other,212011289
64,64,64,64,"6 VICTOR ROAD, CLEMATIS",-37.929987,145.420214,2.0,1.0,1,$300_per_week,none,October 2010,3782,2010,10,CLEMATIS,300,Other,212011289
65,65,65,65,"10 VICTOR RD, CLEMATIS",-37.929733,145.419864,5.0,2.0,0,$400_per_week,House,August 2010,3782,2010,8,CLEMATIS,400,House,212011289
66,66,66,66,"29 FENWICK STREET, CLIFTON HILL",-37.789226,144.999862,2.0,1.0,0,$440_pw,none,January 2010,3068,2010,1,HILL,440,Other,206071145
67,67,67,67,"70 NOONE STREET, CLIFTON HILL",-37.793407,144.992413,2.0,1.0,0,$365_pw,Rental_residential,April 2010,3068,2010,4,HILL,365,Other,206071145
68,68,68,68,"2/57 CAROLINE STREET, CLIFTON HILL",-37.790209,145.00096,1.0,1.0,1,$210_pw,Rental_residential,January 2010,3068,2010,1,HILL,210,Other,206071145
69,69,69,69,"18/14 THE ESPLANADE, CLIFTON HILL",-37.788057,145.005844,1.0,1.0,1,$260_p.w.,Rental_residential,August 2010,3068,2010,8,HILL,260,Other,206071145
70,70,70,70,"205 SPENSLEY STREET, CLIFTON HILL",-37.786573,145.004419,2.0,1.0,1,$495_pw,House,April 2010,3068,2010,4,HILL,495,House,206071145
71,71,71,71,"19 GROOM STREET, CLIFTON HILL",-37.794371,144.998236,2.0,1.0,0,$450_pw,none,January 2010,3068,2010,1,HILL,450,Other,206071145
72,72,72,72,"11 DALLY STREET, CLIFTON HILL",-37.792519,144.999611,2.0,1.0,0,$470_pw,none,November 2010,3068,2010,11,HILL,470,Other,206071145
73,73,73,73,"53 DWYER STREET, CLIFTON HILL",-37.785982,145.001994,2.0,1.0,0,$500_pw,none,March 2010,3068,2010,3,HILL,500,Other,206071145
74,74,74,74,"1 YAMBLA STREET, CLIFTON HILL",-37.792736,145.000619,2.0,1.0,1,$475_pw,none,September 2010,3068,2010,9,HILL,475,Other,206071145
75,75,75,75,"1 YAMBLA STREET, CLIFTON HILL",-37.792736,145.000619,2.0,1.0,1,$475_pw,none,August 2010,3068,2010,8,HILL,475,Other,206071145
76,76,76,76,"40 O GRADY STREET, CLIFTON HILL",-37.786837,144.998903,3.0,1.0,2,$700_pw,Rental_residential,October 2010,3068,2010,10,HILL,700,Other,206071145
77,77,77,77,"16 COUNCIL STREET, CLIFTON HILL",-37.792331,144.986235,2.0,2.0,0,$570_pw,none,September 2010,3068,2010,9,HILL,570,Other,206071145
78,78,78,78,"16/16 THE ESPLANADE, CLIFTON HILL",-37.7879444,145.0061292,1.0,1.0,1,$275_pw,none,June 2010,3068,2010,6,HILL,275,Other,206071145
79,79,79,79,"32 YAMBLA STREET, CLIFTON HILL",-37.791828,145.001142,3.0,2.0,1,$700_pw,House,August 2010,3068,2010,8,HILL,700,House,206071145
80,80,80,80,"32 YAMBLA STREET, CLIFTON HILL",-37.791828,145.001142,3.0,2.0,1,$700_pw,House,July 2010,3068,2010,7,HILL,700,House,206071145
81,81,81,81,"30 WRIGHT STREET, CLIFTON HILL",-37.78906,145.00174,2.0,1.0,1,$500_pw,Rental_residential,January 2010,3068,2010,1,HILL,500,Other,206071145
82,82,82,82,"5/56 JOHN STREET, CLIFTON HILL",-37.78723145,144.99583435,1.0,1.0,1,$345_per_week,none,October 2010,3068,2010,10,HILL,345,Other,206071145
83,83,83,83,"1/211 GOLD STREET, CLIFTON HILL",-37.791306,144.990222,2.0,1.0,1,$395_per_week,none,August 2010,3068,2010,8,HILL,395,Other,206071145
84,84,84,84,"10 LACORRA COURT, CLIFTON SPRINGS",-38.151941,144.576798,4.0,2.0,1,$295_pw,Rental_residential,December 2010,3222,2010,12,SPRINGS,295,Other,203031048
85,85,85,85,"10 ALBERT STREET, CLUNES",-37.287198,143.78807,3.0,2.0,1,$180_Weekly,House,February 2010,3370,2010,2,CLUNES,180,House,201021010
86,86,86,86,"6 CAMERON STREET, CLUNES",-37.292247,143.791814,2.0,1.0,2,$160,none,September 2010,3370,2010,9,CLUNES,160,Other,201021010
87,87,87,87,"107 COBAINS ESTATE ROAD, COBAINS",-38.0840691,147.1410804,3.0,2.0,0,$220_Weekly,House,November 2010,3851,2010,11,COBAINS,220,House,205051100
88,88,88,88,"263 BENGWORDEN ROAD, COBAINS",-38.071445,147.103421,3.0,1.0,3,$250_pw,House,October 2010,3851,2010,10,COBAINS,250,House,205051100
89,89,89,89,"2/86 CURDIE STREET, COBDEN",-38.327394,143.071066,2.0,1.0,1,$185_per_week,House,November 2010,3266,2010,11,COBDEN,185,House,217031475
90,90,90,90,"74 WALKER STREET, COBDEN",-38.32536,143.080733,2.0,1.0,1,$170_per_week,House,October 2010,3266,2010,10,COBDEN,170,House,217031475
91,91,91,91,"22 PARROTT STREET, COBDEN",-38.32951,143.076719,4.0,1.0,3,$220_per_week,House,January 2010,3266,2010,1,COBDEN,220,House,217031475
92,92,92,92,"1 MITCHELL STREET, COBDEN",-38.3321,143.073485,4.0,1.0,2,$235_per_week,House,October 2010,3266,2010,10,COBDEN,235,House,217031475
93,93,93,93,"1/84 PARROTT STREET, COBDEN",-38.328608,143.068643,3.0,1.0,1,$185_per_week,House,October 2010,3266,2010,10,COBDEN,185,House,217031475
94,94,94,94,"28 VICTORIA COURT, COBUNGRA",-37.091318,147.444334,4.0,2.0,0,$350_per_week,House,March 2010,3898,2010,3,COBUNGRA,350,House,205021082
95,95,95,95,"34 CLAREMONT STREET, COBURG NORTH",-37.732144,144.978717,3.0,1.0,2,$340_per_week,House,June 2010,3058,2010,6,NORTH,340,House,210031236
96,96,96,96,"34 CLAREMONT STREET, COBURG NORTH",-37.732144,144.978717,3.0,1.0,2,$340_per_week,House,May 2010,3058,2010,5,NORTH,340,House,210031236
97,97,97,97,"1/16 TONKIN AVENUE, COBURG NORTH",-37.720549,144.953335,2.0,1.0,1,$270_p.w.,House,August 2010,3058,2010,8,NORTH,270,House,210031236
98,98,98,98,"9 RONALD STREET, COBURG NORTH",-37.730771,144.980626,3.0,1.0,0,$310_p.w.,Rental_residential,March 2010,3058,2010,3,NORTH,310,Other,210031236
99,99,99,99,"10/23 BAXTER STREET, COBURG",-37.746319,144.963475,1.0,1.0,1,$240_pw,none,July 2010,3058,2010,7,COBURG,240,Other,206011497
100,100,100,100,"10/23 BAXTER STREET, COBURG",-37.746319,144.963475,1.0,1.0,1,$220_pw,none,January 2010,3058,2010,1,COBURG,220,Other,206011497
101,101,101,101,"2/64 VICTORIA STREET, COBURG",-37.742205,144.958461,2.0,1.0,1,$300_per_week,none,November 2010,3058,2010,11,COBURG,300,Other,206011498
102,102,102,102,"2/64 VICTORIA STREET, COBURG",-37.742205,144.958461,2.0,1.0,1,$300_per_week,none,October 2010,3058,2010,10,COBURG,300,Other,206011498
103,103,103,103,"2/64 VICTORIA STREET, COBURG",-37.742205,144.958461,2.0,1.0,1,$330_pw,none,January 2010,3058,2010,1,COBURG,330,Other,206011498
104,104,104,104,"18/23 BAXTER STREET, COBURG",-37.746319,144.963475,2.0,1.0,1,$320_pw,none,June 2010,3058,2010,6,COBURG,320,Other,206011497
105,105,105,105,"18/23 BAXTER STREET, COBURG",-37.746319,144.963475,2.0,1.0,1,$320_pw,none,May 2010,3058,2010,5,COBURG,320,Other,206011497
106,106,106,106,"11/51 STOCKADE AVENUE, COBURG",-37.7383322,144.9702595,5.0,4.0,1,$450_pw,none,July 2010,3058,2010,7,COBURG,450,Other,206011497
107,107,107,107,"19 SAUNDERS STREET, COBURG",-37.752043,144.950572,3.0,1.0,1,$420_pw,House,February 2010,3058,2010,2,COBURG,420,House,206011498
108,108,108,108,"2/48 THE GROVE, COBURG",-37.752217,144.971599,2.0,1.0,1,$290_p.w.,Villa,September 2010,3058,2010,9,COBURG,290,House,206011497
109,109,109,109,"177 URQUHART STREET, COBURG",-37.741016,144.975769,3.0,2.0,1,$450_pw,House,January 2010,3058,2010,1,COBURG,450,House,206011497
110,110,110,110,"6/1 THE GROVE, COBURG",-37.750961,144.965767,2.0,1.0,1,$320_p.w.,Townhouse,November 2010,3058,2010,11,COBURG,320,House,206011497
111,111,111,111,"6/1 THE GROVE, COBURG",-37.750961,144.965767,2.0,1.0,1,$330,Townhouse,November 2010,3058,2010,11,COBURG,330,House,206011497
112,112,112,112,"49 SOUDAN STREET, COBURG",-37.739114,144.951791,3.0,1.0,1,$425_pw,none,March 2010,3058,2010,3,COBURG,425,Other,206011498
113,113,113,113,"14A HARDWICK STREET, COBURG",-37.749445,144.968678,2.0,1.0,0,$395_pw,House,October 2010,3058,2010,10,COBURG,395,House,206011497
114,114,114,114,"80 SHAFTSBURY STREET, COBURG",-37.748313,144.955317,4.0,2.0,4,$520_pw,none,August 2010,3058,2010,8,COBURG,520,Other,206011498
115,115,115,115,"9 BEAUMONDE STREET, COBURG",-37.755099,144.978924,4.0,2.0,1,$500_p.w.,none,June 2010,3058,2010,6,COBURG,500,Other,206011497
116,116,116,116,"9 BEAUMONDE STREET, COBURG",-37.755099,144.978924,4.0,2.0,1,$500_p.w.,none,May 2010,3058,2010,5,COBURG,500,Other,206011497
117,117,117,117,"156 GORDON STREET, COBURG",-37.7430127,144.9495076,3.0,2.0,2,$495_per_week,House,April 2010,3058,2010,4,COBURG,495,House,206011498
118,118,118,118,"46 DAVIS STREET, COBURG",-37.740319,144.951406,3.0,1.0,3,$400_pw,House,December 2010,3058,2010,12,COBURG,400,House,206011498
119,119,119,119,"13 COLLINS STREET, COBURG",-37.737022,144.954334,3.0,1.0,2,$395_per_week,Rental_residential,November 2010,3058,2010,11,COBURG,395,Other,206011498
120,120,120,120,"2/56 THE AVENUE, COBURG",-37.752826,144.968178,2.0,2.0,1,$250_pw,none,August 2010,3058,2010,8,COBURG,250,Other,206011497
121,121,121,121,"114 SHAFTSBURY STREET, COBURG",-37.745519,144.955825,3.0,2.0,1,$450_per_week,none,April 2010,3058,2010,4,COBURG,450,Other,206011498
122,122,122,122,"11/40-50 STOCKADE AVENUE, COBURG",-37.737521,144.970247,2.0,1.0,1,$380_pw,Townhouse,June 2010,3058,2010,6,COBURG,380,House,206011497
123,123,123,123,"11/40-50 STOCKADE AVENUE, COBURG",-37.737521,144.970247,2.0,1.0,1,$400_Weekly,Townhouse,February 2010,3058,2010,2,COBURG,400,House,206011497
124,124,124,124,"11/40-50 STOCKADE AVENUE, COBURG",-37.737521,144.970247,2.0,1.0,1,$400_pw,Townhouse,January 2010,3058,2010,1,COBURG,400,House,206011497
125,125,125,125,"39 FISCHER STREET, COBURG",-37.733824,144.953878,3.0,1.0,1,$400_per_week,House,February 2010,3058,2010,2,COBURG,400,House,206011498
126,126,126,126,"69 CAMPBELL STREET, COBURG",-37.753608,144.969821,2.0,2.0,1,$450_pw,Rental_residential,August 2010,3058,2010,8,COBURG,450,Other,206011497
127,127,127,127,"41/14 BELL STREET, COBURG",-37.74239,144.977185,2.0,1.0,1,$390_p.w.,none,March 2010,3058,2010,3,COBURG,390,Other,206011497
128,128,128,128,"41/14 BELL STREET, COBURG",-37.74239,144.977185,2.0,1.0,1,$390,none,February 2010,3058,2010,2,COBURG,390,Other,206011497
129,129,129,129,"20 SHACKELL STREET, COBURG",-37.742317,144.952214,3.0,1.0,2,$390_per_week,House,November 2010,3058,2010,11,COBURG,390,House,206011498
130,130,130,130,"20/5 INDUSTRY LANE, COBURG",-37.7370286,144.9695513,2.0,1.0,1,$340_per_week,Townhouse,February 2010,3058,2010,2,COBURG,340,House,206011497
131,131,131,131,"11/1 MANNA GUM COURT, COBURG",-37.736609,144.975974,3.0,2.0,2,$450,Available Now,December 2010,3058,2010,12,COBURG,450,Other,206011497
132,132,132,132,"11/1 MANNA GUM COURT, COBURG",-37.736609,144.975974,3.0,2.0,2,$460_Weekly,Available Now,February 2010,3058,2010,2,COBURG,460,Other,206011497
133,133,133,133,"69A MORELAND ROAD, COBURG",-37.756399,144.97422,3.0,1.0,1,$370,none,October 2010,3058,2010,10,COBURG,370,Other,206011497
134,134,134,134,"3/11 METHVEN STREET, COBURG",-37.746901,144.963811,2.0,1.0,1,$360_p.w.,none,December 2010,3058,2010,12,COBURG,360,Other,206011497
135,135,135,135,"5/144 NICHOLSON STREET, COBURG",-37.745681,144.977713,2.0,1.0,1,$280_pw,none,February 2010,3058,2010,2,COBURG,280,Other,206011497
136,136,136,136,"1/1 INDUSTRY LANE, COBURG",-37.7369442,144.9699153,1.0,1.0,1,$340_per_week,none,August 2010,3058,2010,8,COBURG,340,Other,206011497
137,137,137,137,"1/1 INDUSTRY LANE, COBURG",-37.7369442,144.9699153,1.0,1.0,1,$355_per_week,none,July 2010,3058,2010,7,COBURG,355,Other,206011497
138,138,138,138,"304/19 PENTRIDGE BOULEVARD, COBURG",-37.738903,144.970583,1.0,1.0,1,$330_pw,Available Now,September 2010,3058,2010,9,COBURG,330,Other,206011497
139,139,139,139,"407/19 PENTRIDGE BLVD, COBURG",-37.738903,144.970583,2.0,1.0,1,$340_p.w.,Rental_residential,August 2010,3058,2010,8,COBURG,340,Other,206011497
140,140,140,140,"2/115 HARDING STREET, COBURG",-37.746057,144.977021,2.0,1.0,1,$340_pw,none,April 2010,3058,2010,4,COBURG,340,Other,206011497
141,141,141,141,"3/170 GORDON STREET, COBURG",-37.742134,144.94979,2.0,1.0,1,$350_pw,none,August 2010,3058,2010,8,COBURG,350,Other,206011498
142,142,142,142,"3/22 CHAMBERS STREET, COBURG",-37.747267,144.96884,2.0,1.0,1,$330,none,October 2010,3058,2010,10,COBURG,330,Other,206011497
143,143,143,143,"1 DARE STREET, COBURG",-37.749962,144.96728,3.0,3.0,2,$420_pw,none,September 2010,3058,2010,9,COBURG,420,Other,206011497
144,144,144,144,"25A FISCHER STREET, COBURG",-37.734543,144.953756,2.0,1.0,1,$350_p.w.,Rental_residential,November 2010,3058,2010,11,COBURG,350,Other,206011498
145,145,145,145,"4 FARM ROAD, COBURG",-37.736096,144.971437,4.0,2.0,3,$495_pw,Available Now,September 2010,3058,2010,9,COBURG,495,Other,206011497
146,146,146,146,"18/2 ALICE STREET, COBURG",-37.743803,144.957178,2.0,1.0,1,$290_pw,none,March 2010,3058,2010,3,COBURG,290,Other,206011498
147,147,147,147,"18/2 ALICE STREET, COBURG",-37.743803,144.957178,2.0,1.0,1,$320_pw,none,February 2010,3058,2010,2,COBURG,320,Other,206011498
148,148,148,148,"1 HAVEN COURT, COCKATOO",-37.948073,145.496363,2.0,1.0,2,$260_per_week,House,October 2010,3781,2010,10,COCKATOO,260,House,212011289
149,149,149,149,"2 BELGRAVE AVENUE, COCKATOO",-37.92732,145.495818,4.0,2.0,6,$300_pw,Rental_residential,February 2010,3781,2010,2,COCKATOO,300,Other,212011289
150,150,150,150,"18 CARAWA STREET, COCKATOO",-37.926109,145.49772,3.0,2.0,1,$260_per_week,Rental_residential,June 2010,3781,2010,6,COCKATOO,260,Other,212011289
151,151,151,151,"11 ACLARE STREET, COCKATOO",-37.950754,145.509465,3.0,1.0,2,$270,House,February 2010,3781,2010,2,COCKATOO,270,House,212011289
152,152,152,152,"35 MARKET STREET, COHUNA",-35.812621,144.22028,4.0,2.0,2,$140_pw,House,September 2010,3568,2010,9,COHUNA,140,House,215031401
153,153,153,153,"151 KING GEORGE STREET, COHUNA",-35.802147,144.215476,3.0,1.0,1,$165_pw,House,May 2010,3568,2010,5,COHUNA,165,House,215031401
154,154,154,154,"94 CHANNEL STREET, COHUNA",-35.804436,144.214723,2.0,1.0,1,$140_pw,House,October 2010,3568,2010,10,COHUNA,140,House,215031401
155,155,155,155,"352 COIMADAI DIGGERS REST ROAD, COIMADAI",-37.6201439,144.5063489,4.0,3.0,4,$500_p.w.,House,December 2010,3340,2010,12,COIMADAI,500,House,213041353
156,156,156,156,"352 COIMADAI DIGGERS REST ROAD, COIMADAI",-37.6201439,144.5063489,4.0,3.0,4,$450_per_week,House,August 2010,3340,2010,8,COIMADAI,450,House,213041353
157,157,157,157,"80 DRAPERS ROAD, COLAC EAST",-38.3319866,143.6261362,3.0,1.0,2,$240_pw,House,September 2010,3250,2010,9,EAST,240,House,217031472
158,158,158,158,"10 FLAXMILL ROAD, COLAC EAST",-38.327462,143.618703,4.0,2.0,0,$320_pw,House,February 2010,3250,2010,2,EAST,320,House,217031473
159,159,159,159,"53 POLLACK STREET, COLAC WEST",-38.335818,143.591217,3.0,1.0,2,$200_pw,House,August 2010,3250,2010,8,WEST,200,House,217031472
160,160,160,160,"1/42A MANIFOLD STREET, COLAC",-38.33727,143.58236,2.0,1.0,1,$240_pw,none,June 2010,3250,2010,6,COLAC,240,Other,217031472
161,161,161,161,"102 QUEEN STREET, COLAC",-38.344296,143.592366,2.0,1.0,1,$185_pw,Townhouse,July 2010,3250,2010,7,COLAC,185,House,217031472
162,162,162,162,"LOT 4 BURGE COURT, COLBINABBIN",-36.591533,144.795291,3.0,1.0,1,$180_p.w.,House,September 2010,3559,2010,9,COLBINABBIN,180,House,216011410
163,163,163,163,"18 CHEVIOT AVENUE, COLDSTREAM",-37.728222,145.384468,3.0,1.0,1,$310_pw,House,November 2010,3770,2010,11,COLDSTREAM,310,House,211051278
164,164,164,164,"18 CHEVIOT AVENUE, COLDSTREAM",-37.728222,145.384468,3.0,1.0,1,$300_pw,House,April 2010,3770,2010,4,COLDSTREAM,300,House,211051278
165,165,165,165,"1166 BOONOONAR ROAD, COLIGNAN",-34.546283,142.334486,3.0,1.0,2,$180_pw,none,October 2010,3494,2010,10,COLIGNAN,180,Other,215021398
166,166,166,166,"129 SACKVILLE STREET, COLLINGWOOD",-37.79908,144.991078,2.0,1.0,0,$450_pw,Rental_residential,July 2010,3066,2010,7,COLLINGWOOD,450,Other,206071141
167,167,167,167,"42 BALLARAT STREET, COLLINGWOOD",-37.795156,144.990856,2.0,1.0,0,$440_pw,Rental_residential,August 2010,3066,2010,8,COLLINGWOOD,440,Other,206071141
168,168,168,168,"136 RUPERT STREET, COLLINGWOOD",-37.803877,144.989676,2.0,1.0,0,$430_per_week,none,October 2010,3066,2010,10,COLLINGWOOD,430,Other,206071141
169,169,169,169,"136 RUPERT STREET, COLLINGWOOD",-37.803877,144.989676,2.0,1.0,0,$480_per_week,none,February 2010,3066,2010,2,COLLINGWOOD,480,Other,206071141
170,170,170,170,"5/15-17 BENDIGO STREET, COLLINGWOOD",-37.796087,144.992632,1.0,1.0,1,$265_pw,Rental_residential,June 2010,3066,2010,6,COLLINGWOOD,265,Other,206071141
171,171,171,171,"14/34 SMITH STREET, COLLINGWOOD",-37.8072953,144.9828207,1.0,1.0,1,$365_pw,Rental_residential,July 2010,3066,2010,7,COLLINGWOOD,365,Other,206071142
172,172,172,172,"9/1 PEEL STREET, COLLINGWOOD",-37.805201,144.983757,1.0,1.0,1,$345_pw,Rental_residential,April 2010,3066,2010,4,COLLINGWOOD,345,Other,206071141
173,174,174,174,"321 WELLINGTON STREET, COLLINGWOOD",-37.795446,144.987781,2.0,1.0,0,$395_pw,none,February 2010,3066,2010,2,COLLINGWOOD,395,Other,206071141
174,175,175,175,"1/1 PEEL STREET, COLLINGWOOD",-37.8050584,144.9837832,1.0,1.0,1,$390,Rental_residential,October 2010,3066,2010,10,COLLINGWOOD,390,Other,206071141
175,176,176,176,"1/1 PEEL STREET, COLLINGWOOD",-37.8050584,144.9837832,1.0,1.0,1,$390_pw,Rental_residential,April 2010,3066,2010,4,COLLINGWOOD,390,Other,206071141
176,177,177,177,"8/78 OXFORD STREET, COLLINGWOOD",-37.803368,144.985101,1.0,1.0,1,$370_per_week,Unit,November 2010,3066,2010,11,COLLINGWOOD,370,Apartment,206071141
177,178,178,178,"15/99 OXFORD STREET, COLLINGWOOD",-37.80752,144.983944,1.0,1.0,1,$360_per_week,Unit,September 2010,3066,2010,9,COLLINGWOOD,360,Apartment,206071141
178,179,179,179,"55 GIPPS STREET, COLLINGWOOD",-37.804818,144.988822,2.0,1.0,1,$450_per_week,House,April 2010,3066,2010,4,COLLINGWOOD,450,House,206071141
179,180,180,180,"162 KEELE STREET, COLLINGWOOD",-37.79749,144.992525,2.0,1.0,0,$475,House,December 2010,3066,2010,12,COLLINGWOOD,475,House,206071141
180,181,181,181,"506/103-107 OXFORD STREET, COLLINGWOOD",-37.80316,144.984807,2.0,1.0,1,$495_pw,Rental_residential,July 2010,3066,2010,7,COLLINGWOOD,495,Other,206071141
181,182,182,182,"3/20 BEDFORD STREET, COLLINGWOOD",-37.800633,144.984904,2.0,1.0,1,$495_pw,none,February 2010,3066,2010,2,COLLINGWOOD,495,Other,206071141
182,183,183,183,"6/15-25 OXFORD STREET, COLLINGWOOD",-37.807803,144.984175,2.0,1.0,1,$460_pw,none,October 2010,3066,2010,10,COLLINGWOOD,460,Other,206071141
183,184,184,184,"6/15-25 OXFORD STREET, COLLINGWOOD",-37.807803,144.984175,2.0,1.0,1,$460_pw,none,September 2010,3066,2010,9,COLLINGWOOD,460,Other,206071141
184,185,185,185,"9/109 OXFORD STREET, COLLINGWOOD",-37.802889,144.984737,2.0,1.0,1,$460_pw,none,February 2010,3066,2010,2,COLLINGWOOD,460,Other,206071141
185,187,187,187,"33 MCLEODS ROAD, CONDAH",-37.949464,141.754979,3.0,1.0,2,$170_per_week,none,December 2010,3303,2010,12,CONDAH,170,Other,217011420
186,188,188,188,"235 KNIGHTS ROAD, CONGUPNA",-36.323892,145.458638,3.0,1.0,1,$210_pw,none,February 2010,3633,2010,2,CONGUPNA,210,Other,216031418
187,189,189,189,"610 GRAHAMVALE ROAD, CONGUPNA",-36.309451,145.432335,3.0,1.0,2,$180_pw,House,January 2010,3633,2010,1,CONGUPNA,180,House,216031418
188,190,190,190,"70 TANK CORNER ROAD, CONGUPNA",-36.30165,145.43311,3.0,1.0,1,$170_per_week,none,December 2010,3633,2010,12,CONGUPNA,170,Other,216031418
189,191,191,191,"3593 KATAMATITE ROAD, CONGUPNA",-36.300179,145.434519,4.0,1.0,2,$250_per_week,none,September 2010,3633,2010,9,CONGUPNA,250,Other,216031418
190,192,192,192,"3593 KATAMATITE ROAD, CONGUPNA",-36.300179,145.434519,4.0,1.0,2,$250_pw,none,August 2010,3633,2010,8,CONGUPNA,250,Other,216031418
191,193,193,193,"755 LEMNOS NORTH ROAD, CONGUPNA",-36.297128,145.464944,4.0,2.0,1,$360_pw,House,September 2010,3633,2010,9,CONGUPNA,360,House,216031418
192,194,194,194,"520 GOULBURN VALLEY HIGHWAY, CONGUPNA",-36.297923,145.431809,5.0,2.0,1,$420_pw,House,July 2010,3633,2010,7,CONGUPNA,420,House,216031418
193,195,195,195,"9A WESTMERE CRESCENT, COOLAROO",-37.664659,144.93586,1.0,1.0,1,$220_per_week,Unit,August 2010,3048,2010,8,COOLAROO,220,Apartment,210051243
194,196,196,196,"9A WESTMERE CRESCENT, COOLAROO",-37.664659,144.93586,1.0,1.0,1,$195_per_week,Unit,May 2010,3048,2010,5,COOLAROO,195,Apartment,210051243
195,197,197,197,"6 LOVAT COURT, COOLAROO",-37.654336,144.930513,3.0,1.0,2,$260_pw,Rental_residential,April 2010,3048,2010,4,COOLAROO,260,Other,210051243
196,198,198,198,"44 LONGFORD CRESCENT, COOLAROO",-37.661346,144.92736,3.0,1.0,1,$290_per_week,House,October 2010,3048,2010,10,COOLAROO,290,House,210051243
197,199,199,199,"18 MOYNE CRESCENT, COOLAROO",-37.656359,144.930264,3.0,1.0,1,$280_per_week,House,November 2010,3048,2010,11,COOLAROO,280,House,210051243
198,200,200,200,"3 LOFTY COURT, CORIO",-38.070837,144.370725,3.0,1.0,1,$215_pw,none,October 2010,3214,2010,10,CORIO,215,Other,203021486
199,201,201,201,"3 LOFTY COURT, CORIO",-38.070837,144.370725,3.0,1.0,1,$215_p.w.,none,September 2010,3214,2010,9,CORIO,215,Other,203021486
200,202,202,202,"3 LOFTY COURT, CORIO",-38.070837,144.370725,3.0,1.0,1,$215_p.w.,none,August 2010,3214,2010,8,CORIO,215,Other,203021486
201,203,203,203,"59 CLOVERDALE DRIVE, CORIO",-38.067956,144.347957,4.0,2.0,2,$350,House,January 2010,3214,2010,1,CORIO,350,House,203021486
202,204,204,204,"124 PLANTATION ROAD, CORIO",-38.067161,144.362963,3.0,2.0,2,$270,none,January 2010,3214,2010,1,CORIO,270,Other,203021486
203,205,205,205,"5 VERMONT AVENUE, CORIO",-38.082459,144.357115,2.0,1.0,1,$210_per_week,none,March 2010,3214,2010,3,CORIO,210,Other,203021486
204,206,206,206,"14 CORANGAMITE DRIVE, CORIO",-38.067773,144.34357,4.0,1.0,2,$270,House,June 2010,3214,2010,6,CORIO,270,House,203021486
205,207,207,207,"89 COLORADO DRIVE, CORIO",-38.078145,144.350478,3.0,1.0,1,$190,House,September 2010,3214,2010,9,CORIO,190,House,203021486
206,208,208,208,"25 QUEBEC AVENUE, CORIO",-38.078008,144.360939,3.0,1.0,4,$250_pw,House,July 2010,3214,2010,7,CORIO,250,House,203021486
207,209,209,209,"3/8-9 FIELDMAN COURT, CORIO",-38.068974,144.350346,2.0,1.0,1,$230_pw,none,January 2010,3214,2010,1,CORIO,230,Other,203021486
208,210,210,210,"182 LARPENT ROAD, COROROOKE",-38.285258,143.504604,1.0,1.0,1,$130_pw,House,April 2010,3254,2010,4,COROROOKE,130,House,217031473
209,211,211,211,"10 OUTLOOK DRIVE, COWES",-38.456911,145.205001,4.0,1.0,2,$280,House,May 2010,3922,2010,5,COWES,280,House,205031091
210,212,212,212,"31 OUTLOOK DRIVE, COWES",-38.457133,145.202724,4.0,2.0,0,$430_p.w.,House,July 2010,3922,2010,7,COWES,430,House,205031091
211,213,213,213,"31 OUTLOOK DRIVE, COWES",-38.457133,145.202724,4.0,2.0,0,$430_p.w.,House,May 2010,3922,2010,5,COWES,430,House,205031091
212,214,214,214,"1/96-100 THOMPSON AVENUE, COWES",-38.451396,145.238254,2.0,2.0,1,$190,Unit,August 2010,3922,2010,8,COWES,190,Apartment,205031091
213,215,215,215,"1/30 WYNDHAM AVENUE, COWES",-38.455184,145.233564,2.0,1.0,1,$220_per_week,House,August 2010,3922,2010,8,COWES,220,House,205031091
214,216,216,216,"57 REDWOOD DRIVE, COWES",-38.462887,145.241769,3.0,2.0,2,$350_p.w.,House,February 2010,3922,2010,2,COWES,350,House,205031091
215,217,217,217,"13 ROYDON ROAD, COWES",-38.453742,145.232441,2.0,1.0,0,$255_per_week,House,December 2010,3922,2010,12,COWES,255,House,205031091
216,218,218,218,"4/35 CHAPEL STREET, COWES",-38.450944,145.24391,2.0,1.0,1,$205,Rental_residential,July 2010,3922,2010,7,COWES,205,Other,205031091
217,219,219,219,"2/64 JUSTICE ROAD, COWES",-38.4557179,145.2106686,3.0,2.0,2,$330,Townhouse,August 2010,3922,2010,8,COWES,330,House,205031091
218,220,220,220,"2/64 JUSTICE ROAD, COWES",-38.4557179,145.2106686,3.0,2.0,2,$330_per_week,Townhouse,June 2010,3922,2010,6,COWES,330,House,205031091
219,221,221,221,"15 CRICKET ST, COWWARR",-38.0125485,146.6979245,3.0,1.0,0,$270_Weekly,House,February 2010,3857,2010,2,COWWARR,270,House,205051102
221,223,223,223,"22 FLAGSTAFF LOOP, CRAIGIEBURN",-37.584694,144.939183,3.0,2.0,2,$340_per_week,House,August 2010,3064,2010,8,CRAIGIEBURN,340,House,210051442
222,224,224,224,"8 BRECON NOOK, CRAIGIEBURN",-37.608906,144.924308,3.0,1.0,0,$265_p.w.,House,November 2010,3064,2010,11,CRAIGIEBURN,265,House,210051443
223,225,225,225,"274 WATERVIEW BOULEVARD, CRAIGIEBURN",-37.582363,144.907861,4.0,2.0,2,$390,House,December 2010,3064,2010,12,CRAIGIEBURN,390,House,210051543
224,226,226,226,"33 PRINCES CIRCUIT, CRAIGIEBURN",-37.584038,144.936392,3.0,2.0,2,$365_p.w.,House,May 2010,3064,2010,5,CRAIGIEBURN,365,House,210051442
225,227,227,227,"22 DAN MORGAN DRIVE, CRANBOURNE EAST",-38.099713,145.318784,4.0,2.0,2,$380_per_week,House,July 2010,3977,2010,7,EAST,380,House,212031557
226,228,228,228,"11 BEECHTREE WAY, CRANBOURNE NORTH",-38.083203,145.318652,4.0,2.0,2,$340,House,November 2010,3977,2010,11,NORTH,340,House,212031559
227,229,229,229,"4/20 HUON PARK ROAD, CRANBOURNE NORTH",-38.074527,145.27318,3.0,2.0,2,$310,none,September 2010,3977,2010,9,NORTH,310,Other,212031560
228,230,230,230,"4/20 HUON PARK ROAD, CRANBOURNE NORTH",-38.074527,145.27318,3.0,2.0,2,$310,none,August 2010,3977,2010,8,NORTH,310,Other,212031560
229,231,231,231,"4/20 HUON PARK ROAD, CRANBOURNE NORTH",-38.074527,145.27318,3.0,2.0,2,$310_pw,none,July 2010,3977,2010,7,NORTH,310,Other,212031560
230,232,232,232,"12 ISLINGTON AVENUE, CRANBOURNE NORTH",-38.069538,145.289037,4.0,2.0,2,$360_pw,House,November 2010,3977,2010,11,NORTH,360,House,212031560
231,233,233,233,"27 ELIZA STREET, CRANBOURNE NORTH",-38.07808763,145.28925138,3.0,1.0,1,$280_per_week,House,October 2010,3977,2010,10,NORTH,280,House,212031560
232,234,234,234,"20 COURTENAY AVENUE, CRANBOURNE NORTH",-38.077896,145.27619,3.0,1.0,1,$290,House,October 2010,3977,2010,10,NORTH,290,House,212031560
233,235,235,235,"20 COURTENAY AVENUE, CRANBOURNE NORTH",-38.077896,145.27619,3.0,1.0,1,$280,House,August 2010,3977,2010,8,NORTH,280,House,212031560
234,236,236,236,"590 CRANBOURNE FRANKSTON ROAD, CRANBOURNE SOUTH",-38.133811,145.229305,4.0,2.0,4,$360_Weekly,Available Now,December 2010,3977,2010,12,SOUTH,360,Other,212031303
235,237,237,237,"10 NERRENA RISE, CRANBOURNE WEST",-38.096508,145.259518,3.0,2.0,2,$340,House,December 2010,3977,2010,12,WEST,340,House,212031304
236,238,238,238,"28 SCOTT STREET, CRANBOURNE",-38.109806,145.280379,3.0,1.0,2,$250_per_week,none,March 2010,3977,2010,3,CRANBOURNE,250,Other,212031300
237,239,239,239,"27 PEPPERBUSH CIRCUIT, CRANBOURNE",-38.086679,145.281677,4.0,2.0,2,$310,House,February 2010,3977,2010,2,CRANBOURNE,310,House,212031300
238,240,240,240,"19 THOMAS CRESCENT, CRANBOURNE",-38.106523,145.270989,3.0,1.0,1,$270,House,March 2010,3977,2010,3,CRANBOURNE,270,House,212031300
239,241,241,241,"23 LAMONT CRESCENT, CRANBOURNE",-38.099023,145.270836,3.0,1.0,1,$280_Weekly,House,August 2010,3977,2010,8,CRANBOURNE,280,House,212031300
240,242,242,242,"2/36 VIRGINIA STREET, CRANBOURNE",-38.094064,145.274541,3.0,2.0,1,$280_per_week,Unit,April 2010,3977,2010,4,CRANBOURNE,280,Apartment,212031300
241,243,243,243,"19 JILLIAN STREET, CRANBOURNE",-38.107651,145.274156,3.0,1.0,1,$300_per_week,Rental_residential,August 2010,3977,2010,8,CRANBOURNE,300,Other,212031300
242,244,244,244,"8 CANTERBURY STREET, CRANBOURNE",-38.100922,145.285479,3.0,2.0,2,$330_per_week,House,November 2010,3977,2010,11,CRANBOURNE,330,House,212031300
243,245,245,245,"2 PEPPERBUSH CIRCUIT, CRANBOURNE",-38.086034,145.283276,4.0,2.0,2,$350_p.w.,House,November 2010,3977,2010,11,CRANBOURNE,350,House,212031300
244,246,246,246,"4 BLAXLAND STREET, BURNSIDE HEIGHTS",-37.73260444,144.76011929,3.0,3.0,2,$350_per_week,House,September 2010,3023,2010,9,HEIGHTS,350,House,213041462
245,247,247,247,"25 BELLEVILLE CLOSE, BURNSIDE HEIGHTS",-37.72466778,144.75340716,3.0,2.0,2,$310_per_week,House,December 2010,3023,2010,12,HEIGHTS,310,House,213041462
246,248,248,248,"2 FLORIDA COURT, BURNSIDE HEIGHTS",-37.7357208,144.75009035,3.0,2.0,2,$350_per_week,House,December 2010,3023,2010,12,HEIGHTS,350,House,213041462
247,249,249,249,"15 WYLIE CIRCUIT, BURNSIDE HEIGHTS",-37.73201578,144.75406918,4.0,2.0,2,$350_per_week,House,October 2010,3023,2010,10,HEIGHTS,350,House,213041462
248,250,250,250,"3 SAVIOUR ROAD, BURNSIDE HEIGHTS",-37.7263099,144.7571593,3.0,2.0,1,$385_per_week,none,October 2010,3023,2010,10,HEIGHTS,385,Other,213041462
249,251,251,251,"3 GOULD PLACE, BURNSIDE",-37.751245,144.749376,3.0,1.0,1,$300_p.w.,none,November 2010,3023,2010,11,BURNSIDE,300,Other,213041461
250,252,252,252,"97 BURWOOD HIGHWAY, BURWOOD EAST",-37.850939,145.140001,3.0,1.0,2,$350,House,January 2010,3151,2010,1,EAST,350,House,207031166
251,253,253,253,"25 DOROTHY STREET, BURWOOD EAST",-37.854663,145.145829,3.0,1.0,1,$350,House,January 2010,3151,2010,1,EAST,350,House,207031166
252,254,254,254,"295 BLACKBURN ROAD, BURWOOD EAST",-37.846728,145.153585,4.0,2.0,2,$410_pw,House,January 2010,3151,2010,1,EAST,410,House,207031166
253,255,255,255,"295 BLACKBURN ROAD, BURWOOD EAST",-37.846728,145.153585,4.0,2.0,2,$430_pw,House,January 2010,3151,2010,1,EAST,430,House,207031166
254,256,256,256,"75 SEVENOAKS ROAD, BURWOOD EAST",-37.858463,145.155964,3.0,1.0,1,$430,House,January 2010,3151,2010,1,EAST,430,House,207031166
255,257,257,257,"15 MOONA STREET, BURWOOD EAST",-37.852733,145.138887,3.0,1.0,2,$350_per_week,House,July 2010,3151,2010,7,EAST,350,House,207031166
256,258,258,258,"48 ROBINLEE AVENUE, BURWOOD EAST",-37.849451,145.158313,3.0,1.0,2,$395_p.w.,House,July 2010,3151,2010,7,EAST,395,House,207031166
257,259,259,259,"68A ROSLYN STREET, BURWOOD",-37.845154,145.103348,1.0,1.0,1,$220,none,June 2010,3125,2010,6,BURWOOD,220,Other,207031165
258,260,260,260,"58 ROSLYN STREET, BURWOOD",-37.845828,145.103217,4.0,1.0,2,$450_pw,none,December 2010,3125,2010,12,BURWOOD,450,Other,207031165
259,261,261,261,"80 PARER STREET, BURWOOD",-37.844473,145.104706,3.0,2.0,2,$430_p.w.,none,July 2010,3125,2010,7,BURWOOD,430,Other,207031165
260,262,262,262,"80 PARER STREET, BURWOOD",-37.844473,145.104706,3.0,2.0,2,$465_per_week,none,February 2010,3125,2010,2,BURWOOD,465,Other,207031165
261,263,263,263,"17 CROMWELL STREET, BURWOOD",-37.85218,145.105285,3.0,1.0,2,$450_p.w.,House,June 2010,3125,2010,6,BURWOOD,450,House,207031165
262,264,264,264,"17 CROMWELL STREET, BURWOOD",-37.85218,145.105285,3.0,1.0,2,$470,House,May 2010,3125,2010,5,BURWOOD,470,House,207031165
263,265,265,265,"1/2 FINCH STREET, BURWOOD",-37.851738,145.12391,3.0,2.0,2,$550,Townhouse,December 2010,3125,2010,12,BURWOOD,550,House,207031165
264,266,266,266,"2/365 BURWOOD HIGHWAY, BURWOOD",-37.851292,145.128462,4.0,2.0,2,$550,Townhouse,July 2010,3125,2010,7,BURWOOD,550,House,207031165
265,267,267,267,"2A RENOWN STREET, BURWOOD",-37.851639,145.122251,3.0,2.0,1,$400_per_week,House,November 2010,3125,2010,11,BURWOOD,400,House,207031165
266,268,268,268,"17 STEPHENS STREET, BURWOOD",-37.856717,145.108984,2.0,1.0,2,$335_per_week,House,September 2010,3125,2010,9,BURWOOD,335,House,212051319
267,269,269,269,"1/8 RENOWN STREET, BURWOOD",-37.852163,145.12234,4.0,2.0,2,$560_per_week,Townhouse,May 2010,3125,2010,5,BURWOOD,560,House,207031165
268,270,270,270,"7 HUGHES STREET, BURWOOD",-37.852023,145.1079,3.0,1.0,1,$325_per_week,House,June 2010,3125,2010,6,BURWOOD,325,House,207031165
269,271,271,271,"7 HUGHES STREET, BURWOOD",-37.852023,145.1079,3.0,1.0,1,$370_pw,House,April 2010,3125,2010,4,BURWOOD,370,House,207031165
270,272,272,272,"15 CUMMING STREET, BURWOOD",-37.851446,145.11354,3.0,1.0,2,$395,House,November 2010,3125,2010,11,BURWOOD,395,House,207031165
271,273,273,273,"15 CUMMING STREET, BURWOOD",-37.851446,145.11354,3.0,1.0,2,$400,House,October 2010,3125,2010,10,BURWOOD,400,House,207031165
272,274,274,274,"15 CUMMING STREET, BURWOOD",-37.851446,145.11354,3.0,1.0,2,$400,House,September 2010,3125,2010,9,BURWOOD,400,House,207031165
273,275,275,275,"15 GILLIESTON ROAD, BYRNESIDE",-36.4167807,145.1864301,4.0,1.0,2,$300_pw,none,April 2010,3617,2010,4,BYRNESIDE,300,Other,216031419
274,276,276,276,"72 DYAR AVENUE, CABARITA",-34.2121384,142.0901623,3.0,2.0,2,$375,none,September 2010,3505,2010,9,CABARITA,375,Other,215021396
275,278,278,278,"24 ALIZA AVENUE, CALIFORNIA GULLY",-36.722933,144.271314,4.0,2.0,2,$310_pw,none,January 2010,3556,2010,1,GULLY,310,Other,202011019
276,279,279,279,"2/10 PEARCE STREET, CALIFORNIA GULLY",-36.730891,144.26618,3.0,1.0,1,$180_per_week,House,April 2010,3556,2010,4,GULLY,180,House,202011019
277,280,280,280,"1/3 HALLEY AVENUE, CAMBERWELL",-37.846282,145.069709,3.0,2.0,2,$470_pw,none,July 2010,3124,2010,7,CAMBERWELL,470,Other,207011149
278,281,281,281,"1/3 HALLEY AVENUE, CAMBERWELL",-37.846282,145.069709,3.0,2.0,2,$525_pw,none,May 2010,3124,2010,5,CAMBERWELL,525,Other,207011149
279,282,282,282,"4 SEYMOUR GROVE, CAMBERWELL",-37.835861,145.060622,5.0,3.0,3,$900_p.w.,none,August 2010,3124,2010,8,CAMBERWELL,900,Other,207011149
280,283,283,283,"4 SEYMOUR GROVE, CAMBERWELL",-37.835861,145.060622,5.0,3.0,3,$1000_p.w.,none,August 2010,3124,2010,8,CAMBERWELL,1000,Other,207011149
281,284,284,284,"4 SEYMOUR GROVE, CAMBERWELL",-37.835861,145.060622,5.0,3.0,3,$1100_p.w.,none,August 2010,3124,2010,8,CAMBERWELL,1100,Other,207011149
282,285,285,285,"2/68 BRINSLEY ROAD, CAMBERWELL",-37.831576,145.067995,2.0,1.0,1,$370_pw,none,March 2010,3124,2010,3,CAMBERWELL,370,Other,207011149
283,286,286,286,"252 HIGHFIELD ROAD, CAMBERWELL",-37.848314,145.082571,3.0,2.0,3,$680_per_week,House,November 2010,3124,2010,11,CAMBERWELL,680,House,207011149
284,287,287,287,"6/24 ALLAMBEE AVENUE, CAMBERWELL",-37.835011,145.07699,2.0,1.0,1,$420_per_week,none,September 2010,3124,2010,9,CAMBERWELL,420,Other,207011149
285,288,288,288,"6/24 ALLAMBEE AVENUE, CAMBERWELL",-37.835011,145.07699,2.0,1.0,1,$420_per_week,none,January 2010,3124,2010,1,CAMBERWELL,420,Other,207011149
286,290,290,290,"2/233 HIGHFIELD ROAD, CAMBERWELL",-37.8466,145.082064,3.0,2.0,1,$600_per_week,none,September 2010,3124,2010,9,CAMBERWELL,600,Other,207011149
287,291,291,291,"41 CHRISTOWEL STREET, CAMBERWELL",-37.83778,145.067185,4.0,2.0,3,$950_pw,none,April 2010,3124,2010,4,CAMBERWELL,950,Other,207011149
288,292,292,292,"43 BELLETT STREET, CAMBERWELL",-37.835812,145.066418,3.0,2.0,3,$650_pw,none,May 2010,3124,2010,5,CAMBERWELL,650,Other,207011149
289,293,293,293,"18 NETHERWAY STREET, CAMBERWELL",-37.842058,145.08912,3.0,2.0,1,$450,House,December 2010,3124,2010,12,CAMBERWELL,450,House,207011149
290,294,294,294,"16/700 RIVERSDALE ROAD, CAMBERWELL",-37.83425,145.074497,3.0,1.0,1,$450_pw,House,October 2010,3124,2010,10,CAMBERWELL,450,House,207011149
291,295,295,295,"16/700 RIVERSDALE ROAD, CAMBERWELL",-37.83425,145.074497,3.0,1.0,1,$480_per_week,House,October 2010,3124,2010,10,CAMBERWELL,480,House,207011149
292,296,296,296,"62A CHRISTOWEL STREET, CAMBERWELL",-37.839021,145.066556,3.0,1.0,1,$575_per_week,House,October 2010,3124,2010,10,CAMBERWELL,575,House,207011149
293,297,297,297,"62A CHRISTOWEL STREET, CAMBERWELL",-37.839021,145.066556,3.0,1.0,1,$575_per_week,House,September 2010,3124,2010,9,CAMBERWELL,575,House,207011149
294,298,298,298,"1/31 HIGH ROAD, CAMBERWELL",-37.842785,145.057707,3.0,2.0,2,$520_pw,House,December 2010,3124,2010,12,CAMBERWELL,520,House,207011149
295,299,299,299,"1/31 HIGH ROAD, CAMBERWELL",-37.842785,145.057707,3.0,2.0,2,$520_pw,House,March 2010,3124,2010,3,CAMBERWELL,520,House,207011149
296,300,300,300,"10A JUDD STREET, CAMBERWELL",-37.836455,145.064137,2.0,1.0,1,$480,Rental_residential,October 2010,3124,2010,10,CAMBERWELL,480,Other,207011149
297,301,301,301,"1/911 TOORAK ROAD, CAMBERWELL",-37.845911,145.057483,4.0,3.0,2,$985,Townhouse,November 2010,3124,2010,11,CAMBERWELL,985,House,207011149
298,302,302,302,"39 LYNDEN STREET, CAMBERWELL",-37.840895,145.086331,6.0,2.0,2,$800,Rental_residential,May 2010,3124,2010,5,CAMBERWELL,800,Other,207011149
299,303,303,303,"39 LYNDEN STREET, CAMBERWELL",-37.840895,145.086331,6.0,2.0,2,$800_pw,Rental_residential,February 2010,3124,2010,2,CAMBERWELL,800,Other,207011149
300,304,304,304,"3/17 GARDEN ROAD, CAMBERWELL",-37.843659,145.091424,2.0,1.0,1,$300,Rental_residential,July 2010,3124,2010,7,CAMBERWELL,300,Other,207011149
301,305,305,305,"2/28 ALLAMBEE AVENUE, CAMBERWELL",-37.835228,145.077317,2.0,1.0,1,$360_pw,Rental_residential,September 2010,3124,2010,9,CAMBERWELL,360,Other,207011149
302,306,306,306,"500 FLINDERS STREET, MELBOURNE",-37.820019,144.957827,1.0,1.0,0,$230_pw,Available Now,March 2010,3000,2010,3,MELBOURNE,230,Other,206041505
303,307,307,307,"1711/668 BOURKE STREET, MELBOURNE",-37.816897,144.953675,3.0,2.0,2,$660_pw,Available Now,April 2010,3000,2010,4,MELBOURNE,660,Other,206041505
304,309,309,309,"603/8 EXPLORATION LANE, MELBOURNE",-37.8092558,144.9683848,2.0,2.0,0,$480,Available Now,October 2010,3000,2010,10,MELBOURNE,480,Other,206041503
305,310,310,310,"1110/22-24 JANE BELL LANE, MELBOURNE",-37.81022,144.966265,1.0,1.0,1,$400_pw,none,October 2010,3000,2010,10,MELBOURNE,400,Other,206041504
306,311,311,311,"124/546 FLINDERS STREET, MELBOURNE",-37.820521,144.956143,1.0,1.0,0,$240_p.w.,none,November 2010,3000,2010,11,MELBOURNE,240,Other,206041505
307,312,312,312,"124/546 FLINDERS STREET, MELBOURNE",-37.820521,144.956143,1.0,1.0,0,$250_pw,none,November 2010,3000,2010,11,MELBOURNE,250,Other,206041505
308,313,313,313,"3305/483 SWANSTON STREET, MELBOURNE",-37.807218,144.962336,2.0,1.0,1,$550_pw,none,October 2010,3000,2010,10,MELBOURNE,550,Other,206041504
309,314,314,314,"1403/225 ELIZABETH STREET, MELBOURNE",-37.813122,144.962367,2.0,1.0,0,$500_pw,none,August 2010,3000,2010,8,MELBOURNE,500,Other,206041505
310,315,315,315,"1403/225 ELIZABETH STREET, MELBOURNE",-37.813122,144.962367,2.0,1.0,0,$540_pw,none,June 2010,3000,2010,6,MELBOURNE,540,Other,206041505
311,316,316,316,"2402/250 ELIZABETH STREET, MELBOURNE",-37.812679,144.962733,2.0,1.0,1,$600,Available Now,October 2010,3000,2010,10,MELBOURNE,600,Other,206041503
312,317,317,317,"605/455 ELIZABETH STREET, MELBOURNE",-37.808429,144.960206,2.0,1.0,0,$450_pw,none,June 2010,3000,2010,6,MELBOURNE,450,Other,206041504
313,318,318,318,"705/422 COLLINS STREET, MELBOURNE",-37.817217,144.96034,2.0,1.0,0,$450_pw,Available Now,March 2010,3000,2010,3,MELBOURNE,450,Other,206041505
314,319,319,319,"705/422 COLLINS STREET, MELBOURNE",-37.817217,144.96034,2.0,1.0,0,$400_Weekly,Available Now,March 2010,3000,2010,3,MELBOURNE,400,Other,206041505
315,320,320,320,"250 ELIZABETH STREET, MELBOURNE",-37.81278992,144.96253967,1.0,1.0,1,$480_Weekly,Available Now,December 2010,3000,2010,12,MELBOURNE,480,Other,206041503
316,321,321,321,"250 ELIZABETH STREET, MELBOURNE",-37.81278992,144.96253967,1.0,1.0,1,$470,Available Now,September 2010,3000,2010,9,MELBOURNE,470,Other,206041503
317,322,322,322,"250 ELIZABETH STREET, MELBOURNE",-37.81278992,144.96253967,1.0,1.0,1,$500_p.w.,Available Now,September 2010,3000,2010,9,MELBOURNE,500,Other,206041503
318,323,323,323,"250 ELIZABETH STREET, MELBOURNE",-37.81278992,144.96253967,1.0,1.0,1,$410_per_week,Available Now,July 2010,3000,2010,7,MELBOURNE,410,Other,206041503
319,324,324,324,"250 ELIZABETH STREET, MELBOURNE",-37.81278992,144.96253967,1.0,1.0,1,$420_per_week,Available Now,July 2010,3000,2010,7,MELBOURNE,420,Other,206041503
320,325,325,325,"250 ELIZABETH STREET, MELBOURNE",-37.81278992,144.96253967,1.0,1.0,1,$545_per_week,Available Now,July 2010,3000,2010,7,MELBOURNE,545,Other,206041503
321,326,326,326,"250 ELIZABETH STREET, MELBOURNE",-37.81278992,144.96253967,1.0,1.0,1,$400_per_week,Available Now,June 2010,3000,2010,6,MELBOURNE,400,Other,206041503
322,327,327,327,"250 ELIZABETH STREET, MELBOURNE",-37.81278992,144.96253967,1.0,1.0,1,$530_per_week,Available Now,June 2010,3000,2010,6,MELBOURNE,530,Other,206041503
323,328,328,328,"250 ELIZABETH STREET, MELBOURNE",-37.81278992,144.96253967,1.0,1.0,1,$400_pw,Available Now,May 2010,3000,2010,5,MELBOURNE,400,Other,206041503
324,329,329,329,"250 ELIZABETH STREET, MELBOURNE",-37.81278992,144.96253967,1.0,1.0,1,$420_pw,Available Now,May 2010,3000,2010,5,MELBOURNE,420,Other,206041503
325,330,330,330,"250 ELIZABETH STREET, MELBOURNE",-37.81278992,144.96253967,1.0,1.0,1,$475_pw,Available Now,April 2010,3000,2010,4,MELBOURNE,475,Other,206041503
326,331,331,331,"250 ELIZABETH STREET, MELBOURNE",-37.81278992,144.96253967,1.0,1.0,1,$525_pw,Available Now,April 2010,3000,2010,4,MELBOURNE,525,Other,206041503
327,332,332,332,"250 ELIZABETH STREET, MELBOURNE",-37.81278992,144.96253967,1.0,1.0,1,$500_pw,Available Now,February 2010,3000,2010,2,MELBOURNE,500,Other,206041503
328,333,333,333,"250 ELIZABETH STREET, MELBOURNE",-37.81278992,144.96253967,1.0,1.0,1,$530_pw,Available Now,February 2010,3000,2010,2,MELBOURNE,530,Other,206041503
329,334,334,334,"250 ELIZABETH STREET, MELBOURNE",-37.81278992,144.96253967,1.0,1.0,1,$520_pw,Available Now,February 2010,3000,2010,2,MELBOURNE,520,Other,206041503
330,335,335,335,"250 ELIZABETH STREET, MELBOURNE",-37.81278992,144.96253967,1.0,1.0,1,$420_pw,Available Now,January 2010,3000,2010,1,MELBOURNE,420,Other,206041503
331,336,336,336,"250 ELIZABETH STREET, MELBOURNE",-37.81278992,144.96253967,1.0,1.0,1,$525_pw,Available Now,January 2010,3000,2010,1,MELBOURNE,525,Other,206041503
332,337,337,337,"250 ELIZABETH STREET, MELBOURNE",-37.81278992,144.96253967,1.0,1.0,1,$520_pw,Available Now,January 2010,3000,2010,1,MELBOURNE,520,Other,206041503
333,338,338,338,"250 ELIZABETH STREET, MELBOURNE",-37.81278992,144.96253967,1.0,1.0,1,$410_pw,Available Now,January 2010,3000,2010,1,MELBOURNE,410,Other,206041503
334,339,339,339,"250 ELIZABETH STREET, MELBOURNE",-37.81278992,144.96253967,1.0,1.0,1,$400_pw,Available Now,January 2010,3000,2010,1,MELBOURNE,400,Other,206041503
335,340,340,340,"603/25-33 WILLS STREET, MELBOURNE",-37.810743,144.956997,1.0,1.0,0,$390,Available Now,November 2010,3000,2010,11,MELBOURNE,390,Other,206041504
336,341,341,341,"603/25-33 WILLS STREET, MELBOURNE",-37.810743,144.956997,1.0,1.0,0,$400,Available Now,November 2010,3000,2010,11,MELBOURNE,400,Other,206041504
337,342,342,342,"603/25-33 WILLS STREET, MELBOURNE",-37.810743,144.956997,1.0,1.0,0,$400,Available Now,October 2010,3000,2010,10,MELBOURNE,400,Other,206041504
338,343,343,343,"6B/131 LONSDALE STREET, MELBOURNE",-37.810713,144.968409,1.0,1.0,0,$350,none,July 2010,3000,2010,7,MELBOURNE,350,Other,206041503
339,344,344,344,"200 SPENCER STREET, MELBOURNE",-37.81613541,144.95289612,2.0,2.0,1,$400_pw,none,April 2010,3000,2010,4,MELBOURNE,400,Other,206041505
340,345,345,345,"200 SPENCER STREET, MELBOURNE",-37.81613541,144.95289612,2.0,2.0,1,$450_pw,none,February 2010,3000,2010,2,MELBOURNE,450,Other,206041505
341,346,346,346,"812/29-31 MARKET STREET, MELBOURNE",-37.818652,144.960479,2.0,2.0,0,$550_pw,Available Now,November 2010,3000,2010,11,MELBOURNE,550,Other,206041505
342,347,347,347,"2803/483 SWANSTON STREET, MELBOURNE",-37.807218,144.962336,2.0,1.0,0,$550_pw,none,February 2010,3000,2010,2,MELBOURNE,550,Other,206041504
343,348,348,348,"1108/68 LA TROBE STREET, MELBOURNE",-37.809552,144.9617995,2.0,1.0,1,$500_per_week,none,November 2010,3000,2010,11,MELBOURNE,500,Other,206041504
344,349,349,349,"10/17 QUEENS ROAD, MELBOURNE",-37.818427,144.9621,1.0,1.0,1,$360_per_week,none,July 2010,3000,2010,7,MELBOURNE,360,Other,206041505
345,350,350,350,"3 WENTWORTH ROAD, MELTON SOUTH",-37.713127,144.568503,3.0,1.0,5,$220_per_week,House,January 2010,3338,2010,1,SOUTH,220,House,213041578
346,351,351,351,"2 WILSON ROAD, MELTON SOUTH",-37.708944,144.57278,3.0,1.0,2,$240_Weekly,House,June 2010,3338,2010,6,SOUTH,240,House,213041578
347,352,352,352,"11 LINCOLN WAY, MELTON WEST",-37.672746,144.558418,4.0,2.0,3,$265,House,September 2010,3337,2010,9,WEST,265,House,213041358
348,353,353,353,"1 STATON CRESCENT, MELTON WEST",-37.681347,144.541885,4.0,2.0,4,$335_p.w.,House,September 2010,3337,2010,9,WEST,335,House,213041358
349,354,354,354,"1 STATON CRESCENT, MELTON WEST",-37.681347,144.541885,4.0,2.0,4,$320,House,September 2010,3337,2010,9,WEST,320,House,213041358
350,355,355,355,"1 JOAN STREET, MELTON",-37.687138,144.574592,3.0,1.0,4,$210_per_week,House,February 2010,3337,2010,2,MELTON,210,House,213041577
351,356,356,356,"1 JOAN STREET, MELTON",-37.687138,144.574592,3.0,1.0,4,$210_per_week,House,January 2010,3337,2010,1,MELTON,210,House,213041577
352,357,357,357,"9 WESTMILL VISTA, MELTON",-37.686721,144.555458,2.0,1.0,1,$230_per_week,House,January 2010,3337,2010,1,MELTON,230,House,213041358
353,358,358,358,"5 ESSEX DRIVE, MELTON",-37.679341,144.586785,3.0,1.0,1,$250_per_week,Rental_residential,January 2010,3337,2010,1,MELTON,250,Other,213041577
354,359,359,359,"32 LAKEWOOD BOULEVARD, MELTON",-37.690675,144.587912,3.0,2.0,2,$300_p.w.,House,May 2010,3337,2010,5,MELTON,300,House,213041577
355,360,360,360,"80 LAKEWOOD BOULEVARD, MELTON",-37.6887863,144.588889,3.0,2.0,2,$260_per_week,House,July 2010,3337,2010,7,MELTON,260,House,213041577
356,361,361,361,"27 MARINA DRIVE, MELTON",-37.677741,144.582131,3.0,1.0,1,$245_p.w.,House,May 2010,3337,2010,5,MELTON,245,House,213041577
357,362,362,362,"8 HUDSON PLACE, MELTON",-37.678256,144.584394,3.0,1.0,2,$270_per_week,House,January 2010,3337,2010,1,MELTON,270,House,213041577
358,363,363,363,"43 HENRY STREET, MELTON",-37.686111,144.58076,3.0,1.0,1,$255_per_week,House,August 2010,3337,2010,8,MELTON,255,House,213041577
359,364,364,364,"56 BARRIES ROAD, MELTON",-37.688408,144.575932,3.0,2.0,1,$220_per_week,House,February 2010,3337,2010,2,MELTON,220,House,213041577
360,365,365,365,"56 BARRIES ROAD, MELTON",-37.688408,144.575932,3.0,2.0,1,$220_per_week,House,January 2010,3337,2010,1,MELTON,220,House,213041577
361,366,366,366,"3 CARINA DRIVE, MELTON",-37.682315,144.5689481,3.0,1.0,1,$235_p.w.,Available Now,July 2010,3337,2010,7,MELTON,235,Other,213041577
362,367,367,367,"506 HIGH STREET, MELTON",-37.683826,144.569264,3.0,1.0,1,$240_per_week,House,December 2010,3337,2010,12,MELTON,240,House,213041577
363,368,368,368,"23 PLOVER STREET, MELTON",-37.677741,144.573378,3.0,2.0,2,$210_Weekly,none,February 2010,3337,2010,2,MELTON,210,Other,213041577
364,369,369,369,"23 PLOVER STREET, MELTON",-37.677741,144.573378,3.0,2.0,2,$210_pw,none,January 2010,3337,2010,1,MELTON,210,Other,213041577
365,370,370,370,"21 QUAIL CRESCENT, MELTON",-37.679384,144.572241,4.0,1.0,1,$255_per_week,House,December 2010,3337,2010,12,MELTON,255,House,213041577
366,371,371,371,"8 FALCON DRIVE, MELTON",-37.674332,144.575417,3.0,1.0,3,$210_pw,none,June 2010,3337,2010,6,MELTON,210,Other,213041577
367,372,372,372,"13 JOAN STREET, MELTON",-37.68609,144.574467,3.0,1.0,2,$240_per_week,House,February 2010,3337,2010,2,MELTON,240,House,213041577
368,373,373,373,"9/20-24 PALMERSTON STREET, MELTON",-37.688049,144.584038,3.0,1.0,1,$290_p.w.,Rental_residential,December 2010,3337,2010,12,MELTON,290,Other,213041577
369,374,374,374,"49 TERN COURT, MELTON",-37.676632,144.571136,3.0,1.0,2,$250_per_week,House,January 2010,3337,2010,1,MELTON,250,House,213041577
370,375,375,375,"495 BOGGY CREEK ROAD, MELWOOD",-37.746807,147.500503,3.0,1.0,3,$240_Weekly,none,July 2010,3875,2010,7,MELWOOD,240,Other,205021082
371,376,376,376,"495 BOGGY CREEK ROAD, MELWOOD",-37.746807,147.500503,3.0,1.0,3,$190_Weekly,none,June 2010,3875,2010,6,MELWOOD,190,Other,205021082
372,377,377,377,"29B SWANSTON STREET, MENTONE",-37.978348,145.065913,3.0,1.0,1,$470_pw,Available Now,November 2010,3194,2010,11,MENTONE,470,Other,208031190
373,378,378,378,"29B SWANSTON STREET, MENTONE",-37.978348,145.065913,3.0,1.0,1,$470,Available Now,October 2010,3194,2010,10,MENTONE,470,Other,208031190
374,379,379,379,"29B SWANSTON STREET, MENTONE",-37.978348,145.065913,3.0,1.0,1,$485_pw,Available Now,October 2010,3194,2010,10,MENTONE,485,Other,208031190
375,380,380,380,"29B SWANSTON STREET, MENTONE",-37.978348,145.065913,3.0,1.0,1,$460_per_week,Available Now,April 2010,3194,2010,4,MENTONE,460,Other,208031190
376,381,381,381,"29B SWANSTON STREET, MENTONE",-37.978348,145.065913,3.0,1.0,1,$420_per_week,Available Now,January 2010,3194,2010,1,MENTONE,420,Other,208031190
377,382,382,382,"4/28 OLIVE GROVE, MENTONE",-37.984026,145.079586,2.0,1.0,1,$400_per_week,Rental_residential,July 2010,3194,2010,7,MENTONE,400,Other,208031193
378,383,383,383,"4/28 OLIVE GROVE, MENTONE",-37.984026,145.079586,2.0,1.0,1,$450_per_week,Rental_residential,June 2010,3194,2010,6,MENTONE,450,Other,208031193
379,384,384,384,"4/28 OLIVE GROVE, MENTONE",-37.984026,145.079586,2.0,1.0,1,$475_per_week,Rental_residential,June 2010,3194,2010,6,MENTONE,475,Other,208031193
380,385,385,385,"1/7 PALERMO STREET, MENTONE",-37.990339,145.066493,2.0,1.0,1,$350_pw,Rental_residential,July 2010,3194,2010,7,MENTONE,350,Other,208031190
381,386,386,386,"2/133 NEPEAN HIGHWAY, MENTONE",-37.981954,145.072334,3.0,1.0,1,$320_pw,none,March 2010,3194,2010,3,MENTONE,320,Other,208031190
382,387,387,387,"14/70 BEACH ROAD, MENTONE",-37.988562,145.059898,2.0,1.0,1,$270_pw,Available Now,August 2010,3194,2010,8,MENTONE,270,Other,208031190
383,388,388,388,"14/70 BEACH ROAD, MENTONE",-37.988562,145.059898,2.0,1.0,1,$270_pw,Available Now,July 2010,3194,2010,7,MENTONE,270,Other,208031190
384,389,389,389,"5/14 VENICE STREET, MENTONE",-37.986091,145.061693,1.0,1.0,0,$250_per_week,none,October 2010,3194,2010,10,MENTONE,250,Other,208031190
385,390,390,390,"1/56 BALCOMBE ROAD, MENTONE",-37.981442,145.067602,4.0,2.0,2,$495_per_week,Rental_residential,April 2010,3194,2010,4,MENTONE,495,Other,208031190
386,391,391,391,"157 LOWER DANDENONG ROAD, MENTONE",-37.98388,145.088201,3.0,1.0,3,$340_pw,House,May 2010,3194,2010,5,MENTONE,340,House,208031190
387,392,392,392,"8 / 45 VENICE STREET, MENTONE",-37.985708,145.06118,2.0,1.0,1,$295_per_week,none,October 2010,3194,2010,10,MENTONE,295,Other,208031190
388,393,393,393,"162 BALCOMBE ROAD, MENTONE",-37.980724,145.061653,3.0,1.0,2,$480_pw,none,October 2010,3194,2010,10,MENTONE,480,Other,208031190
389,394,394,394,"162 BALCOMBE ROAD, MENTONE",-37.980724,145.061653,3.0,1.0,2,$480_pw,none,May 2010,3194,2010,5,MENTONE,480,Other,208031190
390,395,395,395,"5/84 LATROBE STREET, MENTONE",-37.974858,145.062925,1.0,1.0,1,$250_per_week,none,July 2010,3194,2010,7,MENTONE,250,Other,208031190
391,396,396,396,"5/61 MILAN STREET, MENTONE",-37.982911,145.06015,2.0,1.0,1,$350,Rental_residential,December 2010,3194,2010,12,MENTONE,350,Other,208031190
392,397,397,397,"5/5 STATION STREET, MENTONE",-37.98222351,145.06625366,1.0,1.0,1,$250_pw,Rental_residential,April 2010,3194,2010,4,MENTONE,250,Other,208031190
393,398,398,398,"15/173 BALCOMBE ROAD, MENTONE",-37.98028,145.055356,1.0,1.0,1,$250,none,October 2010,3194,2010,10,MENTONE,250,Other,208031190
394,399,399,399,"15/173 BALCOMBE ROAD, MENTONE",-37.98028,145.055356,1.0,1.0,1,$250_pw,none,March 2010,3194,2010,3,MENTONE,250,Other,208031190
395,400,400,400,"18/30 MENTONE PARADE, MENTONE",-37.990008,145.065064,1.0,1.0,1,$250_pw,Rental_residential,March 2010,3194,2010,3,MENTONE,250,Other,208031190
396,401,401,401,"11/30 SWANSTON STREET, MENTONE",-37.980014,145.065599,1.0,1.0,1,$220_per_week,Rental_residential,March 2010,3194,2010,3,MENTONE,220,Other,208031190
397,402,402,402,"10/30 SWANSTON STREET, MENTONE",-37.978423,145.066382,1.0,1.0,1,$230_per_week,Rental_residential,May 2010,3194,2010,5,MENTONE,230,Other,208031190
398,403,403,403,"4/41 PATTY STREET, MENTONE",-37.9773015,145.058474,3.0,1.0,1,$435_per_week,Rental_residential,April 2010,3194,2010,4,MENTONE,435,Other,208031190
399,404,404,404,"7 TEAGUE AVENUE, MENTONE",-37.978533,145.063247,4.0,3.0,4,$475_pw,House,September 2010,3194,2010,9,MENTONE,475,House,208031190
400,405,405,405,"7 TEAGUE AVENUE, MENTONE",-37.978533,145.063247,4.0,3.0,4,$600_pw,House,September 2010,3194,2010,9,MENTONE,600,House,208031190
401,406,406,406,"15/6 ANDERSON COURT, MENTONE",-37.978794,145.060429,1.0,1.0,1,$245_pw,Rental_residential,December 2010,3194,2010,12,MENTONE,245,Other,208031190
402,407,407,407,"15/6 ANDERSON COURT, MENTONE",-37.978794,145.060429,1.0,1.0,1,$250,Rental_residential,December 2010,3194,2010,12,MENTONE,250,Other,208031190
403,408,408,408,"15/6 ANDERSON COURT, MENTONE",-37.978794,145.060429,1.0,1.0,1,$250_per_week,Rental_residential,March 2010,3194,2010,3,MENTONE,250,Other,208031190
404,409,409,409,"21 OLD MENZIES CREEK ROAD, MENZIES CREEK",-37.927259,145.386538,3.0,1.0,2,$310_pw,House,September 2010,3159,2010,9,CREEK,310,House,211051274
405,410,410,410,"31 MENZIES ROAD, MENZIES CREEK",-37.921961,145.411728,3.0,1.0,2,$280_p.w.,House,June 2010,3159,2010,6,CREEK,280,House,211051274
406,411,411,411,"14 BLACKHILL ROAD, MENZIES CREEK",-37.913803,145.398344,4.0,2.0,4,$350,House,October 2010,3159,2010,10,CREEK,350,House,211051274
407,412,412,412,"125C SEVENTH STREET, MERBEIN SOUTH",-34.2045981,142.0387241,4.0,2.0,2,$270_pw,House,September 2010,3505,2010,9,SOUTH,270,House,215021396
408,413,413,413,"216 SHEOAK AVENUE, MERBEIN SOUTH",-34.243444,142.063989,3.0,1.0,2,$155_per_week,House,April 2010,3505,2010,4,SOUTH,155,House,215021398
409,414,414,414,"94 CHAFFEY STREET, MERBEIN",-34.1677452,142.0692196,3.0,1.0,2,$220_per_week,House,August 2010,3505,2010,8,MERBEIN,220,House,215021396
410,416,416,416,"11 GREIG DRIVE, MERNDA",-37.589777,145.099407,4.0,2.0,2,$480,none,October 2010,3754,2010,10,MERNDA,480,Other,209041531
411,417,417,417,"33 SUNNYBRAE DRIVE, MERNDA",-37.609549,145.083906,4.0,2.0,2,$320_p.w.,House,April 2010,3754,2010,4,MERNDA,320,House,209041532
412,418,418,418,"10 HOPKINS STREET, MERNDA",-37.61316,145.094706,3.0,2.0,2,$320_p.w.,House,July 2010,3754,2010,7,MERNDA,320,House,209041532
413,419,419,419,"10 HOPKINS STREET, MERNDA",-37.61316,145.094706,3.0,2.0,2,$330_per_week,House,May 2010,3754,2010,5,MERNDA,330,House,209041532
414,420,420,420,"3 GELLIBRAND WALK, MERNDA",-37.613174,145.093796,3.0,1.0,2,$320_per_week,Townhouse,October 2010,3754,2010,10,MERNDA,320,House,209041532
415,422,422,422,"178 WAVERLEY AVENUE, MERRIGUM",-36.36638,145.131589,3.0,1.0,2,$160,House,December 2010,3618,2010,12,MERRIGUM,160,House,216031419
416,423,423,423,"178 WAVERLEY AVENUE, MERRIGUM",-36.36638,145.131589,3.0,1.0,2,$160_per_week,House,July 2010,3618,2010,7,MERRIGUM,160,House,216031419
417,424,424,424,"178 WAVERLEY AVENUE, MERRIGUM",-36.36638,145.131589,3.0,1.0,2,$160_per_week,House,June 2010,3618,2010,6,MERRIGUM,160,House,216031419
418,425,425,425,"178 WAVERLEY AVENUE, MERRIGUM",-36.36638,145.131589,3.0,1.0,2,$160_per_week,House,March 2010,3618,2010,3,MERRIGUM,160,House,216031419
419,426,426,426,"380 ANDREWS ROAD, MERRIGUM",-36.37244,145.117317,3.0,1.0,1,$150_per_week,House,June 2010,3618,2010,6,MERRIGUM,150,House,216031419
420,427,427,427,"665 BYRNESIDE RD, MERRIGUM",-36.3898353,145.1319465,3.0,2.0,3,$180_per_week,none,January 2010,3618,2010,1,MERRIGUM,180,Other,216031419
421,428,428,428,"1670 HEATHCOTE-REDESDALE ROAD, MIA MIA",-37.0007095,144.5707348,3.0,2.0,0,$240_pw,House,January 2010,3444,2010,1,MIA,240,House,202021029
422,429,429,429,"211 RICHARDSON STREET, MIDDLE PARK",-37.849191,144.96162,3.0,2.0,0,$850_per_week,none,January 2010,3206,2010,1,PARK,850,Other,206051128
423,430,430,430,"6/28 PATTERSON STREET, MIDDLE PARK",-37.854557,144.964909,2.0,2.0,1,$320_pw,Rental_residential,July 2010,3206,2010,7,PARK,320,Other,206051128
424,431,431,431,"64/189 BEACONSFIELD PARADE, MIDDLE PARK",-37.851526,144.956867,1.0,1.0,1,$375_pw,none,January 2010,3206,2010,1,PARK,375,Other,206051128
425,432,432,432,"5/28 PATTERSON STREET, MIDDLE PARK",-37.854557,144.964909,1.0,1.0,1,$270_pw,Rental_residential,May 2010,3206,2010,5,PARK,270,Other,206051128
426,433,433,433,"20 NIMMO STREET, MIDDLE PARK",-37.849433,144.962482,3.0,1.0,0,$525_per_week,House,November 2010,3206,2010,11,PARK,525,House,206051128
427,434,434,434,"112 NEVILLE STREET, MIDDLE PARK",-37.850954,144.962638,3.0,2.0,0,$430_pw,Townhouse,February 2010,3206,2010,2,PARK,430,House,206051128
428,435,435,435,"209 ASHWORTH STREET, MIDDLE PARK",-37.854827,144.964899,2.0,1.0,1,$495,Townhouse,October 2010,3206,2010,10,PARK,495,House,206051128
429,436,436,436,"209 ASHWORTH STREET, MIDDLE PARK",-37.854827,144.964899,2.0,1.0,1,$495_pw,Townhouse,June 2010,3206,2010,6,PARK,495,House,206051128
430,437,437,437,"209 ASHWORTH STREET, MIDDLE PARK",-37.854827,144.964899,2.0,1.0,1,$500_pw,Townhouse,June 2010,3206,2010,6,PARK,500,House,206051128
431,438,438,438,"172 CANTERBURY ROAD, MIDDLE PARK",-37.853158,144.969079,2.0,1.0,0,$395_per_week,House,March 2010,3206,2010,3,PARK,395,House,206051128
432,439,439,439,"141 RICHARDSON STREET, MIDDLE PARK",-37.847393,144.958163,3.0,1.0,3,$680_pw,House,March 2010,3206,2010,3,PARK,680,House,206051128
433,440,440,440,"141 RICHARDSON STREET, MIDDLE PARK",-37.847393,144.958163,3.0,1.0,3,$720_pw,House,March 2010,3206,2010,3,PARK,720,House,206051128
434,441,441,441,"141 RICHARDSON STREET, MIDDLE PARK",-37.847393,144.958163,3.0,1.0,3,$720_pw,House,February 2010,3206,2010,2,PARK,720,House,206051128
435,443,443,443,"70 HAMBLETON STREET, MIDDLE PARK",-37.846848,144.959062,3.0,2.0,0,$775_per_week,Rental_residential,February 2010,3206,2010,2,PARK,775,Other,206051128
436,444,444,444,"9/200 BEACONSFIELD PARADE, MIDDLE PARK",-37.851917,144.957617,2.0,1.0,1,$330_per_week,Rental_residential,February 2010,3206,2010,2,PARK,330,Other,206051128
437,445,445,445,"1/61 CANTERBURY ROAD, MIDDLE PARK",-37.847396,144.962504,2.0,1.0,0,$330,Rental_residential,December 2010,3206,2010,12,PARK,330,Other,206051128
438,446,446,446,"1/61 CANTERBURY ROAD, MIDDLE PARK",-37.847396,144.962504,2.0,1.0,0,$375_pw,Rental_residential,November 2010,3206,2010,11,PARK,375,Other,206051128
439,447,447,447,"94/195 BEACONSFIELD PARADE, MIDDLE PARK",-37.851704,144.957316,1.0,1.0,1,$365_per_week,Unit,June 2010,3206,2010,6,PARK,365,Apartment,206051128
440,448,448,448,"3/227 PAGE STREET, MIDDLE PARK",-37.851964,144.964015,1.0,1.0,1,$275_per_week,Unit,July 2010,3206,2010,7,PARK,275,Apartment,206051128
441,449,449,449,"250 RICHARDSON STREET, MIDDLE PARK",-37.849735,144.961712,2.0,1.0,0,$665_pw,House,August 2010,3206,2010,8,PARK,665,House,206051128
442,450,450,450,"250 RICHARDSON STREET, MIDDLE PARK",-37.849735,144.961712,2.0,1.0,0,$665_pw,House,July 2010,3206,2010,7,PARK,665,House,206051128
443,451,451,451,"250 RICHARDSON STREET, MIDDLE PARK",-37.849735,144.961712,2.0,1.0,0,$680_pw,House,July 2010,3206,2010,7,PARK,680,House,206051128
444,452,452,452,"23 WRIGHT STREET, MIDDLE PARK",-37.84669,144.96075,3.0,3.0,1,$470_pw,none,November 2010,3206,2010,11,PARK,470,Other,206051128
445,453,453,453,"84 NEVILLE STREET, MIDDLE PARK",-37.84998,144.960921,2.0,1.0,0,$570,none,December 2010,3206,2010,12,PARK,570,Other,206051128
446,454,454,454,"158 NEVILLE STREET, MIDDLE PARK",-37.852742,144.965721,2.0,1.0,0,$500,Rental_residential,January 2010,3206,2010,1,PARK,500,Other,206051128
447,455,455,455,"204 RICHARDSON STREET, MIDDLE PARK",-37.848215,144.958765,2.0,1.0,1,$690_pw,Rental_residential,January 2010,3206,2010,1,PARK,690,Other,206051128
448,456,456,456,"133 ASHWORTH STREET, MIDDLE PARK",-37.851168,144.957581,3.0,2.0,1,$760_per_week,Rental_residential,February 2010,3206,2010,2,PARK,760,Other,206051128
449,457,457,457,"42 PARK ROAD, MIDDLE PARK",-37.853968,144.966267,2.0,1.0,1,$565_pw,Rental_residential,December 2010,3206,2010,12,PARK,565,Other,206051128
450,458,458,458,"42 PARK ROAD, MIDDLE PARK",-37.853968,144.966267,2.0,1.0,1,$565_pw,Rental_residential,November 2010,3206,2010,11,PARK,565,Other,206051128
451,459,459,459,"3/225 BEACONSFIELD PARADE, MIDDLE PARK",-37.85359,144.960535,2.0,2.0,1,$550_per_week,none,July 2010,3206,2010,7,PARK,550,Other,206051128
452,460,460,460,"3/225 BEACONSFIELD PARADE, MIDDLE PARK",-37.85359,144.960535,2.0,2.0,1,$550_per_week,none,June 2010,3206,2010,6,PARK,550,Other,206051128
453,461,461,461,"3/225 BEACONSFIELD PARADE, MIDDLE PARK",-37.85359,144.960535,2.0,2.0,1,$595_per_week,none,May 2010,3206,2010,5,PARK,595,Other,206051128
454,462,462,462,"6/109 CANTERBURY ROAD, MIDDLE PARK",-37.850255,144.965376,2.0,2.0,2,$525_pw,Rental_residential,March 2010,3206,2010,3,PARK,525,Other,206051128
455,463,463,463,"25/109 NIMMO STREET, MIDDLE PARK",-37.852473,144.960602,1.0,1.0,0,$355_per_week,none,August 2010,3206,2010,8,PARK,355,Other,206051128
456,464,464,464,"6/307 RICHARDSON STREET, MIDDLE PARK",-37.852239,144.966849,1.0,1.0,1,$395_per_week,Rental_residential,June 2010,3206,2010,6,PARK,395,Other,206051128
457,465,465,465,"4/72 PATTERSON STREET, MIDDLE PARK",-37.85546112,144.96662903,1.0,1.0,1,$270_per_week,Rental_residential,June 2010,3206,2010,6,PARK,270,Other,206051128
458,466,466,466,"4/72 PATTERSON STREET, MIDDLE PARK",-37.85546112,144.96662903,1.0,1.0,1,$270_per_week,Rental_residential,May 2010,3206,2010,5,PARK,270,Other,206051128
459,467,467,467,"3/109 NIMMO STREET, MIDDLE PARK",-37.852473,144.960602,2.0,1.0,0,$420_pw,Available Now,May 2010,3206,2010,5,PARK,420,Other,206051128
460,468,468,468,"3/51 NIMMO STREET, MIDDLE PARK",-37.850501,144.962039,2.0,1.0,1,$430_per_week,none,March 2010,3206,2010,3,PARK,430,Other,206051128
461,469,469,469,"11/28 PARK ROAD, MIDDLE PARK",-37.853567,144.965505,1.0,1.0,1,$325_per_week,Rental_residential,January 2010,3206,2010,1,PARK,325,Other,206051128
462,470,470,470,"10/72 PATTERSON STREET, MIDDLE PARK",-37.855462,144.966635,1.0,1.0,1,$300_pw,none,November 2010,3206,2010,11,PARK,300,Other,206051128
463,471,471,471,"201 ASHWORTH STREET, MIDDLE PARK",-37.854728,144.964601,3.0,1.0,0,$620_pw,Townhouse,April 2010,3206,2010,4,PARK,620,House,206051128
464,472,472,472,"10 ERSKINE STREET, MIDDLE PARK",-37.847135,144.958428,3.0,1.0,1,$720_pw,House,January 2010,3206,2010,1,PARK,720,House,206051128
465,473,473,473,"98 HAROLD STREET, MIDDLE PARK",-37.851294,144.958635,2.0,1.0,0,$615_per_week,House,October 2010,3206,2010,10,PARK,615,House,206051128
466,474,474,474,"12/225 BEACONSFIELD PARADE, MIDDLE PARK",-37.85359,144.960535,2.0,2.0,1,$495_pw,Rental_residential,March 2010,3206,2010,3,PARK,495,Other,206051128
467,475,475,475,"3/41 PARK ROAD, MIDDLE PARK",-37.853422,144.966241,2.0,2.0,2,$600_pw,Rental_residential,February 2010,3206,2010,2,PARK,600,Other,206051128
468,476,476,476,"230 RICHARDSON STREET, MIDDLE PARK",-37.848858,144.960031,2.0,1.0,0,$820_pw,Rental_residential,October 2010,3206,2010,10,PARK,820,Other,206051128
469,477,477,477,"5/187 BEACONSFIELD PARADE, MIDDLE PARK",-37.851255,144.956318,1.0,1.0,1,$395_per_week,none,March 2010,3206,2010,3,PARK,395,Other,206051128
470,479,479,479,"129 NEVILLE STREET, MIDDLE PARK",-37.851477,144.964237,3.0,2.0,1,$675_pw,House,July 2010,3206,2010,7,PARK,675,House,206051128
471,480,480,480,"301 RICHARDSON STREET, MIDDLE PARK",-37.852055,144.966626,3.0,2.0,1,$950_pw,House,January 2010,3206,2010,1,PARK,950,House,206051128
472,481,481,481,"368 DANKS STREET, MIDDLE PARK",-37.852826,144.961684,2.0,1.0,0,$560_per_week,House,April 2010,3206,2010,4,PARK,560,House,206051128
473,482,482,482,"3 WRIGHT STREET, MIDDLE PARK",-37.846193,144.961173,2.0,1.0,1,$395_pw,House,June 2010,3206,2010,6,PARK,395,House,206051128
474,483,483,483,"85A CARTER STREET, MIDDLE PARK",-37.84694,144.961375,2.0,1.0,0,$435,House,October 2010,3206,2010,10,PARK,435,House,206051128
475,484,484,484,"421 MILAWA-BOBINAWARRAH ROAD, MILAWA",-36.4773873,146.4266275,4.0,2.0,2,$300_per_week,Residential,October 2010,3678,2010,10,MILAWA,300,Other,204021067
476,485,485,485,"5/7 MILAWA- BOBINAWARRAH ROAD, MILAWA",-36.4759144,146.4268577,2.0,1.0,2,$200_per_week,none,October 2010,3678,2010,10,MILAWA,200,Other,204021067
477,486,486,486,"5/7 MILAWA- BOBINAWARRAH ROAD, MILAWA",-36.4759144,146.4268577,2.0,1.0,2,$200_per_week,none,November 2010,3678,2010,11,MILAWA,200,Other,204021067
478,487,487,487,"4A THIRTEENTH STREET, MILDURA EAST",-34.200116,142.163296,1.0,1.0,0,$120_pw,none,July 2010,3500,2010,7,EAST,120,Other,215021469
479,488,488,488,"4 THIRTEENTH STREET, MILDURA EAST",-34.200116,142.163296,3.0,1.0,2,$190,House,September 2010,3500,2010,9,EAST,190,House,215021469
480,489,489,489,"4 THIRTEENTH STREET, MILDURA EAST",-34.200116,142.163296,3.0,1.0,2,$190_pw,House,July 2010,3500,2010,7,EAST,190,House,215021469
481,490,490,490,"76 SAN MATEO AVENUE, MILDURA EAST",-34.190319,142.166762,3.0,1.0,2,$245_p.w.,House,August 2010,3500,2010,8,EAST,245,House,215021469
482,491,491,491,"187 WHITECLIFF AVENUE, MILDURA SOUTH",-34.241984,142.071341,4.0,2.0,2,$290_pw,House,November 2010,3500,2010,11,SOUTH,290,House,215021398
483,492,492,492,"4 SEBASTIAN COURT, MILDURA WEST",-34.1923564,142.1354569,3.0,1.0,2,$240_p.w.,House,December 2010,3500,2010,12,WEST,240,House,215021470
484,493,493,493,"32 JUDE AVENUE, MILDURA WEST",-34.177624,142.147733,3.0,1.0,2,$210_pw,House,October 2010,3500,2010,10,WEST,210,House,215021469
485,494,494,494,"3 MATOTEK COURT, MILDURA",-34.203513,142.138114,3.0,2.0,2,$270_per_week,House,September 2010,3500,2010,9,MILDURA,270,House,215021470
486,495,495,495,"3 MATOTEK COURT, MILDURA",-34.203513,142.138114,3.0,2.0,2,$270_per_week,House,August 2010,3500,2010,8,MILDURA,270,House,215021470
487,496,496,496,"1/32 PLANTATION STREET, MILDURA",-34.203585,142.136346,2.0,1.0,2,$200_per_week,House,July 2010,3500,2010,7,MILDURA,200,House,215021470
488,497,497,497,"11 MATOTEK COURT, MILDURA",-34.203588,142.138517,4.0,2.0,2,$270_per_week,House,November 2010,3500,2010,11,MILDURA,270,House,215021470
489,498,498,498,"11 MATOTEK COURT, MILDURA",-34.203588,142.138517,4.0,2.0,2,$250_per_week,House,November 2010,3500,2010,11,MILDURA,250,House,215021470
490,499,499,499,"4/2 CAMERON AVENUE, MILDURA",-34.182067,142.150982,2.0,1.0,1,$140_pw,Unit,January 2010,3500,2010,1,MILDURA,140,Apartment,215021469
491,500,500,500,"14 TARELLA COURT, MILDURA",-34.168144,142.151057,3.0,1.0,4,$215_Weekly,Rental_residential,May 2010,3500,2010,5,MILDURA,215,Other,215021469
492,501,501,501,"176 WALNUT AVENUE, MILDURA",-34.186143,142.151655,3.0,2.0,1,$270_per_week,none,July 2010,3500,2010,7,MILDURA,270,Other,215021469
493,502,502,502,"176 WALNUT AVENUE, MILDURA",-34.186143,142.151655,3.0,2.0,1,$260_per_week,none,March 2010,3500,2010,3,MILDURA,260,Other,215021469
494,503,503,503,"4/124 THIRTEENTH STREET, MILDURA",-34.192858,142.154618,2.0,1.0,2,$140_per_week,Rental_residential,May 2010,3500,2010,5,MILDURA,140,Other,215021469
495,504,504,504,"108 LEMON AVENUE, MILDURA",-34.190139,142.163171,2.0,1.0,2,$205_pw,House,November 2010,3500,2010,11,MILDURA,205,House,215021469
496,505,505,505,"2/3 EILEEN STREET, MILDURA",-34.206123,142.138747,2.0,1.0,1,$135,none,April 2010,3500,2010,4,MILDURA,135,Other,215021470
497,506,506,506,"2/3 EILEEN STREET, MILDURA",-34.206123,142.138747,2.0,1.0,1,$135_per_week,none,March 2010,3500,2010,3,MILDURA,135,Other,215021470
498,507,507,507,"4 PLANT COURT, MILDURA",-34.204522,142.137103,3.0,2.0,2,$270_pw,none,April 2010,3500,2010,4,MILDURA,270,Other,215021470
499,508,508,508,"12/280 TENTH STREET, MILDURA",-34.17703,142.146402,2.0,1.0,1,$175_per_week,Rental_residential,October 2010,3500,2010,10,MILDURA,175,Other,215021469
500,509,509,509,"9 MARY AVENUE, MILDURA",-34.199547,142.150833,3.0,2.0,1,$220_per_week,House,August 2010,3500,2010,8,MILDURA,220,House,215021469
501,510,510,510,"138 LEMON AVENUE, MILDURA",-34.191289,142.161779,3.0,1.0,3,$210_per_week,House,September 2010,3500,2010,9,MILDURA,210,House,215021469
502,511,511,511,"134 ORANGE AVENUE, MILDURA",-34.190324,142.160935,3.0,2.0,2,$185_per_week,none,September 2010,3500,2010,9,MILDURA,185,Other,215021469
503,512,512,512,"4/529 WALNUT AVENUE, MILDURA",-34.206973,142.125127,3.0,2.0,2,$280_per_week,House,July 2010,3500,2010,7,MILDURA,280,House,215021470
504,513,513,513,"4/225 WOODHAM AVENUE, MILDURA",-34.193944,142.153472,2.0,1.0,1,$140,House,April 2010,3500,2010,4,MILDURA,140,House,215021469
505,514,514,514,"4/225 WOODHAM AVENUE, MILDURA",-34.193944,142.153472,2.0,1.0,1,$145_per_week,House,March 2010,3500,2010,3,MILDURA,145,House,215021469
506,515,515,515,"15/257 NINTH STREET, MILDURA",-34.175816,142.147684,3.0,1.0,2,$215_per_week,Townhouse,August 2010,3500,2010,8,MILDURA,215,House,215021469
507,516,516,516,"3/43 OLIVE AVENUE, MILDURA",-34.181349,142.158548,2.0,1.0,1,$225,House,July 2010,3500,2010,7,MILDURA,225,House,215021469
508,517,517,517,"3/43 OLIVE AVENUE, MILDURA",-34.181349,142.158548,2.0,1.0,1,$225_per_week,House,April 2010,3500,2010,4,MILDURA,225,House,215021469
509,518,518,518,"3 WANERA WAY, MILDURA",-34.169908,142.15599,4.0,1.0,2,$290_per_week,House,May 2010,3500,2010,5,MILDURA,290,House,215021469
510,519,519,519,"3/471 WALNUT AVENUE, MILDURA",-34.204117,142.12893,3.0,1.0,1,$175_Weekly,House,December 2010,3500,2010,12,MILDURA,175,House,215021470
511,520,520,520,"53 MAGNOLIA AVENUE, MILDURA",-34.188759,142.166144,4.0,2.0,2,$180_pw,House,December 2010,3500,2010,12,MILDURA,180,House,215021469
512,521,521,521,"19/313 EIGHTH STREET, MILDURA",-34.172404,142.14619,2.0,1.0,1,$200_pw,Townhouse,February 2010,3500,2010,2,MILDURA,200,House,215021469
513,522,522,522,"20 WALNUT AVENUE, MILDURA",-34.179726,142.159426,3.0,2.0,2,$180,House,May 2010,3500,2010,5,MILDURA,180,House,215021469
514,523,523,523,"1/265 TWELFTH STREET, MILDURA",-34.180731,142.142929,2.0,2.0,1,$210_pw,Rental_residential,June 2010,3500,2010,6,MILDURA,210,Other,215021469
515,524,524,524,"2/5 JOHN MONASH BOULEVARD, MILDURA",-34.20825,142.125652,3.0,2.0,2,$270_per_week,Townhouse,January 2010,3500,2010,1,MILDURA,270,House,215021470
516,525,525,525,"76 MAGNOLIA AVENUE, MILDURA",-34.189603,142.165831,4.0,2.0,2,$170,House,December 2010,3500,2010,12,MILDURA,170,House,215021469
517,526,526,526,"76 MAGNOLIA AVENUE, MILDURA",-34.189603,142.165831,4.0,2.0,2,$170_per_week,House,November 2010,3500,2010,11,MILDURA,170,House,215021469
518,527,527,527,"1 HOMEBUSH COURT, MILDURA",-34.193428,142.135766,2.0,1.0,1,$200_per_week,none,July 2010,3500,2010,7,MILDURA,200,Other,215021470
519,528,528,528,"2/482 WALNUT AVENUE, MILDURA",-34.205697,142.128552,2.0,1.0,2,$220_per_week,none,October 2010,3500,2010,10,MILDURA,220,Other,215021470
520,529,529,529,"259 WADE AVENUE, MILDURA",-34.197034,142.152382,4.0,2.0,2,$250,House,December 2010,3500,2010,12,MILDURA,250,House,215021469
521,530,530,530,"259 WADE AVENUE, MILDURA",-34.197034,142.152382,4.0,2.0,2,$260_per_week,House,February 2010,3500,2010,2,MILDURA,260,House,215021469
522,531,531,531,"306 DEAKIN AVENUE, MILDURA",-34.1987346,142.1464103,3.0,1.0,1,$220_pw,Rental_residential,May 2010,3500,2010,5,MILDURA,220,Other,215021470
523,532,532,532,"2/367 DEAKIN AVENUE, MILDURA",-34.201056,142.142727,2.0,1.0,1,$160_per_week,none,July 2010,3500,2010,7,MILDURA,160,Other,215021470
524,533,533,533,"4 BURNETT COURT, MILL PARK",-37.659915,145.062071,3.0,2.0,1,$310_pw,none,April 2010,3082,2010,4,PARK,310,Other,209041220
525,534,534,534,"4 BURNETT COURT, MILL PARK",-37.659915,145.062071,3.0,2.0,1,$320_Weekly,none,March 2010,3082,2010,3,PARK,320,Other,209041220
526,535,535,535,"5 MELROSE PLACE, MILL PARK",-37.675923,145.059505,4.0,1.0,3,$360_p.w.,none,September 2010,3082,2010,9,PARK,360,Other,209041221
527,536,536,536,"6/1 MORANG DRIVE, MILL PARK",-37.661425,145.053371,3.0,2.0,1,$340_per_week,Townhouse,October 2010,3082,2010,10,PARK,340,House,209041220
528,537,537,537,"1/2 BELBIN COURT, MILL PARK",-37.660624,145.040083,3.0,1.0,2,$300_per_week,none,December 2010,3082,2010,12,PARK,300,Other,209041220
529,538,538,538,"7 POSEIDON CLOSE, MILL PARK",-37.672673,145.063251,6.0,3.0,2,$375_per_week,House,December 2010,3082,2010,12,PARK,375,House,209041221
530,539,539,539,"7 CONIFER CLOSE, MILL PARK",-37.674342,145.053191,3.0,2.0,2,$350_per_week,House,December 2010,3082,2010,12,PARK,350,House,209041221
531,540,540,540,"235 BETULA AVENUE, MILL PARK",-37.675571,145.058318,3.0,1.0,2,$350_per_week,House,December 2010,3082,2010,12,PARK,350,House,209041221
532,541,541,541,"41 ESTER DRIVE, MILL PARK",-37.65631,145.041829,3.0,2.0,2,$360_Weekly,House,January 2010,3082,2010,1,PARK,360,House,209041220
533,542,542,542,"5 CARBON CRESCENT, MILL PARK",-37.662395,145.0382,3.0,2.0,2,$370_p.w.,House,August 2010,3082,2010,8,PARK,370,House,209041221
534,543,543,543,"78 CENTENARY DRIVE, MILL PARK",-37.658322,145.068755,3.0,2.0,2,$310,House,November 2010,3082,2010,11,PARK,310,House,209041220
535,544,544,544,"78 CENTENARY DRIVE, MILL PARK",-37.658322,145.068755,3.0,2.0,2,$310_pw,House,October 2010,3082,2010,10,PARK,310,House,209041220
536,545,545,545,"23 LAMINA AVENUE, MILL PARK",-37.654674,145.049738,3.0,2.0,2,$310_p.w.,House,December 2010,3082,2010,12,PARK,310,House,209041220
537,546,546,546,"9 STREETON CIRCUIT, MILL PARK",-37.669458,145.069124,3.0,2.0,4,$370_per_week,House,June 2010,3082,2010,6,PARK,370,House,209041220
538,547,547,547,"9 STREETON CIRCUIT, MILL PARK",-37.669458,145.069124,3.0,2.0,4,$360_p.w.,House,June 2010,3082,2010,6,PARK,360,House,209041220
539,548,548,548,"112 WOOLNOUGH DRIVE, MILL PARK",-37.660259,145.038176,2.0,1.0,2,$275,Unit,December 2010,3082,2010,12,PARK,275,Apartment,209041220
540,549,549,549,"7 DORRINGTON COURT, MILL PARK",-37.652223,145.042695,3.0,2.0,0,$300_pw,House,May 2010,3082,2010,5,PARK,300,House,209041220
541,550,550,550,"5 LILLIS COURT, MILLGROVE",-37.746086,145.65827,3.0,2.0,1,$240_pw,House,October 2010,3799,2010,10,MILLGROVE,240,House,211051286
542,551,551,551,"9 PAMELA COURT, MILLGROVE",-37.75045,145.660813,2.0,1.0,1,$195_pw,House,September 2010,3799,2010,9,MILLGROVE,195,House,211051286
543,552,552,552,"21 PATRICK STREET, MILLGROVE",-37.746795,145.661912,3.0,1.0,3,$235_pw,House,August 2010,3799,2010,8,MILLGROVE,235,House,211051286
544,553,553,553,"5/5 WANDANA DRIVE, WANDANA HEIGHTS",-38.171721,144.308536,1.0,1.0,1,$150_per_week,House,November 2010,3216,2010,11,HEIGHTS,150,House,203021042
545,554,554,554,"47B SUNDERLAND ROAD, WANDANA HEIGHTS",-38.176249,144.30285,3.0,2.0,1,$370_pw,Townhouse,February 2010,3216,2010,2,HEIGHTS,370,House,203021042
546,555,555,555,"12 MCEVOYS LANE, WANDILIGONG",-36.766944,146.980435,4.0,1.0,0,$310,House,November 2010,3744,2010,11,WANDILIGONG,310,House,204031069
547,556,556,556,"14 WILLIAMS ROAD, WANDILIGONG",-36.775848,146.984132,3.0,1.0,0,$250_per_week,none,July 2010,3744,2010,7,WANDILIGONG,250,Other,204031069
548,557,557,557,"12 PARK STREET, WANDIN NORTH",-37.783346,145.430466,3.0,1.0,1,$320_p.w.,House,June 2010,3139,2010,6,NORTH,320,House,211051285
549,558,558,558,"1/86 STAMPS LANE, WANGARATTA NORTH",-36.33286,146.342758,3.0,1.0,0,$210,House,July 2010,3677,2010,7,NORTH,210,House,204021067
550,559,559,559,"277 WARBY RANGE ROAD, WANGARATTA SOUTH",-36.357612,146.255309,4.0,2.0,1,$270_per_week,House,April 2010,3678,2010,4,SOUTH,270,House,204021067
551,560,560,560,"2/125 APPIN STREET, WANGARATTA",-36.3453943,146.3003718,3.0,2.0,2,$310_per_week,House,December 2010,3677,2010,12,WANGARATTA,310,House,204021066
552,561,561,561,"4/61 TEMPLETON STREET, WANGARATTA",-36.35156,146.319742,2.0,1.0,1,$170_per_week,Unit,April 2010,3677,2010,4,WANGARATTA,170,Apartment,204021066
553,562,562,562,"1/155 PHILLIPSON STREET, WANGARATTA",-36.343379,146.30708,2.0,1.0,1,$155_per_week,Unit,August 2010,3677,2010,8,WANGARATTA,155,Apartment,204021066
554,563,563,563,"24 MURDOCH ROAD, WANGARATTA",-36.364522,146.323735,3.0,1.0,1,$260_per_week,House,July 2010,3677,2010,7,WANGARATTA,260,House,204021066
555,564,564,564,"55A MURPHY STREET, WANGARATTA",-36.355529,146.325929,3.0,1.0,1,$185_per_week,Unit,January 2010,3677,2010,1,WANGARATTA,185,Apartment,204021066
556,565,565,565,"1/7 ST COLUMBS DRIVE, WANGARATTA",-36.367326,146.324893,2.0,1.0,2,$190_per_week,Unit,December 2010,3677,2010,12,WANGARATTA,190,Apartment,204021066
557,566,566,566,"8/81 VINCENT ROAD, WANGARATTA",-36.365043,146.312173,1.0,1.0,1,$125,House,June 2010,3677,2010,6,WANGARATTA,125,House,204021066
558,567,567,567,"5 GAYER AVENUE, WANGARATTA",-36.364904,146.324966,3.0,1.0,1,$210_per_week,House,November 2010,3677,2010,11,WANGARATTA,210,House,204021066
559,568,568,568,"3 TODD STREET, WANGARATTA",-36.38141,146.323048,3.0,2.0,2,$270_pw,none,September 2010,3677,2010,9,WANGARATTA,270,Other,204021066
560,569,569,569,"3 TODD STREET, WANGARATTA",-36.38141,146.323048,3.0,2.0,2,$270_pw,none,July 2010,3677,2010,7,WANGARATTA,270,Other,204021066
561,570,570,570,"3 TODD STREET, WANGARATTA",-36.38141,146.323048,3.0,2.0,2,$270_pw,none,January 2010,3677,2010,1,WANGARATTA,270,Other,204021066
562,571,571,571,"7/36 OVENS STREET, WANGARATTA",-36.356681,146.321379,1.0,1.0,1,$180_per_week,Rental_residential,September 2010,3677,2010,9,WANGARATTA,180,Other,204021066
563,572,572,572,"1/40 FRANKLIN STREET, WANGARATTA",-36.347032,146.294163,2.0,1.0,1,$155_per_week,none,February 2010,3677,2010,2,WANGARATTA,155,Other,204021066
564,573,573,573,"93 SWAN STREET, WANGARATTA",-36.351421,146.31032,3.0,1.0,1,$230_per_week,House,August 2010,3677,2010,8,WANGARATTA,230,House,204021066
565,574,574,574,"2/24 LOGAN DRIVE, WANGARATTA",-36.334626,146.305907,3.0,2.0,1,$290_per_week,none,June 2010,3677,2010,6,WANGARATTA,290,Other,204021066
566,575,575,575,"14 MATLOCK ROAD, WANTIRNA SOUTH",-37.858779,145.251664,3.0,1.0,2,$320_per_week,none,September 2010,3152,2010,9,SOUTH,320,Other,211011260
567,576,576,576,"16 BILLARA CLOSE, WANTIRNA SOUTH",-37.855691,145.248282,3.0,1.0,0,$330_per_week,House,September 2010,3152,2010,9,SOUTH,330,House,211011260
568,577,577,577,"13/19 SOVEREIGN PLACE, WANTIRNA SOUTH",-37.872,145.231572,3.0,1.0,2,$350_pw,Townhouse,April 2010,3152,2010,4,SOUTH,350,House,211011260
569,578,578,578,"3 APLIN PLACE, WANTIRNA SOUTH",-37.885394,145.22238,4.0,2.0,2,$485_per_week,none,March 2010,3152,2010,3,SOUTH,485,Other,211011260
570,579,579,579,"30 CLARENCE ROAD, WANTIRNA SOUTH",-37.842176,145.223839,3.0,1.0,2,$280_pw,House,September 2010,3152,2010,9,SOUTH,280,House,211011259
571,580,580,580,"85 BARMAH DRIVE, WANTIRNA",-37.8570683,145.2192873,4.0,2.0,5,$370,House,December 2010,3152,2010,12,WANTIRNA,370,House,211011259
572,581,581,581,"85 BARMAH DRIVE, WANTIRNA",-37.8570683,145.2192873,4.0,2.0,5,$350_p.w.,House,June 2010,3152,2010,6,WANTIRNA,350,House,211011259
573,582,582,582,"9 BENTLEY STREET, WANTIRNA",-37.848573,145.235073,4.0,1.0,2,$340_p.w.,House,June 2010,3152,2010,6,WANTIRNA,340,House,211011259
574,583,583,583,"1/743 BORONIA ROAD, WANTIRNA",-37.846836,145.22323,3.0,1.0,1,$350_per_week,Townhouse,November 2010,3152,2010,11,WANTIRNA,350,House,211011259
575,584,584,584,"43 STOKES ROAD, WANTIRNA",-37.850696,145.235466,4.0,2.0,2,$360_p.w.,House,February 2010,3152,2010,2,WANTIRNA,360,House,211011259
576,585,585,585,"2/265 WANTIRNA ROAD, WANTIRNA",-37.8405456,145.227586,2.0,1.0,1,$300_per_week,none,September 2010,3152,2010,9,WANTIRNA,300,Other,211011259
577,586,586,586,"33 BRISBANE HILL ROAD, WARBURTON",-37.748594,145.693617,4.0,2.0,0,$260,Rental_residential,December 2010,3799,2010,12,WARBURTON,260,Other,211051286
578,587,587,587,"12 LA LA AVENUE, WARBURTON",-37.75611116,145.69785359,3.0,1.0,2,$285_pw,House,April 2010,3799,2010,4,WARBURTON,285,House,211051286
579,588,588,588,"2 DEVON STREET, WARBURTON",-37.748734,145.676417,3.0,1.0,2,$265_pw,House,April 2010,3799,2010,4,WARBURTON,265,House,211051286
580,589,589,589,"10 ILUKA STREET, WARNEET",-38.221492,145.31233,3.0,2.0,1,$290_Weekly,House,August 2010,3980,2010,8,WARNEET,290,House,212031308
581,590,590,590,"12 RUTHERFORD PARADE, WARNEET",-38.227077,145.308408,4.0,2.0,4,$380_p.w.,House,November 2010,3980,2010,11,WARNEET,380,House,212031308
582,591,591,591,"5 GNOORNONG ROAD, WARNEET",-38.220563,145.314044,2.0,1.0,2,$265_p.w.,House,August 2010,3980,2010,8,WARNEET,265,House,212031308
583,592,592,592,"4 BANKS STREET, WARNEET",-38.225006,145.307268,3.0,2.0,3,$320_per_week,House,March 2010,3980,2010,3,WARNEET,320,House,212031308
584,594,594,594,"15 CLIFFORD STREET, WARRACKNABEAL",-36.243659,142.396096,3.0,1.0,1,$140_per_week,House,March 2010,3393,2010,3,WARRACKNABEAL,140,House,215011394
585,595,595,595,"79 CLIFFORD STREET, WARRAGUL",-38.15659,145.93904,2.0,1.0,1,$230_per_week,none,June 2010,3820,2010,6,WARRAGUL,230,Other,205011079
586,596,596,596,"63 NORTH ROAD, WARRAGUL",-38.159412,145.949167,3.0,2.0,2,$230_per_week,House,May 2010,3820,2010,5,WARRAGUL,230,House,205011079
587,597,597,597,"6 HILLANDALE ROAD, WARRAGUL",-38.14386,145.937337,4.0,2.0,1,$250_per_week,House,October 2010,3820,2010,10,WARRAGUL,250,House,205011079
588,598,598,598,"86 NORTH ROAD, WARRAGUL",-38.16123,145.94923,3.0,1.0,3,$250_per_week,House,May 2010,3820,2010,5,WARRAGUL,250,House,205011079
589,599,599,599,"24 SINCLAIR STREET, WARRAGUL",-38.149351,145.937788,2.0,1.0,1,$220_per_week,none,September 2010,3820,2010,9,WARRAGUL,220,Other,205011079
590,600,600,600,"19 MOUNT COLE ROAD, WARRAK",-37.261463,143.150143,2.0,1.0,1,$150_per_week,House,May 2010,3377,2010,5,WARRAK,150,House,215011387
591,601,601,601,"280 HEIDELBERG-WARRANDYTE ROAD, WARRANDYTE",-37.74962365,145.18960945,2.0,2.0,2,$310_pw,Rental_residential,June 2010,3113,2010,6,WARRANDYTE,310,Other,211021262
592,602,602,602,"2/12 HOUGHTON ROAD, WARRANDYTE",-37.746542,145.203235,1.0,1.0,1,$210_pw,Rental_residential,April 2010,3113,2010,4,WARRANDYTE,210,Other,211021262
593,603,603,603,"6 PENSHURST PLACE, WARRANWOOD",-37.770081,145.25229,3.0,2.0,1,$360_per_week,Rental_residential,June 2010,3134,2010,6,WARRANWOOD,360,Other,211031265
594,604,604,604,"3 BROOKFIELD PLACE, WARRANWOOD",-37.780734,145.255366,4.0,2.0,2,$450_per_week,Rental_residential,December 2010,3134,2010,12,WARRANWOOD,450,Other,211031265
595,605,605,605,"14 PENSHURST PLACE, WARRANWOOD",-37.77029,145.253046,4.0,2.0,2,$410_pw,Rental_residential,July 2010,3134,2010,7,WARRANWOOD,410,Other,211031265
596,606,606,606,"1 GEORGE AVE, WARRNAMBOOL EAST",-38.386499,142.515493,4.0,2.0,2,$430_p.w.,House,December 2010,3280,2010,12,EAST,430,House,217041480
597,607,607,607,"58 SIMPSON STREET, WARRNAMBOOL EAST",-38.387961,142.51157,2.0,1.0,1,$300_p.w.,House,December 2010,3280,2010,12,EAST,300,House,217041480
598,608,608,608,"1 GEORGE AVENUE, WARRNAMBOOL EAST",-38.386499,142.515493,4.0,2.0,2,$430_pw,House,December 2010,3280,2010,12,EAST,430,House,217041480
599,609,609,609,"1/11 HOTHAM STREET, WARRNAMBOOL",-38.388294,142.490912,4.0,2.0,1,$380_per_week,House,June 2010,3280,2010,6,WARRNAMBOOL,380,House,217041480
600,610,610,610,"5/44 WELLINGTON STREET, WARRNAMBOOL",-38.38445,142.46981,3.0,1.0,1,$290,Rental_residential,November 2010,3280,2010,11,WARRNAMBOOL,290,Other,217041480
601,611,611,611,"11 RONGOA DRIVE, WARRNAMBOOL",-38.361178,142.456885,2.0,1.0,1,$250,none,December 2010,3280,2010,12,WARRNAMBOOL,250,Other,217041479
602,612,612,612,"292 KOROIT STREET, WARRNAMBOOL",-38.377855,142.471313,2.0,1.0,1,$235_p.w.,House,June 2010,3280,2010,6,WARRNAMBOOL,235,House,217041480
603,613,613,613,"292 KOROIT STREET, WARRNAMBOOL",-38.377855,142.471313,2.0,1.0,1,$235,House,May 2010,3280,2010,5,WARRNAMBOOL,235,House,217041480
604,614,614,614,"28 DERBY STREET, WARRNAMBOOL",-38.384295,142.505131,4.0,2.0,2,$350_p.w.,none,July 2010,3280,2010,7,WARRNAMBOOL,350,Other,217041479
605,615,615,615,"90 KOROIT STREET, WARRNAMBOOL",-38.384717,142.486584,3.0,1.0,1,$350_p.w.,House,February 2010,3280,2010,2,WARRNAMBOOL,350,House,217041480
606,616,616,616,"14 FOSTER STREET, WARRNAMBOOL",-38.389678,142.491798,2.0,1.0,2,$390_Weekly,House,October 2010,3280,2010,10,WARRNAMBOOL,390,House,217041480
608,618,618,618,"13 JUBILEE BOULEVARD, WATERWAYS",-38.016403198242,145.123321533203,3.0,2.0,2,$490_per_week,Rental_residential,October 2010,3195,2010,10,WATERWAYS,490,Other,208031183
609,619,619,619,"19 LAKE KING CIRCLE, WATERWAYS",-38.013303,145.135533,4.0,2.0,2,$680,House,January 2010,3195,2010,1,WATERWAYS,680,House,208031183
610,620,620,620,"1 ARCOTS COURT, WATERWAYS",-38.015943,145.1293065,3.0,2.0,2,$440_per_week,Townhouse,November 2010,3195,2010,11,WATERWAYS,440,House,208031183
611,621,621,621,"1 ARCOTS COURT, WATERWAYS",-38.015943,145.1293065,3.0,2.0,2,$440_per_week,Townhouse,October 2010,3195,2010,10,WATERWAYS,440,House,208031183
612,622,622,622,"1 ARCOTS COURT, WATERWAYS",-38.015943,145.1293065,3.0,2.0,2,$440_per_week,Townhouse,September 2010,3195,2010,9,WATERWAYS,440,House,208031183
613,623,623,623,"11 CHOPARD AVENUE, WATERWAYS",-38.013457,145.139149,5.0,2.0,2,$520_per_week,none,October 2010,3195,2010,10,WATERWAYS,520,Other,208031183
614,624,624,624,"2 JUBILEE BOULEVARD, WATERWAYS",-38.012499,145.138336,4.0,2.0,2,$650_per_week,House,December 2010,3195,2010,12,WATERWAYS,650,House,208031183
615,625,625,625,"18 DRESDEN DRIVE, WATERWAYS",-38.013821,145.139492,3.0,2.0,1,$410,Townhouse,October 2010,3195,2010,10,WATERWAYS,410,House,208031183
616,626,626,626,"18 DRESDEN DRIVE, WATERWAYS",-38.013821,145.139492,3.0,2.0,1,$430,Townhouse,January 2010,3195,2010,1,WATERWAYS,430,House,208031183
617,627,627,627,"3 BULOKE LANE, WATERWAYS",-38.008051,145.110473,5.0,5.0,2,$695,House,January 2010,3195,2010,1,WATERWAYS,695,House,208031184
618,628,628,628,"1395 MIDLAND HIGHWAY, GHERINGHAP",-38.070043,144.225308,6.0,2.0,2,$350_p.w.,House,July 2010,3331,2010,7,GHERINGHAP,350,House,203011034
619,629,629,629,"15 OLYMPIC STREET, GIRGARRE",-36.395412,144.978842,3.0,1.0,2,$170_per_week,House,November 2010,3624,2010,11,GIRGARRE,170,House,216011410
620,630,630,630,"15 OLYMPIC STREET, GIRGARRE",-36.395412,144.978842,3.0,1.0,2,$170_per_week,House,May 2010,3624,2010,5,GIRGARRE,170,House,216011410
621,631,631,631,"15 OLYMPIC STREET, GIRGARRE",-36.395412,144.978842,3.0,1.0,2,$170_per_week,House,January 2010,3624,2010,1,GIRGARRE,170,House,216011410
622,632,632,632,"16 CHURCH STREET, GIRGARRE",-36.395475,144.97784,3.0,1.0,0,$160_per_week,House,July 2010,3624,2010,7,GIRGARRE,160,House,216011410
623,633,633,633,"36 CHURCH STREET, GIRGARRE",-36.394073,144.979398,3.0,1.0,1,$150_per_week,House,January 2010,3624,2010,1,GIRGARRE,150,House,216011410
624,634,634,634,"202 MASON ROAD, GIRGARRE",-36.41176,145.009394,3.0,1.0,0,$170_per_week,House,December 2010,3624,2010,12,GIRGARRE,170,House,216011410
625,635,635,635,"202 MASON ROAD, GIRGARRE",-36.41176,145.009394,3.0,1.0,0,$170_per_week,House,November 2010,3624,2010,11,GIRGARRE,170,House,216011410
626,636,636,636,"202 MASON ROAD, GIRGARRE",-36.41176,145.009394,3.0,1.0,0,$170_per_week,House,October 2010,3624,2010,10,GIRGARRE,170,House,216011410
627,637,637,637,"WINTER RD, GIRGARRE",-36.398629,144.963562,2.0,1.0,1,$120_per_week,none,November 2010,3624,2010,11,GIRGARRE,120,Other,216011410
628,638,638,638,"14 CHURCH STREET, GIRGARRE",-36.39566,144.977851,3.0,1.0,1,$165_per_week,House,May 2010,3624,2010,5,GIRGARRE,165,House,216011410
629,639,639,639,"14 CHURCH STREET, GIRGARRE",-36.39566,144.977851,3.0,1.0,1,$165_per_week,House,April 2010,3624,2010,4,GIRGARRE,165,House,216011410
630,640,640,640,"891 WINTER ROAD, GIRGARRE",-36.399255,144.933878,4.0,1.0,2,$200_per_week,House,April 2010,3624,2010,4,GIRGARRE,200,House,216011410
631,641,641,641,"891 WINTER ROAD, GIRGARRE",-36.399255,144.933878,4.0,1.0,2,$200_per_week,House,March 2010,3624,2010,3,GIRGARRE,200,House,216011410
632,642,642,642,"870 WINTER ROAD, GIRGARRE",-36.398299,144.936446,3.0,1.0,1,$150_pw,House,February 2010,3624,2010,2,GIRGARRE,150,House,216011410
633,643,643,643,"79 BERRIE ROAD, GISBORNE SOUTH",-37.548655,144.646863,3.0,1.0,0,$250_pw,none,March 2010,3437,2010,3,SOUTH,250,Other,210021232
634,644,644,644,"7/36 STEPHEN STREET, GISBORNE",-37.488495,144.584698,3.0,1.0,1,$280_p.w.,House,February 2010,3437,2010,2,GISBORNE,280,House,210021232
635,645,645,645,"16 SKYLINE DRIVE, GISBORNE",-37.476858,144.583041,3.0,2.0,3,$450_p.w.,House,March 2010,3437,2010,3,GISBORNE,450,House,210021232
636,646,646,646,"52 FERSFIELD ROAD, GISBORNE",-37.497024,144.597629,3.0,2.0,2,$280_pw,House,July 2010,3437,2010,7,GISBORNE,280,House,210021232
637,647,647,647,"44 BURNLEIGH DRIVE, GLADSTONE PARK",-37.692938,144.892083,4.0,1.0,1,$300_per_week,none,November 2010,3043,2010,11,PARK,300,Other,210051245
638,648,648,648,"44 BURNLEIGH DRIVE, GLADSTONE PARK",-37.692938,144.892083,4.0,1.0,1,$300_per_week,none,October 2010,3043,2010,10,PARK,300,Other,210051245
639,649,649,649,"15 PAYNE STREET, GLADSTONE PARK",-37.686422,144.885033,4.0,2.0,1,$420_per_week,House,September 2010,3043,2010,9,PARK,420,House,210051245
640,650,650,650,"10 SHANE COURT, GLADSTONE PARK",-37.696301,144.897288,3.0,1.0,1,$280,none,November 2010,3043,2010,11,PARK,280,Other,210051245
641,651,651,651,"10 SHANE COURT, GLADSTONE PARK",-37.696301,144.897288,3.0,1.0,1,$300_p.w.,none,September 2010,3043,2010,9,PARK,300,Other,210051245
642,652,652,652,"1 BRAEMAR CLOSE, GLADSTONE PARK",-37.684531,144.887128,3.0,2.0,2,$360_per_week,House,May 2010,3043,2010,5,PARK,360,House,210051245
643,653,653,653,"11 COSDOWN CLOSE, GLADSTONE PARK",-37.691604,144.894571,3.0,1.0,3,$350_pw,House,December 2010,3043,2010,12,PARK,350,House,210051245
644,654,654,654,"11 COSDOWN CLOSE, GLADSTONE PARK",-37.691604,144.894571,3.0,1.0,3,$350_per_week,House,October 2010,3043,2010,10,PARK,350,House,210051245
645,655,655,655,"0 ELLIS TRACK, GLADYSDALE",-37.823809,145.66613,1.0,1.0,1,$200_pw,House,December 2010,3797,2010,12,GLADYSDALE,200,House,211051286
646,656,656,656,"0 ELLIS TRACK, GLADYSDALE",-37.823809,145.66613,1.0,1.0,1,$200,House,May 2010,3797,2010,5,GLADYSDALE,200,House,211051286
647,657,657,657,"7 / 21 ROYAL AVENUE, GLEN HUNTLY",-37.892399,145.04199,2.0,1.0,1,$350_pw,none,June 2010,3163,2010,6,HUNTLY,350,Other,208021182
648,658,658,658,"8/5 BEVERLEY STREET, GLEN HUNTLY",-37.892141,145.038928,2.0,1.0,1,$335_pw,none,June 2010,3163,2010,6,HUNTLY,335,Other,208021182
649,659,659,659,"6/8 WARATAH AVENUE, GLEN HUNTLY",-37.892039,145.043672,2.0,1.0,1,$350_pw,Rental_residential,October 2010,3163,2010,10,HUNTLY,350,Other,208021182
650,660,660,660,"7/123 GRANGE ROAD, GLEN HUNTLY",-37.890364,145.044944,1.0,1.0,2,$235_pw,Rental_residential,September 2010,3163,2010,9,HUNTLY,235,Other,208021182
651,661,661,661,"5/12 MAROONA ROAD, GLEN HUNTLY",-37.888887,145.04761,2.0,1.0,1,$295,none,July 2010,3163,2010,7,HUNTLY,295,Other,208021176
652,662,662,662,"2/125 GRANGE ROAD, GLEN HUNTLY",-37.890391,145.04483,1.0,1.0,1,$260_pw,Unit,July 2010,3163,2010,7,HUNTLY,260,Apartment,208021182
653,663,663,663,"3/15 MACKAY AVENUE, GLEN HUNTLY",-37.897025,145.044063,2.0,1.0,1,$350,Rental_residential,June 2010,3163,2010,6,HUNTLY,350,Other,208021182
654,664,664,664,"2 / 34 DOROTHY AVENUE, GLEN HUNTLY",-37.896693,145.040225,2.0,1.0,1,$375_per_week,none,November 2010,3163,2010,11,HUNTLY,375,Other,208021182
655,665,665,665,"12B ROTHSCHILD STREET, GLEN HUNTLY",-37.890955,145.039186,4.0,2.0,2,$680_pw,Townhouse,August 2010,3163,2010,8,HUNTLY,680,House,208021182
656,666,666,666,"3/125 GRANGE ROAD, GLEN HUNTLY",-37.890391,145.04483,1.0,1.0,1,$215,none,March 2010,3163,2010,3,HUNTLY,215,Other,208021182
657,667,667,667,"16/1083-1089 GLEN HUNTLY ROAD, GLEN HUNTLY",-37.888579,145.039075,1.0,1.0,1,$320_pw,none,June 2010,3163,2010,6,HUNTLY,320,Other,208021182
658,668,668,668,"8/12 ROSEBERRY GROVE, GLEN HUNTLY",-37.888037,145.039832,2.0,1.0,1,$330_pw,none,September 2010,3163,2010,9,HUNTLY,330,Other,208021182
659,669,669,669,"3/115 NEERIM ROAD, GLEN HUNTLY",-37.886764,145.042038,2.0,1.0,1,$380_pw,Rental_residential,August 2010,3163,2010,8,HUNTLY,380,Other,208021182
660,670,670,670,"3/115 NEERIM ROAD, GLEN HUNTLY",-37.886764,145.042038,2.0,1.0,1,$380_pw,Rental_residential,January 2010,3163,2010,1,HUNTLY,380,Other,208021182
661,671,671,671,"3/16 WATTLE AVENUE, GLEN HUNTLY",-37.894674,145.044421,2.0,1.0,1,$385_pw,none,December 2010,3163,2010,12,HUNTLY,385,Other,208021182
662,672,672,672,"6 GARDINER PARADE, GLEN IRIS",-37.854336,145.066162,5.0,2.0,2,$840_per_week,none,August 2010,3146,2010,8,IRIS,840,Other,207011150
663,673,673,673,"1/32 BELMONT AVENUE NORTH, GLEN IRIS",-37.854998,145.049143,2.0,1.0,1,$350,none,January 2010,3146,2010,1,IRIS,350,Other,208041194
664,674,674,674,"5/1583 MALVERN ROAD, GLEN IRIS",-37.854028,145.050258,2.0,1.0,1,$330_pw,none,January 2010,3146,2010,1,IRIS,330,Other,208041194
665,675,675,675,"5/1583 MALVERN ROAD, GLEN IRIS",-37.854028,145.050258,2.0,1.0,1,$340_pw,none,January 2010,3146,2010,1,IRIS,340,Other,208041194
666,676,676,676,"3/23 GARDINER PARADE, GLEN IRIS",-37.853793,145.063743,2.0,1.0,1,$330_pw,none,March 2010,3146,2010,3,IRIS,330,Other,207011150
667,677,677,677,"3/23 GARDINER PARADE, GLEN IRIS",-37.853793,145.063743,2.0,1.0,1,$350_pw,none,February 2010,3146,2010,2,IRIS,350,Other,207011150
