,Unnamed: 0,address,latitude,longitude,nbed,nbath,ncar,price,type,historical_dates,postcode,year,month,suburb,weekly_rent,residence_type,SA2_CODE
0,0,"108 ADELAIDE STREET, CHEWTON",-37.093186,144.254132,2.0,1.0,2,$250_pw,Residential Lease,October 2010,3451,2010,10,CHEWTON,250,Other,202021027
1,1,"224 MAIN ROAD, CHEWTON",-37.0800585,144.2635775,1.0,1.0,0,$200_pw,House,January 2010,3451,2010,1,CHEWTON,200,House,202021027
2,2,"12 FRYERS ROAD, CHEWTON",-37.082726,144.256496,3.0,1.0,1,$220_pw,House,May 2010,3451,2010,5,CHEWTON,220,House,202021027
5,5,"1/31 COUNTRY CLUB DRIVE, CHIRNSIDE PARK",-37.756332,145.325246,3.0,1.0,1,$320_pw,House,March 2010,3116,2010,3,PARK,320,House,211051275
6,6,"5 YARRARIDGE DRIVE, CHIRNSIDE PARK",-37.757684,145.305604,3.0,1.0,2,$340_pw,House,December 2010,3116,2010,12,PARK,340,House,211051275
7,7,"55 CHIRNSIDE DRIVE, CHIRNSIDE PARK",-37.754336,145.320414,4.0,2.0,2,$380_pw,House,February 2010,3116,2010,2,PARK,380,House,211051275
8,8,"56 MUIR ROAD, CHRISTMAS HILLS",-37.657453,145.338221,2.0,1.0,0,$300_per_week,Rental_residential,July 2010,3775,2010,7,HILLS,300,Other,209031212
9,9,"585 CHUM CREEK ROAD, CHUM CREEK",-37.64491085,145.49757232,3.0,1.0,4,$375_per_week,House,March 2010,3777,2010,3,CREEK,375,House,211051276
10,10,"15 CURRINGA COURT, CHURCHILL",-38.319109,146.420642,4.0,2.0,2,$300_per_week,none,December 2010,3842,2010,12,CHURCHILL,300,Other,205041094
11,11,"5 AMAROO DRIVE, CHURCHILL",-38.323465,146.422057,3.0,1.0,1,$200_pw,none,September 2010,3842,2010,9,CHURCHILL,200,Other,205041094
12,12,"31 DAVANZO AVENUE, CLARINDA",-37.944702,145.105229,3.0,1.0,2,$400,none,April 2010,3169,2010,4,CLARINDA,400,Other,212041309
13,13,"20 CRAWFORD ROAD, CLARINDA",-37.929396,145.101594,2.0,1.0,1,$290,House,April 2010,3169,2010,4,CLARINDA,290,House,212041309
14,14,"430 WEBSTERS ROAD, CLARKEFIELD",-37.480097,144.737853,5.0,2.0,4,$380_per_week,House,February 2010,3430,2010,2,CLARKEFIELD,380,House,210021235
15,15,"600 KONAGADERRA ROAD, CLARKEFIELD",-37.515177,144.783865,3.0,1.0,0,$400_per_week,House,March 2010,3430,2010,3,CLARKEFIELD,400,House,210041240
16,16,"554 HEATHS LANE, CLARKEFIELD",-37.460714,144.804313,3.0,1.0,2,$250_pw,House,April 2010,3430,2010,4,CLARKEFIELD,250,House,210021235
17,17,"0 HEATHS LANE, CLARKEFIELD",-37.453903,144.752682,3.0,1.0,0,$230_per_week,none,August 2010,3430,2010,8,CLARKEFIELD,230,Other,210021235
18,18,"1 GATEHOUSE, BOLINDA VALE, CLARKEFIELD",-37.4487718,144.6856322,3.0,1.0,1,$200_per_week,none,August 2010,3430,2010,8,CLARKEFIELD,200,Other,210021234
19,19,"COTTAGE/ 1556 MELBOURNE-LANCEFIELD ROAD, CLARKEFIELD",-37.4757072,144.7495857,3.0,1.0,1,$185_per_week,none,March 2010,3430,2010,3,CLARKEFIELD,185,Other,210021235
20,20,"12 BOTANIC DRIVE, CLAYTON SOUTH",-37.939354,145.13641,3.0,2.0,2,$420,none,January 2010,3169,2010,1,SOUTH,420,Other,212041310
21,21,"3/44 OAKES AVENUE, CLAYTON SOUTH",-37.935969,145.133936,2.0,1.0,1,$250_Weekly,House,December 2010,3169,2010,12,SOUTH,250,House,212041310
22,22,"13 SPRING VALLEY DRIVE, CLAYTON SOUTH",-37.947671,145.137097,3.0,2.0,2,$350,House,October 2010,3169,2010,10,SOUTH,350,House,212041310
23,23,"4/15 OAKES AVENUE, CLAYTON SOUTH",-37.935135,145.129653,3.0,2.0,1,$430,House,January 2010,3169,2010,1,SOUTH,430,House,212041310
24,24,"1 MELOSA AVENUE, CLAYTON SOUTH",-37.937284,145.114101,3.0,1.0,2,$320_per_week,House,May 2010,3169,2010,5,SOUTH,320,House,212041310
25,25,"1/60 OAKES AVENUE, CLAYTON SOUTH",-37.93713,145.136159,3.0,2.0,2,$290_p.w.,Townhouse,December 2010,3169,2010,12,SOUTH,290,House,212041310
26,26,"13 BROWNS ROAD, CLAYTON",-37.920978,145.127558,3.0,1.0,2,$420,House,June 2010,3168,2010,6,CLAYTON,420,House,212051568
27,27,"5/42 EVELYN STREET, CLAYTON",-37.921181,145.131503,3.0,2.0,2,$350_p.w.,Townhouse,December 2010,3168,2010,12,CLAYTON,350,House,212051568
28,28,"5/42 EVELYN STREET, CLAYTON",-37.921181,145.131503,3.0,2.0,2,$360,Townhouse,November 2010,3168,2010,11,CLAYTON,360,House,212051568
29,29,"4/10 PANORAMA STREET, CLAYTON",-37.918065,145.130143,3.0,1.0,1,$380,Townhouse,December 2010,3168,2010,12,CLAYTON,380,House,212051568
30,30,"30/2 GREENFIELD DRIVE, CLAYTON",-37.923181,145.128623,2.0,1.0,1,$365,Unit,September 2010,3168,2010,9,CLAYTON,365,Apartment,212051568
31,31,"30/2 GREENFIELD DRIVE, CLAYTON",-37.923181,145.128623,2.0,1.0,1,$390,Unit,March 2010,3168,2010,3,CLAYTON,390,Apartment,212051568
32,32,"1/34 WELLINGTON ROAD, CLAYTON",-37.915779,145.133915,1.0,1.0,1,$240,Unit,June 2010,3168,2010,6,CLAYTON,240,Apartment,212051567
33,33,"1/34 WELLINGTON ROAD, CLAYTON",-37.915779,145.133915,1.0,1.0,1,$240,Unit,May 2010,3168,2010,5,CLAYTON,240,Apartment,212051567
34,34,"1/34 WELLINGTON ROAD, CLAYTON",-37.915779,145.133915,1.0,1.0,1,$240,Unit,March 2010,3168,2010,3,CLAYTON,240,Apartment,212051567
35,35,"33 ALICE STREET, CLAYTON",-37.917622,145.115287,4.0,2.0,1,$390_Weekly,House,December 2010,3168,2010,12,CLAYTON,390,House,212051568
36,36,"10/2 MONASH GREEN DRIVE, CLAYTON",-37.918788,145.127626,2.0,1.0,1,$350,Unit,December 2010,3168,2010,12,CLAYTON,350,Apartment,212051568
37,37,"10/2 MONASH GREEN DRIVE, CLAYTON",-37.918788,145.127626,2.0,1.0,1,$370,Unit,May 2010,3168,2010,5,CLAYTON,370,Apartment,212051568
38,38,"71 CLAYTON ROAD, CLAYTON",-37.9139021,145.1218545,4.0,2.0,2,$310,House,December 2010,3168,2010,12,CLAYTON,310,House,212051568
39,39,"1/31 GLENBROOK AVENUE, CLAYTON",-37.909275,145.123752,3.0,1.0,2,$300,House,October 2010,3168,2010,10,CLAYTON,300,House,212051567
40,40,"1/31 GLENBROOK AVENUE, CLAYTON",-37.909275,145.123752,3.0,1.0,2,$330_per_week,House,September 2010,3168,2010,9,CLAYTON,330,House,212051567
41,41,"1/31 GLENBROOK AVENUE, CLAYTON",-37.909275,145.123752,3.0,1.0,2,$330,House,August 2010,3168,2010,8,CLAYTON,330,House,212051567
42,42,"1/31 GLENBROOK AVENUE, CLAYTON",-37.909275,145.123752,3.0,1.0,2,$360_per_week,House,May 2010,3168,2010,5,CLAYTON,360,House,212051567
43,43,"10 SHADY MEWS, CLAYTON",-37.922472,145.127818,3.0,1.0,1,$400,Townhouse,June 2010,3168,2010,6,CLAYTON,400,House,212051568
44,44,"5/645 BLACKBURN ROAD, CLAYTON",-37.917981,145.139598,1.0,1.0,1,$220_p.w.,Unit,July 2010,3168,2010,7,CLAYTON,220,Apartment,212051567
45,45,"1/13 EVELYN STREET, CLAYTON",-37.918973,145.130798,6.0,2.0,1,$700,House,May 2010,3168,2010,5,CLAYTON,700,House,212051568
46,46,"1953 DANDENONG ROAD, CLAYTON",-37.91327,145.126079,5.0,4.0,3,$350,Townhouse,January 2010,3168,2010,1,CLAYTON,350,House,212051567
47,47,"1/67 MADELEINE ROAD, CLAYTON",-37.919718,145.118887,2.0,1.0,1,$310_pw,none,August 2010,3168,2010,8,CLAYTON,310,Other,212051568
48,48,"4/22 WRIGHT STREET, CLAYTON",-37.922062,145.124729,2.0,1.0,1,$280,House,November 2010,3168,2010,11,CLAYTON,280,House,212051568
49,49,"3/21 FRANCIS STREET, CLAYTON",-37.924041,145.121709,2.0,1.0,1,$310,none,August 2010,3168,2010,8,CLAYTON,310,Other,212051568
50,50,"23 BRUSHBOX COURT, CLAYTON",-37.92356953,145.12906235,3.0,1.0,1,$420,Townhouse,December 2010,3168,2010,12,CLAYTON,420,House,212051568
51,51,"13/9-11 BROWNS ROAD, CLAYTON",-37.918418,145.127927,2.0,1.0,1,$250,House,April 2010,3168,2010,4,CLAYTON,250,House,212051568
52,52,"9 SHADY MEWS, CLAYTON",-37.922424,145.12782,2.0,1.0,2,$350_per_week,Rental_residential,December 2010,3168,2010,12,CLAYTON,350,Other,212051568
53,53,"6/1-3 ARNOTT STREET, CLAYTON",-37.916516,145.134721,3.0,1.0,1,$410_pw,none,January 2010,3168,2010,1,CLAYTON,410,Other,212051567
54,54,"1/31 GLENBROOK AVE, CLAYTON",-37.909189,145.123384,3.0,1.0,2,$300,House,October 2010,3168,2010,10,CLAYTON,300,House,212051567
55,55,"2B HOURIGAN AVENUE, CLAYTON",-37.917265,145.121913,3.0,2.0,2,$400,Townhouse,January 2010,3168,2010,1,CLAYTON,400,House,212051568
56,56,"23 MCBEAN STREET, CLAYTON",-37.923718,145.111716,2.0,1.0,2,$350_per_week,Townhouse,December 2010,3168,2010,12,CLAYTON,350,House,212051568
57,57,"3/1450 NORTH ROAD, CLAYTON",-37.914333,145.120368,2.0,1.0,1,$280_pw,Rental_residential,July 2010,3168,2010,7,CLAYTON,280,Other,212051568
58,58,"3/1450 NORTH ROAD, CLAYTON",-37.914333,145.120368,2.0,1.0,1,$290_pw,Rental_residential,June 2010,3168,2010,6,CLAYTON,290,Other,212051568
59,59,"2 BRUSHBOX COURT, CLAYTON",-37.925488,145.119662,3.0,1.0,2,$430,Townhouse,July 2010,3168,2010,7,CLAYTON,430,House,212051568
60,60,"9/56-58 KANOOKA GROVE, CLAYTON",-37.921688,145.126396,3.0,1.0,1,$400_p.w.,House,December 2010,3168,2010,12,CLAYTON,400,House,212051568
61,61,"10 VICTOR ROAD, CLEMATIS",-37.929733,145.419864,5.0,2.0,0,$400_per_week,none,September 2010,3782,2010,9,CLEMATIS,400,Other,212011289
62,62,"6 VICTOR ROAD, CLEMATIS",-37.929987,145.420214,2.0,1.0,1,$300_per_week,none,October 2010,3782,2010,10,CLEMATIS,300,Other,212011289
63,63,"10 VICTOR RD, CLEMATIS",-37.929733,145.419864,5.0,2.0,0,$400_per_week,House,August 2010,3782,2010,8,CLEMATIS,400,House,212011289
64,64,"29 FENWICK STREET, CLIFTON HILL",-37.789226,144.999862,2.0,1.0,0,$440_pw,none,January 2010,3068,2010,1,HILL,440,Other,206071145
65,65,"70 NOONE STREET, CLIFTON HILL",-37.793407,144.992413,2.0,1.0,0,$365_pw,Rental_residential,April 2010,3068,2010,4,HILL,365,Other,206071145
66,66,"2/57 CAROLINE STREET, CLIFTON HILL",-37.790209,145.00096,1.0,1.0,1,$210_pw,Rental_residential,January 2010,3068,2010,1,HILL,210,Other,206071145
67,67,"18/14 THE ESPLANADE, CLIFTON HILL",-37.788057,145.005844,1.0,1.0,1,$260_p.w.,Rental_residential,August 2010,3068,2010,8,HILL,260,Other,206071145
68,68,"205 SPENSLEY STREET, CLIFTON HILL",-37.786573,145.004419,2.0,1.0,1,$495_pw,House,April 2010,3068,2010,4,HILL,495,House,206071145
69,69,"19 GROOM STREET, CLIFTON HILL",-37.794371,144.998236,2.0,1.0,0,$450_pw,none,January 2010,3068,2010,1,HILL,450,Other,206071145
70,70,"11 DALLY STREET, CLIFTON HILL",-37.792519,144.999611,2.0,1.0,0,$470_pw,none,November 2010,3068,2010,11,HILL,470,Other,206071145
71,71,"53 DWYER STREET, CLIFTON HILL",-37.785982,145.001994,2.0,1.0,0,$500_pw,none,March 2010,3068,2010,3,HILL,500,Other,206071145
72,72,"1 YAMBLA STREET, CLIFTON HILL",-37.792736,145.000619,2.0,1.0,1,$475_pw,none,September 2010,3068,2010,9,HILL,475,Other,206071145
73,73,"1 YAMBLA STREET, CLIFTON HILL",-37.792736,145.000619,2.0,1.0,1,$475_pw,none,August 2010,3068,2010,8,HILL,475,Other,206071145
74,74,"40 O GRADY STREET, CLIFTON HILL",-37.786837,144.998903,3.0,1.0,2,$700_pw,Rental_residential,October 2010,3068,2010,10,HILL,700,Other,206071145
75,75,"16 COUNCIL STREET, CLIFTON HILL",-37.792331,144.986235,2.0,2.0,0,$570_pw,none,September 2010,3068,2010,9,HILL,570,Other,206071145
76,76,"16/16 THE ESPLANADE, CLIFTON HILL",-37.7879444,145.0061292,1.0,1.0,1,$275_pw,none,June 2010,3068,2010,6,HILL,275,Other,206071145
77,77,"32 YAMBLA STREET, CLIFTON HILL",-37.791828,145.001142,3.0,2.0,1,$700_pw,House,August 2010,3068,2010,8,HILL,700,House,206071145
78,78,"32 YAMBLA STREET, CLIFTON HILL",-37.791828,145.001142,3.0,2.0,1,$700_pw,House,July 2010,3068,2010,7,HILL,700,House,206071145
79,79,"30 WRIGHT STREET, CLIFTON HILL",-37.78906,145.00174,2.0,1.0,1,$500_pw,Rental_residential,January 2010,3068,2010,1,HILL,500,Other,206071145
80,80,"5/56 JOHN STREET, CLIFTON HILL",-37.78723145,144.99583435,1.0,1.0,1,$345_per_week,none,October 2010,3068,2010,10,HILL,345,Other,206071145
81,81,"1/211 GOLD STREET, CLIFTON HILL",-37.791306,144.990222,2.0,1.0,1,$395_per_week,none,August 2010,3068,2010,8,HILL,395,Other,206071145
82,82,"10 LACORRA COURT, CLIFTON SPRINGS",-38.151941,144.576798,4.0,2.0,1,$295_pw,Rental_residential,December 2010,3222,2010,12,SPRINGS,295,Other,203031048
83,83,"10 ALBERT STREET, CLUNES",-37.287198,143.78807,3.0,2.0,1,$180_Weekly,House,February 2010,3370,2010,2,CLUNES,180,House,201021010
84,84,"6 CAMERON STREET, CLUNES",-37.292247,143.791814,2.0,1.0,2,$160,none,September 2010,3370,2010,9,CLUNES,160,Other,201021010
85,85,"107 COBAINS ESTATE ROAD, COBAINS",-38.0840691,147.1410804,3.0,2.0,0,$220_Weekly,House,November 2010,3851,2010,11,COBAINS,220,House,205051100
86,86,"263 BENGWORDEN ROAD, COBAINS",-38.071445,147.103421,3.0,1.0,3,$250_pw,House,October 2010,3851,2010,10,COBAINS,250,House,205051100
87,87,"2/86 CURDIE STREET, COBDEN",-38.327394,143.071066,2.0,1.0,1,$185_per_week,House,November 2010,3266,2010,11,COBDEN,185,House,217031475
88,88,"74 WALKER STREET, COBDEN",-38.32536,143.080733,2.0,1.0,1,$170_per_week,House,October 2010,3266,2010,10,COBDEN,170,House,217031475
89,89,"22 PARROTT STREET, COBDEN",-38.32951,143.076719,4.0,1.0,3,$220_per_week,House,January 2010,3266,2010,1,COBDEN,220,House,217031475
90,90,"1 MITCHELL STREET, COBDEN",-38.3321,143.073485,4.0,1.0,2,$235_per_week,House,October 2010,3266,2010,10,COBDEN,235,House,217031475
91,91,"1/84 PARROTT STREET, COBDEN",-38.328608,143.068643,3.0,1.0,1,$185_per_week,House,October 2010,3266,2010,10,COBDEN,185,House,217031475
92,92,"28 VICTORIA COURT, COBUNGRA",-37.091318,147.444334,4.0,2.0,0,$350_per_week,House,March 2010,3898,2010,3,COBUNGRA,350,House,205021082
93,93,"34 CLAREMONT STREET, COBURG NORTH",-37.732144,144.978717,3.0,1.0,2,$340_per_week,House,June 2010,3058,2010,6,NORTH,340,House,210031236
94,94,"34 CLAREMONT STREET, COBURG NORTH",-37.732144,144.978717,3.0,1.0,2,$340_per_week,House,May 2010,3058,2010,5,NORTH,340,House,210031236
95,95,"1/16 TONKIN AVENUE, COBURG NORTH",-37.720549,144.953335,2.0,1.0,1,$270_p.w.,House,August 2010,3058,2010,8,NORTH,270,House,210031236
96,96,"9 RONALD STREET, COBURG NORTH",-37.730771,144.980626,3.0,1.0,0,$310_p.w.,Rental_residential,March 2010,3058,2010,3,NORTH,310,Other,210031236
97,97,"10/23 BAXTER STREET, COBURG",-37.746319,144.963475,1.0,1.0,1,$240_pw,none,July 2010,3058,2010,7,COBURG,240,Other,206011497
98,98,"10/23 BAXTER STREET, COBURG",-37.746319,144.963475,1.0,1.0,1,$220_pw,none,January 2010,3058,2010,1,COBURG,220,Other,206011497
99,99,"2/64 VICTORIA STREET, COBURG",-37.742205,144.958461,2.0,1.0,1,$300_per_week,none,November 2010,3058,2010,11,COBURG,300,Other,206011498
100,100,"2/64 VICTORIA STREET, COBURG",-37.742205,144.958461,2.0,1.0,1,$300_per_week,none,October 2010,3058,2010,10,COBURG,300,Other,206011498
101,101,"2/64 VICTORIA STREET, COBURG",-37.742205,144.958461,2.0,1.0,1,$330_pw,none,January 2010,3058,2010,1,COBURG,330,Other,206011498
102,102,"18/23 BAXTER STREET, COBURG",-37.746319,144.963475,2.0,1.0,1,$320_pw,none,June 2010,3058,2010,6,COBURG,320,Other,206011497
103,103,"18/23 BAXTER STREET, COBURG",-37.746319,144.963475,2.0,1.0,1,$320_pw,none,May 2010,3058,2010,5,COBURG,320,Other,206011497
104,104,"11/51 STOCKADE AVENUE, COBURG",-37.7383322,144.9702595,5.0,4.0,1,$450_pw,none,July 2010,3058,2010,7,COBURG,450,Other,206011497
105,105,"19 SAUNDERS STREET, COBURG",-37.752043,144.950572,3.0,1.0,1,$420_pw,House,February 2010,3058,2010,2,COBURG,420,House,206011498
106,106,"2/48 THE GROVE, COBURG",-37.752217,144.971599,2.0,1.0,1,$290_p.w.,Villa,September 2010,3058,2010,9,COBURG,290,House,206011497
107,107,"177 URQUHART STREET, COBURG",-37.741016,144.975769,3.0,2.0,1,$450_pw,House,January 2010,3058,2010,1,COBURG,450,House,206011497
108,108,"6/1 THE GROVE, COBURG",-37.750961,144.965767,2.0,1.0,1,$320_p.w.,Townhouse,November 2010,3058,2010,11,COBURG,320,House,206011497
109,109,"49 SOUDAN STREET, COBURG",-37.739114,144.951791,3.0,1.0,1,$425_pw,none,March 2010,3058,2010,3,COBURG,425,Other,206011498
110,110,"14A HARDWICK STREET, COBURG",-37.749445,144.968678,2.0,1.0,0,$395_pw,House,October 2010,3058,2010,10,COBURG,395,House,206011497
111,111,"80 SHAFTSBURY STREET, COBURG",-37.748313,144.955317,4.0,2.0,4,$520_pw,none,August 2010,3058,2010,8,COBURG,520,Other,206011498
112,112,"9 BEAUMONDE STREET, COBURG",-37.755099,144.978924,4.0,2.0,1,$500_p.w.,none,June 2010,3058,2010,6,COBURG,500,Other,206011497
113,113,"9 BEAUMONDE STREET, COBURG",-37.755099,144.978924,4.0,2.0,1,$500_p.w.,none,May 2010,3058,2010,5,COBURG,500,Other,206011497
114,114,"156 GORDON STREET, COBURG",-37.7430127,144.9495076,3.0,2.0,2,$495_per_week,House,April 2010,3058,2010,4,COBURG,495,House,206011498
115,115,"46 DAVIS STREET, COBURG",-37.740319,144.951406,3.0,1.0,3,$400_pw,House,December 2010,3058,2010,12,COBURG,400,House,206011498
116,116,"13 COLLINS STREET, COBURG",-37.737022,144.954334,3.0,1.0,2,$395_per_week,Rental_residential,November 2010,3058,2010,11,COBURG,395,Other,206011498
117,117,"2/56 THE AVENUE, COBURG",-37.752826,144.968178,2.0,2.0,1,$250_pw,none,August 2010,3058,2010,8,COBURG,250,Other,206011497
118,118,"114 SHAFTSBURY STREET, COBURG",-37.745519,144.955825,3.0,2.0,1,$450_per_week,none,April 2010,3058,2010,4,COBURG,450,Other,206011498
119,119,"11/40-50 STOCKADE AVENUE, COBURG",-37.737521,144.970247,2.0,1.0,1,$380_pw,Townhouse,June 2010,3058,2010,6,COBURG,380,House,206011497
120,120,"11/40-50 STOCKADE AVENUE, COBURG",-37.737521,144.970247,2.0,1.0,1,$400_Weekly,Townhouse,February 2010,3058,2010,2,COBURG,400,House,206011497
121,121,"11/40-50 STOCKADE AVENUE, COBURG",-37.737521,144.970247,2.0,1.0,1,$400_pw,Townhouse,January 2010,3058,2010,1,COBURG,400,House,206011497
122,122,"39 FISCHER STREET, COBURG",-37.733824,144.953878,3.0,1.0,1,$400_per_week,House,February 2010,3058,2010,2,COBURG,400,House,206011498
123,123,"69 CAMPBELL STREET, COBURG",-37.753608,144.969821,2.0,2.0,1,$450_pw,Rental_residential,August 2010,3058,2010,8,COBURG,450,Other,206011497
124,124,"41/14 BELL STREET, COBURG",-37.74239,144.977185,2.0,1.0,1,$390_p.w.,none,March 2010,3058,2010,3,COBURG,390,Other,206011497
125,125,"41/14 BELL STREET, COBURG",-37.74239,144.977185,2.0,1.0,1,$390,none,February 2010,3058,2010,2,COBURG,390,Other,206011497
126,126,"20 SHACKELL STREET, COBURG",-37.742317,144.952214,3.0,1.0,2,$390_per_week,House,November 2010,3058,2010,11,COBURG,390,House,206011498
127,127,"20/5 INDUSTRY LANE, COBURG",-37.7370286,144.9695513,2.0,1.0,1,$340_per_week,Townhouse,February 2010,3058,2010,2,COBURG,340,House,206011497
128,128,"11/1 MANNA GUM COURT, COBURG",-37.736609,144.975974,3.0,2.0,2,$450,Available Now,December 2010,3058,2010,12,COBURG,450,Other,206011497
129,129,"11/1 MANNA GUM COURT, COBURG",-37.736609,144.975974,3.0,2.0,2,$460_Weekly,Available Now,February 2010,3058,2010,2,COBURG,460,Other,206011497
130,130,"69A MORELAND ROAD, COBURG",-37.756399,144.97422,3.0,1.0,1,$370,none,October 2010,3058,2010,10,COBURG,370,Other,206011497
131,131,"3/11 METHVEN STREET, COBURG",-37.746901,144.963811,2.0,1.0,1,$360_p.w.,none,December 2010,3058,2010,12,COBURG,360,Other,206011497
132,132,"5/144 NICHOLSON STREET, COBURG",-37.745681,144.977713,2.0,1.0,1,$280_pw,none,February 2010,3058,2010,2,COBURG,280,Other,206011497
133,133,"1/1 INDUSTRY LANE, COBURG",-37.7369442,144.9699153,1.0,1.0,1,$340_per_week,none,August 2010,3058,2010,8,COBURG,340,Other,206011497
134,134,"1/1 INDUSTRY LANE, COBURG",-37.7369442,144.9699153,1.0,1.0,1,$355_per_week,none,July 2010,3058,2010,7,COBURG,355,Other,206011497
135,135,"304/19 PENTRIDGE BOULEVARD, COBURG",-37.738903,144.970583,1.0,1.0,1,$330_pw,Available Now,September 2010,3058,2010,9,COBURG,330,Other,206011497
136,136,"407/19 PENTRIDGE BLVD, COBURG",-37.738903,144.970583,2.0,1.0,1,$340_p.w.,Rental_residential,August 2010,3058,2010,8,COBURG,340,Other,206011497
137,137,"2/115 HARDING STREET, COBURG",-37.746057,144.977021,2.0,1.0,1,$340_pw,none,April 2010,3058,2010,4,COBURG,340,Other,206011497
138,138,"3/170 GORDON STREET, COBURG",-37.742134,144.94979,2.0,1.0,1,$350_pw,none,August 2010,3058,2010,8,COBURG,350,Other,206011498
139,139,"3/22 CHAMBERS STREET, COBURG",-37.747267,144.96884,2.0,1.0,1,$330,none,October 2010,3058,2010,10,COBURG,330,Other,206011497
140,140,"1 DARE STREET, COBURG",-37.749962,144.96728,3.0,3.0,2,$420_pw,none,September 2010,3058,2010,9,COBURG,420,Other,206011497
141,141,"25A FISCHER STREET, COBURG",-37.734543,144.953756,2.0,1.0,1,$350_p.w.,Rental_residential,November 2010,3058,2010,11,COBURG,350,Other,206011498
142,142,"4 FARM ROAD, COBURG",-37.736096,144.971437,4.0,2.0,3,$495_pw,Available Now,September 2010,3058,2010,9,COBURG,495,Other,206011497
143,143,"18/2 ALICE STREET, COBURG",-37.743803,144.957178,2.0,1.0,1,$290_pw,none,March 2010,3058,2010,3,COBURG,290,Other,206011498
144,144,"18/2 ALICE STREET, COBURG",-37.743803,144.957178,2.0,1.0,1,$320_pw,none,February 2010,3058,2010,2,COBURG,320,Other,206011498
145,145,"1 HAVEN COURT, COCKATOO",-37.948073,145.496363,2.0,1.0,2,$260_per_week,House,October 2010,3781,2010,10,COCKATOO,260,House,212011289
146,146,"2 BELGRAVE AVENUE, COCKATOO",-37.92732,145.495818,4.0,2.0,6,$300_pw,Rental_residential,February 2010,3781,2010,2,COCKATOO,300,Other,212011289
147,147,"18 CARAWA STREET, COCKATOO",-37.926109,145.49772,3.0,2.0,1,$260_per_week,Rental_residential,June 2010,3781,2010,6,COCKATOO,260,Other,212011289
148,148,"11 ACLARE STREET, COCKATOO",-37.950754,145.509465,3.0,1.0,2,$270,House,February 2010,3781,2010,2,COCKATOO,270,House,212011289
149,149,"35 MARKET STREET, COHUNA",-35.812621,144.22028,4.0,2.0,2,$140_pw,House,September 2010,3568,2010,9,COHUNA,140,House,215031401
150,150,"151 KING GEORGE STREET, COHUNA",-35.802147,144.215476,3.0,1.0,1,$165_pw,House,May 2010,3568,2010,5,COHUNA,165,House,215031401
151,151,"94 CHANNEL STREET, COHUNA",-35.804436,144.214723,2.0,1.0,1,$140_pw,House,October 2010,3568,2010,10,COHUNA,140,House,215031401
152,152,"352 COIMADAI DIGGERS REST ROAD, COIMADAI",-37.6201439,144.5063489,4.0,3.0,4,$500_p.w.,House,December 2010,3340,2010,12,COIMADAI,500,House,213041353
153,153,"352 COIMADAI DIGGERS REST ROAD, COIMADAI",-37.6201439,144.5063489,4.0,3.0,4,$450_per_week,House,August 2010,3340,2010,8,COIMADAI,450,House,213041353
154,154,"80 DRAPERS ROAD, COLAC EAST",-38.3319866,143.6261362,3.0,1.0,2,$240_pw,House,September 2010,3250,2010,9,EAST,240,House,217031472
155,155,"10 FLAXMILL ROAD, COLAC EAST",-38.327462,143.618703,4.0,2.0,0,$320_pw,House,February 2010,3250,2010,2,EAST,320,House,217031473
156,156,"53 POLLACK STREET, COLAC WEST",-38.335818,143.591217,3.0,1.0,2,$200_pw,House,August 2010,3250,2010,8,WEST,200,House,217031472
157,157,"1/42A MANIFOLD STREET, COLAC",-38.33727,143.58236,2.0,1.0,1,$240_pw,none,June 2010,3250,2010,6,COLAC,240,Other,217031472
158,158,"102 QUEEN STREET, COLAC",-38.344296,143.592366,2.0,1.0,1,$185_pw,Townhouse,July 2010,3250,2010,7,COLAC,185,House,217031472
159,159,"LOT 4 BURGE COURT, COLBINABBIN",-36.591533,144.795291,3.0,1.0,1,$180_p.w.,House,September 2010,3559,2010,9,COLBINABBIN,180,House,216011410
160,160,"18 CHEVIOT AVENUE, COLDSTREAM",-37.728222,145.384468,3.0,1.0,1,$310_pw,House,November 2010,3770,2010,11,COLDSTREAM,310,House,211051278
161,161,"18 CHEVIOT AVENUE, COLDSTREAM",-37.728222,145.384468,3.0,1.0,1,$300_pw,House,April 2010,3770,2010,4,COLDSTREAM,300,House,211051278
162,162,"1166 BOONOONAR ROAD, COLIGNAN",-34.546283,142.334486,3.0,1.0,2,$180_pw,none,October 2010,3494,2010,10,COLIGNAN,180,Other,215021398
163,163,"129 SACKVILLE STREET, COLLINGWOOD",-37.79908,144.991078,2.0,1.0,0,$450_pw,Rental_residential,July 2010,3066,2010,7,COLLINGWOOD,450,Other,206071141
164,164,"42 BALLARAT STREET, COLLINGWOOD",-37.795156,144.990856,2.0,1.0,0,$440_pw,Rental_residential,August 2010,3066,2010,8,COLLINGWOOD,440,Other,206071141
165,165,"136 RUPERT STREET, COLLINGWOOD",-37.803877,144.989676,2.0,1.0,0,$430_per_week,none,October 2010,3066,2010,10,COLLINGWOOD,430,Other,206071141
166,166,"136 RUPERT STREET, COLLINGWOOD",-37.803877,144.989676,2.0,1.0,0,$480_per_week,none,February 2010,3066,2010,2,COLLINGWOOD,480,Other,206071141
167,167,"5/15-17 BENDIGO STREET, COLLINGWOOD",-37.796087,144.992632,1.0,1.0,1,$265_pw,Rental_residential,June 2010,3066,2010,6,COLLINGWOOD,265,Other,206071141
168,168,"14/34 SMITH STREET, COLLINGWOOD",-37.8072953,144.9828207,1.0,1.0,1,$365_pw,Rental_residential,July 2010,3066,2010,7,COLLINGWOOD,365,Other,206071142
169,169,"9/1 PEEL STREET, COLLINGWOOD",-37.805201,144.983757,1.0,1.0,1,$345_pw,Rental_residential,April 2010,3066,2010,4,COLLINGWOOD,345,Other,206071141
170,171,"321 WELLINGTON STREET, COLLINGWOOD",-37.795446,144.987781,2.0,1.0,0,$395_pw,none,February 2010,3066,2010,2,COLLINGWOOD,395,Other,206071141
171,172,"1/1 PEEL STREET, COLLINGWOOD",-37.8050584,144.9837832,1.0,1.0,1,$390,Rental_residential,October 2010,3066,2010,10,COLLINGWOOD,390,Other,206071141
172,173,"1/1 PEEL STREET, COLLINGWOOD",-37.8050584,144.9837832,1.0,1.0,1,$390_pw,Rental_residential,April 2010,3066,2010,4,COLLINGWOOD,390,Other,206071141
173,174,"8/78 OXFORD STREET, COLLINGWOOD",-37.803368,144.985101,1.0,1.0,1,$370_per_week,Unit,November 2010,3066,2010,11,COLLINGWOOD,370,Apartment,206071141
174,175,"15/99 OXFORD STREET, COLLINGWOOD",-37.80752,144.983944,1.0,1.0,1,$360_per_week,Unit,September 2010,3066,2010,9,COLLINGWOOD,360,Apartment,206071141
175,176,"55 GIPPS STREET, COLLINGWOOD",-37.804818,144.988822,2.0,1.0,1,$450_per_week,House,April 2010,3066,2010,4,COLLINGWOOD,450,House,206071141
176,177,"162 KEELE STREET, COLLINGWOOD",-37.79749,144.992525,2.0,1.0,0,$475,House,December 2010,3066,2010,12,COLLINGWOOD,475,House,206071141
177,178,"506/103-107 OXFORD STREET, COLLINGWOOD",-37.80316,144.984807,2.0,1.0,1,$495_pw,Rental_residential,July 2010,3066,2010,7,COLLINGWOOD,495,Other,206071141
178,179,"3/20 BEDFORD STREET, COLLINGWOOD",-37.800633,144.984904,2.0,1.0,1,$495_pw,none,February 2010,3066,2010,2,COLLINGWOOD,495,Other,206071141
179,180,"6/15-25 OXFORD STREET, COLLINGWOOD",-37.807803,144.984175,2.0,1.0,1,$460_pw,none,October 2010,3066,2010,10,COLLINGWOOD,460,Other,206071141
180,181,"6/15-25 OXFORD STREET, COLLINGWOOD",-37.807803,144.984175,2.0,1.0,1,$460_pw,none,September 2010,3066,2010,9,COLLINGWOOD,460,Other,206071141
181,182,"9/109 OXFORD STREET, COLLINGWOOD",-37.802889,144.984737,2.0,1.0,1,$460_pw,none,February 2010,3066,2010,2,COLLINGWOOD,460,Other,206071141
182,184,"33 MCLEODS ROAD, CONDAH",-37.949464,141.754979,3.0,1.0,2,$170_per_week,none,December 2010,3303,2010,12,CONDAH,170,Other,217011420
183,185,"235 KNIGHTS ROAD, CONGUPNA",-36.323892,145.458638,3.0,1.0,1,$210_pw,none,February 2010,3633,2010,2,CONGUPNA,210,Other,216031418
184,186,"610 GRAHAMVALE ROAD, CONGUPNA",-36.309451,145.432335,3.0,1.0,2,$180_pw,House,January 2010,3633,2010,1,CONGUPNA,180,House,216031418
185,187,"70 TANK CORNER ROAD, CONGUPNA",-36.30165,145.43311,3.0,1.0,1,$170_per_week,none,December 2010,3633,2010,12,CONGUPNA,170,Other,216031418
186,188,"3593 KATAMATITE ROAD, CONGUPNA",-36.300179,145.434519,4.0,1.0,2,$250_per_week,none,September 2010,3633,2010,9,CONGUPNA,250,Other,216031418
187,189,"3593 KATAMATITE ROAD, CONGUPNA",-36.300179,145.434519,4.0,1.0,2,$250_pw,none,August 2010,3633,2010,8,CONGUPNA,250,Other,216031418
188,190,"755 LEMNOS NORTH ROAD, CONGUPNA",-36.297128,145.464944,4.0,2.0,1,$360_pw,House,September 2010,3633,2010,9,CONGUPNA,360,House,216031418
189,191,"520 GOULBURN VALLEY HIGHWAY, CONGUPNA",-36.297923,145.431809,5.0,2.0,1,$420_pw,House,July 2010,3633,2010,7,CONGUPNA,420,House,216031418
190,192,"9A WESTMERE CRESCENT, COOLAROO",-37.664659,144.93586,1.0,1.0,1,$220_per_week,Unit,August 2010,3048,2010,8,COOLAROO,220,Apartment,210051243
191,193,"9A WESTMERE CRESCENT, COOLAROO",-37.664659,144.93586,1.0,1.0,1,$195_per_week,Unit,May 2010,3048,2010,5,COOLAROO,195,Apartment,210051243
192,194,"6 LOVAT COURT, COOLAROO",-37.654336,144.930513,3.0,1.0,2,$260_pw,Rental_residential,April 2010,3048,2010,4,COOLAROO,260,Other,210051243
193,195,"44 LONGFORD CRESCENT, COOLAROO",-37.661346,144.92736,3.0,1.0,1,$290_per_week,House,October 2010,3048,2010,10,COOLAROO,290,House,210051243
194,196,"18 MOYNE CRESCENT, COOLAROO",-37.656359,144.930264,3.0,1.0,1,$280_per_week,House,November 2010,3048,2010,11,COOLAROO,280,House,210051243
195,197,"3 LOFTY COURT, CORIO",-38.070837,144.370725,3.0,1.0,1,$215_pw,none,October 2010,3214,2010,10,CORIO,215,Other,203021486
196,198,"3 LOFTY COURT, CORIO",-38.070837,144.370725,3.0,1.0,1,$215_p.w.,none,September 2010,3214,2010,9,CORIO,215,Other,203021486
197,199,"3 LOFTY COURT, CORIO",-38.070837,144.370725,3.0,1.0,1,$215_p.w.,none,August 2010,3214,2010,8,CORIO,215,Other,203021486
198,200,"59 CLOVERDALE DRIVE, CORIO",-38.067956,144.347957,4.0,2.0,2,$350,House,January 2010,3214,2010,1,CORIO,350,House,203021486
199,201,"124 PLANTATION ROAD, CORIO",-38.067161,144.362963,3.0,2.0,2,$270,none,January 2010,3214,2010,1,CORIO,270,Other,203021486
200,202,"5 VERMONT AVENUE, CORIO",-38.082459,144.357115,2.0,1.0,1,$210_per_week,none,March 2010,3214,2010,3,CORIO,210,Other,203021486
201,203,"14 CORANGAMITE DRIVE, CORIO",-38.067773,144.34357,4.0,1.0,2,$270,House,June 2010,3214,2010,6,CORIO,270,House,203021486
202,204,"89 COLORADO DRIVE, CORIO",-38.078145,144.350478,3.0,1.0,1,$190,House,September 2010,3214,2010,9,CORIO,190,House,203021486
203,205,"25 QUEBEC AVENUE, CORIO",-38.078008,144.360939,3.0,1.0,4,$250_pw,House,July 2010,3214,2010,7,CORIO,250,House,203021486
204,206,"3/8-9 FIELDMAN COURT, CORIO",-38.068974,144.350346,2.0,1.0,1,$230_pw,none,January 2010,3214,2010,1,CORIO,230,Other,203021486
205,207,"182 LARPENT ROAD, COROROOKE",-38.285258,143.504604,1.0,1.0,1,$130_pw,House,April 2010,3254,2010,4,COROROOKE,130,House,217031473
206,208,"10 OUTLOOK DRIVE, COWES",-38.456911,145.205001,4.0,1.0,2,$280,House,May 2010,3922,2010,5,COWES,280,House,205031091
207,209,"31 OUTLOOK DRIVE, COWES",-38.457133,145.202724,4.0,2.0,0,$430_p.w.,House,July 2010,3922,2010,7,COWES,430,House,205031091
208,210,"31 OUTLOOK DRIVE, COWES",-38.457133,145.202724,4.0,2.0,0,$430_p.w.,House,May 2010,3922,2010,5,COWES,430,House,205031091
209,211,"1/96-100 THOMPSON AVENUE, COWES",-38.451396,145.238254,2.0,2.0,1,$190,Unit,August 2010,3922,2010,8,COWES,190,Apartment,205031091
210,212,"1/30 WYNDHAM AVENUE, COWES",-38.455184,145.233564,2.0,1.0,1,$220_per_week,House,August 2010,3922,2010,8,COWES,220,House,205031091
211,213,"57 REDWOOD DRIVE, COWES",-38.462887,145.241769,3.0,2.0,2,$350_p.w.,House,February 2010,3922,2010,2,COWES,350,House,205031091
212,214,"13 ROYDON ROAD, COWES",-38.453742,145.232441,2.0,1.0,0,$255_per_week,House,December 2010,3922,2010,12,COWES,255,House,205031091
213,215,"4/35 CHAPEL STREET, COWES",-38.450944,145.24391,2.0,1.0,1,$205,Rental_residential,July 2010,3922,2010,7,COWES,205,Other,205031091
214,216,"2/64 JUSTICE ROAD, COWES",-38.4557179,145.2106686,3.0,2.0,2,$330,Townhouse,August 2010,3922,2010,8,COWES,330,House,205031091
215,217,"2/64 JUSTICE ROAD, COWES",-38.4557179,145.2106686,3.0,2.0,2,$330_per_week,Townhouse,June 2010,3922,2010,6,COWES,330,House,205031091
216,218,"15 CRICKET ST, COWWARR",-38.0125485,146.6979245,3.0,1.0,0,$270_Weekly,House,February 2010,3857,2010,2,COWWARR,270,House,205051102
218,220,"22 FLAGSTAFF LOOP, CRAIGIEBURN",-37.584694,144.939183,3.0,2.0,2,$340_per_week,House,August 2010,3064,2010,8,CRAIGIEBURN,340,House,210051442
219,221,"8 BRECON NOOK, CRAIGIEBURN",-37.608906,144.924308,3.0,1.0,0,$265_p.w.,House,November 2010,3064,2010,11,CRAIGIEBURN,265,House,210051443
220,222,"274 WATERVIEW BOULEVARD, CRAIGIEBURN",-37.582363,144.907861,4.0,2.0,2,$390,House,December 2010,3064,2010,12,CRAIGIEBURN,390,House,210051543
221,223,"33 PRINCES CIRCUIT, CRAIGIEBURN",-37.584038,144.936392,3.0,2.0,2,$365_p.w.,House,May 2010,3064,2010,5,CRAIGIEBURN,365,House,210051442
222,224,"11 BEECHTREE WAY, CRANBOURNE NORTH",-38.083203,145.318652,4.0,2.0,2,$340,House,November 2010,3977,2010,11,NORTH,340,House,212031559
223,225,"4/20 HUON PARK ROAD, CRANBOURNE NORTH",-38.074527,145.27318,3.0,2.0,2,$310,none,September 2010,3977,2010,9,NORTH,310,Other,212031560
224,226,"4/20 HUON PARK ROAD, CRANBOURNE NORTH",-38.074527,145.27318,3.0,2.0,2,$310,none,August 2010,3977,2010,8,NORTH,310,Other,212031560
225,227,"4/20 HUON PARK ROAD, CRANBOURNE NORTH",-38.074527,145.27318,3.0,2.0,2,$310_pw,none,July 2010,3977,2010,7,NORTH,310,Other,212031560
226,228,"12 ISLINGTON AVENUE, CRANBOURNE NORTH",-38.069538,145.289037,4.0,2.0,2,$360_pw,House,November 2010,3977,2010,11,NORTH,360,House,212031560
227,229,"27 ELIZA STREET, CRANBOURNE NORTH",-38.07808763,145.28925138,3.0,1.0,1,$280_per_week,House,October 2010,3977,2010,10,NORTH,280,House,212031560
228,230,"20 COURTENAY AVENUE, CRANBOURNE NORTH",-38.077896,145.27619,3.0,1.0,1,$290,House,October 2010,3977,2010,10,NORTH,290,House,212031560
229,231,"20 COURTENAY AVENUE, CRANBOURNE NORTH",-38.077896,145.27619,3.0,1.0,1,$280,House,August 2010,3977,2010,8,NORTH,280,House,212031560
230,232,"590 CRANBOURNE FRANKSTON ROAD, CRANBOURNE SOUTH",-38.133811,145.229305,4.0,2.0,4,$360_Weekly,Available Now,December 2010,3977,2010,12,SOUTH,360,Other,212031303
231,233,"10 NERRENA RISE, CRANBOURNE WEST",-38.096508,145.259518,3.0,2.0,2,$340,House,December 2010,3977,2010,12,WEST,340,House,212031304
232,234,"28 SCOTT STREET, CRANBOURNE",-38.109806,145.280379,3.0,1.0,2,$250_per_week,none,March 2010,3977,2010,3,CRANBOURNE,250,Other,212031300
233,235,"27 PEPPERBUSH CIRCUIT, CRANBOURNE",-38.086679,145.281677,4.0,2.0,2,$310,House,February 2010,3977,2010,2,CRANBOURNE,310,House,212031300
234,236,"19 THOMAS CRESCENT, CRANBOURNE",-38.106523,145.270989,3.0,1.0,1,$270,House,March 2010,3977,2010,3,CRANBOURNE,270,House,212031300
235,237,"23 LAMONT CRESCENT, CRANBOURNE",-38.099023,145.270836,3.0,1.0,1,$280_Weekly,House,August 2010,3977,2010,8,CRANBOURNE,280,House,212031300
236,238,"19 JILLIAN STREET, CRANBOURNE",-38.107651,145.274156,3.0,1.0,1,$300_per_week,Rental_residential,August 2010,3977,2010,8,CRANBOURNE,300,Other,212031300
237,239,"8 CANTERBURY STREET, CRANBOURNE",-38.100922,145.285479,3.0,2.0,2,$330_per_week,House,November 2010,3977,2010,11,CRANBOURNE,330,House,212031300
238,240,"2 PEPPERBUSH CIRCUIT, CRANBOURNE",-38.086034,145.283276,4.0,2.0,2,$350_p.w.,House,November 2010,3977,2010,11,CRANBOURNE,350,House,212031300
239,241,"4 BLAXLAND STREET, BURNSIDE HEIGHTS",-37.73260444,144.76011929,3.0,3.0,2,$350_per_week,House,September 2010,3023,2010,9,HEIGHTS,350,House,213041462
240,242,"25 BELLEVILLE CLOSE, BURNSIDE HEIGHTS",-37.72466778,144.75340716,3.0,2.0,2,$310_per_week,House,December 2010,3023,2010,12,HEIGHTS,310,House,213041462
241,243,"2 FLORIDA COURT, BURNSIDE HEIGHTS",-37.7357208,144.75009035,3.0,2.0,2,$350_per_week,House,December 2010,3023,2010,12,HEIGHTS,350,House,213041462
242,244,"15 WYLIE CIRCUIT, BURNSIDE HEIGHTS",-37.73201578,144.75406918,4.0,2.0,2,$350_per_week,House,October 2010,3023,2010,10,HEIGHTS,350,House,213041462
243,245,"3 SAVIOUR ROAD, BURNSIDE HEIGHTS",-37.7263099,144.7571593,3.0,2.0,1,$385_per_week,none,October 2010,3023,2010,10,HEIGHTS,385,Other,213041462
244,246,"3 GOULD PLACE, BURNSIDE",-37.751245,144.749376,3.0,1.0,1,$300_p.w.,none,November 2010,3023,2010,11,BURNSIDE,300,Other,213041461
245,247,"97 BURWOOD HIGHWAY, BURWOOD EAST",-37.850939,145.140001,3.0,1.0,2,$350,House,January 2010,3151,2010,1,EAST,350,House,207031166
246,248,"25 DOROTHY STREET, BURWOOD EAST",-37.854663,145.145829,3.0,1.0,1,$350,House,January 2010,3151,2010,1,EAST,350,House,207031166
247,249,"295 BLACKBURN ROAD, BURWOOD EAST",-37.846728,145.153585,4.0,2.0,2,$410_pw,House,January 2010,3151,2010,1,EAST,410,House,207031166
248,250,"75 SEVENOAKS ROAD, BURWOOD EAST",-37.858463,145.155964,3.0,1.0,1,$430,House,January 2010,3151,2010,1,EAST,430,House,207031166
249,251,"15 MOONA STREET, BURWOOD EAST",-37.852733,145.138887,3.0,1.0,2,$350_per_week,House,July 2010,3151,2010,7,EAST,350,House,207031166
250,252,"48 ROBINLEE AVENUE, BURWOOD EAST",-37.849451,145.158313,3.0,1.0,2,$395_p.w.,House,July 2010,3151,2010,7,EAST,395,House,207031166
251,253,"68A ROSLYN STREET, BURWOOD",-37.845154,145.103348,1.0,1.0,1,$220,none,June 2010,3125,2010,6,BURWOOD,220,Other,207031165
252,254,"58 ROSLYN STREET, BURWOOD",-37.845828,145.103217,4.0,1.0,2,$450_pw,none,December 2010,3125,2010,12,BURWOOD,450,Other,207031165
253,255,"80 PARER STREET, BURWOOD",-37.844473,145.104706,3.0,2.0,2,$430_p.w.,none,July 2010,3125,2010,7,BURWOOD,430,Other,207031165
254,256,"80 PARER STREET, BURWOOD",-37.844473,145.104706,3.0,2.0,2,$465_per_week,none,February 2010,3125,2010,2,BURWOOD,465,Other,207031165
255,257,"17 CROMWELL STREET, BURWOOD",-37.85218,145.105285,3.0,1.0,2,$450_p.w.,House,June 2010,3125,2010,6,BURWOOD,450,House,207031165
256,258,"17 CROMWELL STREET, BURWOOD",-37.85218,145.105285,3.0,1.0,2,$470,House,May 2010,3125,2010,5,BURWOOD,470,House,207031165
257,259,"1/2 FINCH STREET, BURWOOD",-37.851738,145.12391,3.0,2.0,2,$550,Townhouse,December 2010,3125,2010,12,BURWOOD,550,House,207031165
258,260,"2A RENOWN STREET, BURWOOD",-37.851639,145.122251,3.0,2.0,1,$400_per_week,House,November 2010,3125,2010,11,BURWOOD,400,House,207031165
259,261,"17 STEPHENS STREET, BURWOOD",-37.856717,145.108984,2.0,1.0,2,$335_per_week,House,September 2010,3125,2010,9,BURWOOD,335,House,212051319
260,262,"1/8 RENOWN STREET, BURWOOD",-37.852163,145.12234,4.0,2.0,2,$560_per_week,Townhouse,May 2010,3125,2010,5,BURWOOD,560,House,207031165
261,263,"7 HUGHES STREET, BURWOOD",-37.852023,145.1079,3.0,1.0,1,$325_per_week,House,June 2010,3125,2010,6,BURWOOD,325,House,207031165
262,264,"7 HUGHES STREET, BURWOOD",-37.852023,145.1079,3.0,1.0,1,$370_pw,House,April 2010,3125,2010,4,BURWOOD,370,House,207031165
263,265,"15 CUMMING STREET, BURWOOD",-37.851446,145.11354,3.0,1.0,2,$395,House,November 2010,3125,2010,11,BURWOOD,395,House,207031165
264,266,"15 CUMMING STREET, BURWOOD",-37.851446,145.11354,3.0,1.0,2,$400,House,September 2010,3125,2010,9,BURWOOD,400,House,207031165
265,267,"15 GILLIESTON ROAD, BYRNESIDE",-36.4167807,145.1864301,4.0,1.0,2,$300_pw,none,April 2010,3617,2010,4,BYRNESIDE,300,Other,216031419
266,268,"72 DYAR AVENUE, CABARITA",-34.2121384,142.0901623,3.0,2.0,2,$375,none,September 2010,3505,2010,9,CABARITA,375,Other,215021396
267,270,"24 ALIZA AVENUE, CALIFORNIA GULLY",-36.722933,144.271314,4.0,2.0,2,$310_pw,none,January 2010,3556,2010,1,GULLY,310,Other,202011019
268,271,"2/10 PEARCE STREET, CALIFORNIA GULLY",-36.730891,144.26618,3.0,1.0,1,$180_per_week,House,April 2010,3556,2010,4,GULLY,180,House,202011019
269,272,"1/3 HALLEY AVENUE, CAMBERWELL",-37.846282,145.069709,3.0,2.0,2,$470_pw,none,July 2010,3124,2010,7,CAMBERWELL,470,Other,207011149
270,273,"1/3 HALLEY AVENUE, CAMBERWELL",-37.846282,145.069709,3.0,2.0,2,$525_pw,none,May 2010,3124,2010,5,CAMBERWELL,525,Other,207011149
271,274,"4 SEYMOUR GROVE, CAMBERWELL",-37.835861,145.060622,5.0,3.0,3,$900_p.w.,none,August 2010,3124,2010,8,CAMBERWELL,900,Other,207011149
272,275,"2/68 BRINSLEY ROAD, CAMBERWELL",-37.831576,145.067995,2.0,1.0,1,$370_pw,none,March 2010,3124,2010,3,CAMBERWELL,370,Other,207011149
273,276,"252 HIGHFIELD ROAD, CAMBERWELL",-37.848314,145.082571,3.0,2.0,3,$680_per_week,House,November 2010,3124,2010,11,CAMBERWELL,680,House,207011149
274,277,"6/24 ALLAMBEE AVENUE, CAMBERWELL",-37.835011,145.07699,2.0,1.0,1,$420_per_week,none,September 2010,3124,2010,9,CAMBERWELL,420,Other,207011149
275,278,"6/24 ALLAMBEE AVENUE, CAMBERWELL",-37.835011,145.07699,2.0,1.0,1,$420_per_week,none,January 2010,3124,2010,1,CAMBERWELL,420,Other,207011149
276,280,"2/233 HIGHFIELD ROAD, CAMBERWELL",-37.8466,145.082064,3.0,2.0,1,$600_per_week,none,September 2010,3124,2010,9,CAMBERWELL,600,Other,207011149
277,281,"41 CHRISTOWEL STREET, CAMBERWELL",-37.83778,145.067185,4.0,2.0,3,$950_pw,none,April 2010,3124,2010,4,CAMBERWELL,950,Other,207011149
278,282,"43 BELLETT STREET, CAMBERWELL",-37.835812,145.066418,3.0,2.0,3,$650_pw,none,May 2010,3124,2010,5,CAMBERWELL,650,Other,207011149
279,283,"18 NETHERWAY STREET, CAMBERWELL",-37.842058,145.08912,3.0,2.0,1,$450,House,December 2010,3124,2010,12,CAMBERWELL,450,House,207011149
280,284,"16/700 RIVERSDALE ROAD, CAMBERWELL",-37.83425,145.074497,3.0,1.0,1,$450_pw,House,October 2010,3124,2010,10,CAMBERWELL,450,House,207011149
281,285,"62A CHRISTOWEL STREET, CAMBERWELL",-37.839021,145.066556,3.0,1.0,1,$575_per_week,House,October 2010,3124,2010,10,CAMBERWELL,575,House,207011149
282,286,"62A CHRISTOWEL STREET, CAMBERWELL",-37.839021,145.066556,3.0,1.0,1,$575_per_week,House,September 2010,3124,2010,9,CAMBERWELL,575,House,207011149
283,287,"1/31 HIGH ROAD, CAMBERWELL",-37.842785,145.057707,3.0,2.0,2,$520_pw,House,December 2010,3124,2010,12,CAMBERWELL,520,House,207011149
284,288,"1/31 HIGH ROAD, CAMBERWELL",-37.842785,145.057707,3.0,2.0,2,$520_pw,House,March 2010,3124,2010,3,CAMBERWELL,520,House,207011149
285,289,"10A JUDD STREET, CAMBERWELL",-37.836455,145.064137,2.0,1.0,1,$480,Rental_residential,October 2010,3124,2010,10,CAMBERWELL,480,Other,207011149
286,290,"1/911 TOORAK ROAD, CAMBERWELL",-37.845911,145.057483,4.0,3.0,2,$985,Townhouse,November 2010,3124,2010,11,CAMBERWELL,985,House,207011149
287,291,"39 LYNDEN STREET, CAMBERWELL",-37.840895,145.086331,6.0,2.0,2,$800_pw,Rental_residential,February 2010,3124,2010,2,CAMBERWELL,800,Other,207011149
288,292,"3/17 GARDEN ROAD, CAMBERWELL",-37.843659,145.091424,2.0,1.0,1,$300,Rental_residential,July 2010,3124,2010,7,CAMBERWELL,300,Other,207011149
289,293,"2/28 ALLAMBEE AVENUE, CAMBERWELL",-37.835228,145.077317,2.0,1.0,1,$360_pw,Rental_residential,September 2010,3124,2010,9,CAMBERWELL,360,Other,207011149
290,294,"500 FLINDERS STREET, MELBOURNE",-37.820019,144.957827,1.0,1.0,0,$230_pw,Available Now,March 2010,3000,2010,3,MELBOURNE,230,Other,206041505
291,295,"1711/668 BOURKE STREET, MELBOURNE",-37.816897,144.953675,3.0,2.0,2,$660_pw,Available Now,April 2010,3000,2010,4,MELBOURNE,660,Other,206041505
292,297,"603/8 EXPLORATION LANE, MELBOURNE",-37.8092558,144.9683848,2.0,2.0,0,$480,Available Now,October 2010,3000,2010,10,MELBOURNE,480,Other,206041503
293,298,"1110/22-24 JANE BELL LANE, MELBOURNE",-37.81022,144.966265,1.0,1.0,1,$400_pw,none,October 2010,3000,2010,10,MELBOURNE,400,Other,206041504
294,299,"124/546 FLINDERS STREET, MELBOURNE",-37.820521,144.956143,1.0,1.0,0,$240_p.w.,none,November 2010,3000,2010,11,MELBOURNE,240,Other,206041505
295,300,"3305/483 SWANSTON STREET, MELBOURNE",-37.807218,144.962336,2.0,1.0,1,$550_pw,none,October 2010,3000,2010,10,MELBOURNE,550,Other,206041504
296,301,"1403/225 ELIZABETH STREET, MELBOURNE",-37.813122,144.962367,2.0,1.0,0,$500_pw,none,August 2010,3000,2010,8,MELBOURNE,500,Other,206041505
297,302,"1403/225 ELIZABETH STREET, MELBOURNE",-37.813122,144.962367,2.0,1.0,0,$540_pw,none,June 2010,3000,2010,6,MELBOURNE,540,Other,206041505
298,303,"2402/250 ELIZABETH STREET, MELBOURNE",-37.812679,144.962733,2.0,1.0,1,$600,Available Now,October 2010,3000,2010,10,MELBOURNE,600,Other,206041503
299,304,"605/455 ELIZABETH STREET, MELBOURNE",-37.808429,144.960206,2.0,1.0,0,$450_pw,none,June 2010,3000,2010,6,MELBOURNE,450,Other,206041504
300,305,"705/422 COLLINS STREET, MELBOURNE",-37.817217,144.96034,2.0,1.0,0,$450_pw,Available Now,March 2010,3000,2010,3,MELBOURNE,450,Other,206041505
301,306,"250 ELIZABETH STREET, MELBOURNE",-37.81278992,144.96253967,1.0,1.0,1,$480_Weekly,Available Now,December 2010,3000,2010,12,MELBOURNE,480,Other,206041503
302,307,"250 ELIZABETH STREET, MELBOURNE",-37.81278992,144.96253967,1.0,1.0,1,$470,Available Now,September 2010,3000,2010,9,MELBOURNE,470,Other,206041503
303,308,"250 ELIZABETH STREET, MELBOURNE",-37.81278992,144.96253967,1.0,1.0,1,$410_per_week,Available Now,July 2010,3000,2010,7,MELBOURNE,410,Other,206041503
304,309,"250 ELIZABETH STREET, MELBOURNE",-37.81278992,144.96253967,1.0,1.0,1,$400_per_week,Available Now,June 2010,3000,2010,6,MELBOURNE,400,Other,206041503
305,310,"250 ELIZABETH STREET, MELBOURNE",-37.81278992,144.96253967,1.0,1.0,1,$400_pw,Available Now,May 2010,3000,2010,5,MELBOURNE,400,Other,206041503
306,311,"250 ELIZABETH STREET, MELBOURNE",-37.81278992,144.96253967,1.0,1.0,1,$475_pw,Available Now,April 2010,3000,2010,4,MELBOURNE,475,Other,206041503
307,312,"250 ELIZABETH STREET, MELBOURNE",-37.81278992,144.96253967,1.0,1.0,1,$500_pw,Available Now,February 2010,3000,2010,2,MELBOURNE,500,Other,206041503
308,313,"250 ELIZABETH STREET, MELBOURNE",-37.81278992,144.96253967,1.0,1.0,1,$420_pw,Available Now,January 2010,3000,2010,1,MELBOURNE,420,Other,206041503
309,314,"603/25-33 WILLS STREET, MELBOURNE",-37.810743,144.956997,1.0,1.0,0,$390,Available Now,November 2010,3000,2010,11,MELBOURNE,390,Other,206041504
310,315,"603/25-33 WILLS STREET, MELBOURNE",-37.810743,144.956997,1.0,1.0,0,$400,Available Now,October 2010,3000,2010,10,MELBOURNE,400,Other,206041504
311,316,"6B/131 LONSDALE STREET, MELBOURNE",-37.810713,144.968409,1.0,1.0,0,$350,none,July 2010,3000,2010,7,MELBOURNE,350,Other,206041503
312,317,"200 SPENCER STREET, MELBOURNE",-37.81613541,144.95289612,2.0,2.0,1,$400_pw,none,April 2010,3000,2010,4,MELBOURNE,400,Other,206041505
313,318,"200 SPENCER STREET, MELBOURNE",-37.81613541,144.95289612,2.0,2.0,1,$450_pw,none,February 2010,3000,2010,2,MELBOURNE,450,Other,206041505
314,319,"812/29-31 MARKET STREET, MELBOURNE",-37.818652,144.960479,2.0,2.0,0,$550_pw,Available Now,November 2010,3000,2010,11,MELBOURNE,550,Other,206041505
315,320,"2803/483 SWANSTON STREET, MELBOURNE",-37.807218,144.962336,2.0,1.0,0,$550_pw,none,February 2010,3000,2010,2,MELBOURNE,550,Other,206041504
316,321,"1108/68 LA TROBE STREET, MELBOURNE",-37.809552,144.9617995,2.0,1.0,1,$500_per_week,none,November 2010,3000,2010,11,MELBOURNE,500,Other,206041504
317,322,"10/17 QUEENS ROAD, MELBOURNE",-37.818427,144.9621,1.0,1.0,1,$360_per_week,none,July 2010,3000,2010,7,MELBOURNE,360,Other,206041505
318,323,"3 WENTWORTH ROAD, MELTON SOUTH",-37.713127,144.568503,3.0,1.0,5,$220_per_week,House,January 2010,3338,2010,1,SOUTH,220,House,213041578
319,324,"2 WILSON ROAD, MELTON SOUTH",-37.708944,144.57278,3.0,1.0,2,$240_Weekly,House,June 2010,3338,2010,6,SOUTH,240,House,213041578
320,325,"11 LINCOLN WAY, MELTON WEST",-37.672746,144.558418,4.0,2.0,3,$265,House,September 2010,3337,2010,9,WEST,265,House,213041358
321,326,"1 STATON CRESCENT, MELTON WEST",-37.681347,144.541885,4.0,2.0,4,$335_p.w.,House,September 2010,3337,2010,9,WEST,335,House,213041358
322,327,"1 JOAN STREET, MELTON",-37.687138,144.574592,3.0,1.0,4,$210_per_week,House,February 2010,3337,2010,2,MELTON,210,House,213041577
323,328,"1 JOAN STREET, MELTON",-37.687138,144.574592,3.0,1.0,4,$210_per_week,House,January 2010,3337,2010,1,MELTON,210,House,213041577
324,329,"9 WESTMILL VISTA, MELTON",-37.686721,144.555458,2.0,1.0,1,$230_per_week,House,January 2010,3337,2010,1,MELTON,230,House,213041358
325,330,"5 ESSEX DRIVE, MELTON",-37.679341,144.586785,3.0,1.0,1,$250_per_week,Rental_residential,January 2010,3337,2010,1,MELTON,250,Other,213041577
326,331,"32 LAKEWOOD BOULEVARD, MELTON",-37.690675,144.587912,3.0,2.0,2,$300_p.w.,House,May 2010,3337,2010,5,MELTON,300,House,213041577
327,332,"80 LAKEWOOD BOULEVARD, MELTON",-37.6887863,144.588889,3.0,2.0,2,$260_per_week,House,July 2010,3337,2010,7,MELTON,260,House,213041577
328,333,"27 MARINA DRIVE, MELTON",-37.677741,144.582131,3.0,1.0,1,$245_p.w.,House,May 2010,3337,2010,5,MELTON,245,House,213041577
329,334,"8 HUDSON PLACE, MELTON",-37.678256,144.584394,3.0,1.0,2,$270_per_week,House,January 2010,3337,2010,1,MELTON,270,House,213041577
330,335,"43 HENRY STREET, MELTON",-37.686111,144.58076,3.0,1.0,1,$255_per_week,House,August 2010,3337,2010,8,MELTON,255,House,213041577
331,336,"56 BARRIES ROAD, MELTON",-37.688408,144.575932,3.0,2.0,1,$220_per_week,House,February 2010,3337,2010,2,MELTON,220,House,213041577
332,337,"56 BARRIES ROAD, MELTON",-37.688408,144.575932,3.0,2.0,1,$220_per_week,House,January 2010,3337,2010,1,MELTON,220,House,213041577
333,338,"3 CARINA DRIVE, MELTON",-37.682315,144.5689481,3.0,1.0,1,$235_p.w.,Available Now,July 2010,3337,2010,7,MELTON,235,Other,213041577
334,339,"506 HIGH STREET, MELTON",-37.683826,144.569264,3.0,1.0,1,$240_per_week,House,December 2010,3337,2010,12,MELTON,240,House,213041577
335,340,"23 PLOVER STREET, MELTON",-37.677741,144.573378,3.0,2.0,2,$210_Weekly,none,February 2010,3337,2010,2,MELTON,210,Other,213041577
336,341,"23 PLOVER STREET, MELTON",-37.677741,144.573378,3.0,2.0,2,$210_pw,none,January 2010,3337,2010,1,MELTON,210,Other,213041577
337,342,"21 QUAIL CRESCENT, MELTON",-37.679384,144.572241,4.0,1.0,1,$255_per_week,House,December 2010,3337,2010,12,MELTON,255,House,213041577
338,343,"8 FALCON DRIVE, MELTON",-37.674332,144.575417,3.0,1.0,3,$210_pw,none,June 2010,3337,2010,6,MELTON,210,Other,213041577
339,344,"13 JOAN STREET, MELTON",-37.68609,144.574467,3.0,1.0,2,$240_per_week,House,February 2010,3337,2010,2,MELTON,240,House,213041577
340,345,"9/20-24 PALMERSTON STREET, MELTON",-37.688049,144.584038,3.0,1.0,1,$290_p.w.,Rental_residential,December 2010,3337,2010,12,MELTON,290,Other,213041577
341,346,"49 TERN COURT, MELTON",-37.676632,144.571136,3.0,1.0,2,$250_per_week,House,January 2010,3337,2010,1,MELTON,250,House,213041577
342,347,"495 BOGGY CREEK ROAD, MELWOOD",-37.746807,147.500503,3.0,1.0,3,$240_Weekly,none,July 2010,3875,2010,7,MELWOOD,240,Other,205021082
343,348,"495 BOGGY CREEK ROAD, MELWOOD",-37.746807,147.500503,3.0,1.0,3,$190_Weekly,none,June 2010,3875,2010,6,MELWOOD,190,Other,205021082
344,349,"29B SWANSTON STREET, MENTONE",-37.978348,145.065913,3.0,1.0,1,$470_pw,Available Now,November 2010,3194,2010,11,MENTONE,470,Other,208031190
345,350,"29B SWANSTON STREET, MENTONE",-37.978348,145.065913,3.0,1.0,1,$470,Available Now,October 2010,3194,2010,10,MENTONE,470,Other,208031190
346,351,"29B SWANSTON STREET, MENTONE",-37.978348,145.065913,3.0,1.0,1,$460_per_week,Available Now,April 2010,3194,2010,4,MENTONE,460,Other,208031190
347,352,"29B SWANSTON STREET, MENTONE",-37.978348,145.065913,3.0,1.0,1,$420_per_week,Available Now,January 2010,3194,2010,1,MENTONE,420,Other,208031190
348,353,"4/28 OLIVE GROVE, MENTONE",-37.984026,145.079586,2.0,1.0,1,$400_per_week,Rental_residential,July 2010,3194,2010,7,MENTONE,400,Other,208031193
349,354,"4/28 OLIVE GROVE, MENTONE",-37.984026,145.079586,2.0,1.0,1,$450_per_week,Rental_residential,June 2010,3194,2010,6,MENTONE,450,Other,208031193
350,355,"1/7 PALERMO STREET, MENTONE",-37.990339,145.066493,2.0,1.0,1,$350_pw,Rental_residential,July 2010,3194,2010,7,MENTONE,350,Other,208031190
351,356,"2/133 NEPEAN HIGHWAY, MENTONE",-37.981954,145.072334,3.0,1.0,1,$320_pw,none,March 2010,3194,2010,3,MENTONE,320,Other,208031190
352,357,"14/70 BEACH ROAD, MENTONE",-37.988562,145.059898,2.0,1.0,1,$270_pw,Available Now,August 2010,3194,2010,8,MENTONE,270,Other,208031190
353,358,"14/70 BEACH ROAD, MENTONE",-37.988562,145.059898,2.0,1.0,1,$270_pw,Available Now,July 2010,3194,2010,7,MENTONE,270,Other,208031190
354,359,"5/14 VENICE STREET, MENTONE",-37.986091,145.061693,1.0,1.0,0,$250_per_week,none,October 2010,3194,2010,10,MENTONE,250,Other,208031190
355,360,"1/56 BALCOMBE ROAD, MENTONE",-37.981442,145.067602,4.0,2.0,2,$495_per_week,Rental_residential,April 2010,3194,2010,4,MENTONE,495,Other,208031190
356,361,"157 LOWER DANDENONG ROAD, MENTONE",-37.98388,145.088201,3.0,1.0,3,$340_pw,House,May 2010,3194,2010,5,MENTONE,340,House,208031190
357,362,"8 / 45 VENICE STREET, MENTONE",-37.985708,145.06118,2.0,1.0,1,$295_per_week,none,October 2010,3194,2010,10,MENTONE,295,Other,208031190
358,363,"162 BALCOMBE ROAD, MENTONE",-37.980724,145.061653,3.0,1.0,2,$480_pw,none,October 2010,3194,2010,10,MENTONE,480,Other,208031190
359,364,"162 BALCOMBE ROAD, MENTONE",-37.980724,145.061653,3.0,1.0,2,$480_pw,none,May 2010,3194,2010,5,MENTONE,480,Other,208031190
360,365,"5/84 LATROBE STREET, MENTONE",-37.974858,145.062925,1.0,1.0,1,$250_per_week,none,July 2010,3194,2010,7,MENTONE,250,Other,208031190
361,366,"5/61 MILAN STREET, MENTONE",-37.982911,145.06015,2.0,1.0,1,$350,Rental_residential,December 2010,3194,2010,12,MENTONE,350,Other,208031190
362,367,"5/5 STATION STREET, MENTONE",-37.98222351,145.06625366,1.0,1.0,1,$250_pw,Rental_residential,April 2010,3194,2010,4,MENTONE,250,Other,208031190
363,368,"15/173 BALCOMBE ROAD, MENTONE",-37.98028,145.055356,1.0,1.0,1,$250,none,October 2010,3194,2010,10,MENTONE,250,Other,208031190
364,369,"15/173 BALCOMBE ROAD, MENTONE",-37.98028,145.055356,1.0,1.0,1,$250_pw,none,March 2010,3194,2010,3,MENTONE,250,Other,208031190
365,370,"18/30 MENTONE PARADE, MENTONE",-37.990008,145.065064,1.0,1.0,1,$250_pw,Rental_residential,March 2010,3194,2010,3,MENTONE,250,Other,208031190
366,371,"11/30 SWANSTON STREET, MENTONE",-37.980014,145.065599,1.0,1.0,1,$220_per_week,Rental_residential,March 2010,3194,2010,3,MENTONE,220,Other,208031190
367,372,"10/30 SWANSTON STREET, MENTONE",-37.978423,145.066382,1.0,1.0,1,$230_per_week,Rental_residential,May 2010,3194,2010,5,MENTONE,230,Other,208031190
368,373,"4/41 PATTY STREET, MENTONE",-37.9773015,145.058474,3.0,1.0,1,$435_per_week,Rental_residential,April 2010,3194,2010,4,MENTONE,435,Other,208031190
369,374,"7 TEAGUE AVENUE, MENTONE",-37.978533,145.063247,4.0,3.0,4,$475_pw,House,September 2010,3194,2010,9,MENTONE,475,House,208031190
370,375,"15/6 ANDERSON COURT, MENTONE",-37.978794,145.060429,1.0,1.0,1,$245_pw,Rental_residential,December 2010,3194,2010,12,MENTONE,245,Other,208031190
371,376,"15/6 ANDERSON COURT, MENTONE",-37.978794,145.060429,1.0,1.0,1,$250_per_week,Rental_residential,March 2010,3194,2010,3,MENTONE,250,Other,208031190
372,377,"21 OLD MENZIES CREEK ROAD, MENZIES CREEK",-37.927259,145.386538,3.0,1.0,2,$310_pw,House,September 2010,3159,2010,9,CREEK,310,House,211051274
373,378,"31 MENZIES ROAD, MENZIES CREEK",-37.921961,145.411728,3.0,1.0,2,$280_p.w.,House,June 2010,3159,2010,6,CREEK,280,House,211051274
374,379,"14 BLACKHILL ROAD, MENZIES CREEK",-37.913803,145.398344,4.0,2.0,4,$350,House,October 2010,3159,2010,10,CREEK,350,House,211051274
375,380,"125C SEVENTH STREET, MERBEIN SOUTH",-34.2045981,142.0387241,4.0,2.0,2,$270_pw,House,September 2010,3505,2010,9,SOUTH,270,House,215021396
376,381,"216 SHEOAK AVENUE, MERBEIN SOUTH",-34.243444,142.063989,3.0,1.0,2,$155_per_week,House,April 2010,3505,2010,4,SOUTH,155,House,215021398
377,382,"94 CHAFFEY STREET, MERBEIN",-34.1677452,142.0692196,3.0,1.0,2,$220_per_week,House,August 2010,3505,2010,8,MERBEIN,220,House,215021396
378,384,"11 GREIG DRIVE, MERNDA",-37.589777,145.099407,4.0,2.0,2,$480,none,October 2010,3754,2010,10,MERNDA,480,Other,209041531
379,385,"33 SUNNYBRAE DRIVE, MERNDA",-37.609549,145.083906,4.0,2.0,2,$320_p.w.,House,April 2010,3754,2010,4,MERNDA,320,House,209041532
380,386,"10 HOPKINS STREET, MERNDA",-37.61316,145.094706,3.0,2.0,2,$320_p.w.,House,July 2010,3754,2010,7,MERNDA,320,House,209041532
381,387,"10 HOPKINS STREET, MERNDA",-37.61316,145.094706,3.0,2.0,2,$330_per_week,House,May 2010,3754,2010,5,MERNDA,330,House,209041532
382,388,"3 GELLIBRAND WALK, MERNDA",-37.613174,145.093796,3.0,1.0,2,$320_per_week,Townhouse,October 2010,3754,2010,10,MERNDA,320,House,209041532
383,390,"178 WAVERLEY AVENUE, MERRIGUM",-36.36638,145.131589,3.0,1.0,2,$160,House,December 2010,3618,2010,12,MERRIGUM,160,House,216031419
384,391,"178 WAVERLEY AVENUE, MERRIGUM",-36.36638,145.131589,3.0,1.0,2,$160_per_week,House,July 2010,3618,2010,7,MERRIGUM,160,House,216031419
385,392,"178 WAVERLEY AVENUE, MERRIGUM",-36.36638,145.131589,3.0,1.0,2,$160_per_week,House,June 2010,3618,2010,6,MERRIGUM,160,House,216031419
386,393,"178 WAVERLEY AVENUE, MERRIGUM",-36.36638,145.131589,3.0,1.0,2,$160_per_week,House,March 2010,3618,2010,3,MERRIGUM,160,House,216031419
387,394,"380 ANDREWS ROAD, MERRIGUM",-36.37244,145.117317,3.0,1.0,1,$150_per_week,House,June 2010,3618,2010,6,MERRIGUM,150,House,216031419
388,395,"665 BYRNESIDE RD, MERRIGUM",-36.3898353,145.1319465,3.0,2.0,3,$180_per_week,none,January 2010,3618,2010,1,MERRIGUM,180,Other,216031419
389,396,"1670 HEATHCOTE-REDESDALE ROAD, MIA MIA",-37.0007095,144.5707348,3.0,2.0,0,$240_pw,House,January 2010,3444,2010,1,MIA,240,House,202021029
390,397,"211 RICHARDSON STREET, MIDDLE PARK",-37.849191,144.96162,3.0,2.0,0,$850_per_week,none,January 2010,3206,2010,1,PARK,850,Other,206051128
391,398,"6/28 PATTERSON STREET, MIDDLE PARK",-37.854557,144.964909,2.0,2.0,1,$320_pw,Rental_residential,July 2010,3206,2010,7,PARK,320,Other,206051128
392,399,"64/189 BEACONSFIELD PARADE, MIDDLE PARK",-37.851526,144.956867,1.0,1.0,1,$375_pw,none,January 2010,3206,2010,1,PARK,375,Other,206051128
393,400,"5/28 PATTERSON STREET, MIDDLE PARK",-37.854557,144.964909,1.0,1.0,1,$270_pw,Rental_residential,May 2010,3206,2010,5,PARK,270,Other,206051128
394,401,"20 NIMMO STREET, MIDDLE PARK",-37.849433,144.962482,3.0,1.0,0,$525_per_week,House,November 2010,3206,2010,11,PARK,525,House,206051128
395,402,"112 NEVILLE STREET, MIDDLE PARK",-37.850954,144.962638,3.0,2.0,0,$430_pw,Townhouse,February 2010,3206,2010,2,PARK,430,House,206051128
396,403,"209 ASHWORTH STREET, MIDDLE PARK",-37.854827,144.964899,2.0,1.0,1,$495,Townhouse,October 2010,3206,2010,10,PARK,495,House,206051128
397,404,"209 ASHWORTH STREET, MIDDLE PARK",-37.854827,144.964899,2.0,1.0,1,$495_pw,Townhouse,June 2010,3206,2010,6,PARK,495,House,206051128
398,405,"172 CANTERBURY ROAD, MIDDLE PARK",-37.853158,144.969079,2.0,1.0,0,$395_per_week,House,March 2010,3206,2010,3,PARK,395,House,206051128
399,406,"141 RICHARDSON STREET, MIDDLE PARK",-37.847393,144.958163,3.0,1.0,3,$680_pw,House,March 2010,3206,2010,3,PARK,680,House,206051128
400,407,"141 RICHARDSON STREET, MIDDLE PARK",-37.847393,144.958163,3.0,1.0,3,$720_pw,House,February 2010,3206,2010,2,PARK,720,House,206051128
401,409,"70 HAMBLETON STREET, MIDDLE PARK",-37.846848,144.959062,3.0,2.0,0,$775_per_week,Rental_residential,February 2010,3206,2010,2,PARK,775,Other,206051128
402,410,"9/200 BEACONSFIELD PARADE, MIDDLE PARK",-37.851917,144.957617,2.0,1.0,1,$330_per_week,Rental_residential,February 2010,3206,2010,2,PARK,330,Other,206051128
403,411,"1/61 CANTERBURY ROAD, MIDDLE PARK",-37.847396,144.962504,2.0,1.0,0,$330,Rental_residential,December 2010,3206,2010,12,PARK,330,Other,206051128
404,412,"1/61 CANTERBURY ROAD, MIDDLE PARK",-37.847396,144.962504,2.0,1.0,0,$375_pw,Rental_residential,November 2010,3206,2010,11,PARK,375,Other,206051128
405,413,"94/195 BEACONSFIELD PARADE, MIDDLE PARK",-37.851704,144.957316,1.0,1.0,1,$365_per_week,Unit,June 2010,3206,2010,6,PARK,365,Apartment,206051128
406,414,"3/227 PAGE STREET, MIDDLE PARK",-37.851964,144.964015,1.0,1.0,1,$275_per_week,Unit,July 2010,3206,2010,7,PARK,275,Apartment,206051128
407,415,"250 RICHARDSON STREET, MIDDLE PARK",-37.849735,144.961712,2.0,1.0,0,$665_pw,House,August 2010,3206,2010,8,PARK,665,House,206051128
408,416,"250 RICHARDSON STREET, MIDDLE PARK",-37.849735,144.961712,2.0,1.0,0,$665_pw,House,July 2010,3206,2010,7,PARK,665,House,206051128
409,417,"23 WRIGHT STREET, MIDDLE PARK",-37.84669,144.96075,3.0,3.0,1,$470_pw,none,November 2010,3206,2010,11,PARK,470,Other,206051128
410,418,"84 NEVILLE STREET, MIDDLE PARK",-37.84998,144.960921,2.0,1.0,0,$570,none,December 2010,3206,2010,12,PARK,570,Other,206051128
411,419,"158 NEVILLE STREET, MIDDLE PARK",-37.852742,144.965721,2.0,1.0,0,$500,Rental_residential,January 2010,3206,2010,1,PARK,500,Other,206051128
412,420,"204 RICHARDSON STREET, MIDDLE PARK",-37.848215,144.958765,2.0,1.0,1,$690_pw,Rental_residential,January 2010,3206,2010,1,PARK,690,Other,206051128
413,421,"133 ASHWORTH STREET, MIDDLE PARK",-37.851168,144.957581,3.0,2.0,1,$760_per_week,Rental_residential,February 2010,3206,2010,2,PARK,760,Other,206051128
414,422,"42 PARK ROAD, MIDDLE PARK",-37.853968,144.966267,2.0,1.0,1,$565_pw,Rental_residential,December 2010,3206,2010,12,PARK,565,Other,206051128
415,423,"42 PARK ROAD, MIDDLE PARK",-37.853968,144.966267,2.0,1.0,1,$565_pw,Rental_residential,November 2010,3206,2010,11,PARK,565,Other,206051128
416,424,"3/225 BEACONSFIELD PARADE, MIDDLE PARK",-37.85359,144.960535,2.0,2.0,1,$550_per_week,none,July 2010,3206,2010,7,PARK,550,Other,206051128
417,425,"3/225 BEACONSFIELD PARADE, MIDDLE PARK",-37.85359,144.960535,2.0,2.0,1,$550_per_week,none,June 2010,3206,2010,6,PARK,550,Other,206051128
418,426,"3/225 BEACONSFIELD PARADE, MIDDLE PARK",-37.85359,144.960535,2.0,2.0,1,$595_per_week,none,May 2010,3206,2010,5,PARK,595,Other,206051128
419,427,"6/109 CANTERBURY ROAD, MIDDLE PARK",-37.850255,144.965376,2.0,2.0,2,$525_pw,Rental_residential,March 2010,3206,2010,3,PARK,525,Other,206051128
420,428,"25/109 NIMMO STREET, MIDDLE PARK",-37.852473,144.960602,1.0,1.0,0,$355_per_week,none,August 2010,3206,2010,8,PARK,355,Other,206051128
421,429,"6/307 RICHARDSON STREET, MIDDLE PARK",-37.852239,144.966849,1.0,1.0,1,$395_per_week,Rental_residential,June 2010,3206,2010,6,PARK,395,Other,206051128
422,430,"4/72 PATTERSON STREET, MIDDLE PARK",-37.85546112,144.96662903,1.0,1.0,1,$270_per_week,Rental_residential,June 2010,3206,2010,6,PARK,270,Other,206051128
423,431,"4/72 PATTERSON STREET, MIDDLE PARK",-37.85546112,144.96662903,1.0,1.0,1,$270_per_week,Rental_residential,May 2010,3206,2010,5,PARK,270,Other,206051128
424,432,"3/109 NIMMO STREET, MIDDLE PARK",-37.852473,144.960602,2.0,1.0,0,$420_pw,Available Now,May 2010,3206,2010,5,PARK,420,Other,206051128
425,433,"3/51 NIMMO STREET, MIDDLE PARK",-37.850501,144.962039,2.0,1.0,1,$430_per_week,none,March 2010,3206,2010,3,PARK,430,Other,206051128
426,434,"11/28 PARK ROAD, MIDDLE PARK",-37.853567,144.965505,1.0,1.0,1,$325_per_week,Rental_residential,January 2010,3206,2010,1,PARK,325,Other,206051128
427,435,"10/72 PATTERSON STREET, MIDDLE PARK",-37.855462,144.966635,1.0,1.0,1,$300_pw,none,November 2010,3206,2010,11,PARK,300,Other,206051128
428,436,"201 ASHWORTH STREET, MIDDLE PARK",-37.854728,144.964601,3.0,1.0,0,$620_pw,Townhouse,April 2010,3206,2010,4,PARK,620,House,206051128
429,437,"10 ERSKINE STREET, MIDDLE PARK",-37.847135,144.958428,3.0,1.0,1,$720_pw,House,January 2010,3206,2010,1,PARK,720,House,206051128
430,438,"98 HAROLD STREET, MIDDLE PARK",-37.851294,144.958635,2.0,1.0,0,$615_per_week,House,October 2010,3206,2010,10,PARK,615,House,206051128
431,439,"12/225 BEACONSFIELD PARADE, MIDDLE PARK",-37.85359,144.960535,2.0,2.0,1,$495_pw,Rental_residential,March 2010,3206,2010,3,PARK,495,Other,206051128
432,440,"3/41 PARK ROAD, MIDDLE PARK",-37.853422,144.966241,2.0,2.0,2,$600_pw,Rental_residential,February 2010,3206,2010,2,PARK,600,Other,206051128
433,441,"230 RICHARDSON STREET, MIDDLE PARK",-37.848858,144.960031,2.0,1.0,0,$820_pw,Rental_residential,October 2010,3206,2010,10,PARK,820,Other,206051128
434,442,"5/187 BEACONSFIELD PARADE, MIDDLE PARK",-37.851255,144.956318,1.0,1.0,1,$395_per_week,none,March 2010,3206,2010,3,PARK,395,Other,206051128
435,444,"129 NEVILLE STREET, MIDDLE PARK",-37.851477,144.964237,3.0,2.0,1,$675_pw,House,July 2010,3206,2010,7,PARK,675,House,206051128
436,445,"301 RICHARDSON STREET, MIDDLE PARK",-37.852055,144.966626,3.0,2.0,1,$950_pw,House,January 2010,3206,2010,1,PARK,950,House,206051128
437,446,"368 DANKS STREET, MIDDLE PARK",-37.852826,144.961684,2.0,1.0,0,$560_per_week,House,April 2010,3206,2010,4,PARK,560,House,206051128
438,447,"3 WRIGHT STREET, MIDDLE PARK",-37.846193,144.961173,2.0,1.0,1,$395_pw,House,June 2010,3206,2010,6,PARK,395,House,206051128
439,448,"85A CARTER STREET, MIDDLE PARK",-37.84694,144.961375,2.0,1.0,0,$435,House,October 2010,3206,2010,10,PARK,435,House,206051128
440,449,"421 MILAWA-BOBINAWARRAH ROAD, MILAWA",-36.4773873,146.4266275,4.0,2.0,2,$300_per_week,Residential,October 2010,3678,2010,10,MILAWA,300,Other,204021067
441,450,"5/7 MILAWA- BOBINAWARRAH ROAD, MILAWA",-36.4759144,146.4268577,2.0,1.0,2,$200_per_week,none,October 2010,3678,2010,10,MILAWA,200,Other,204021067
442,451,"5/7 MILAWA- BOBINAWARRAH ROAD, MILAWA",-36.4759144,146.4268577,2.0,1.0,2,$200_per_week,none,November 2010,3678,2010,11,MILAWA,200,Other,204021067
443,452,"4A THIRTEENTH STREET, MILDURA EAST",-34.200116,142.163296,1.0,1.0,0,$120_pw,none,July 2010,3500,2010,7,EAST,120,Other,215021469
444,453,"4 THIRTEENTH STREET, MILDURA EAST",-34.200116,142.163296,3.0,1.0,2,$190,House,September 2010,3500,2010,9,EAST,190,House,215021469
445,454,"4 THIRTEENTH STREET, MILDURA EAST",-34.200116,142.163296,3.0,1.0,2,$190_pw,House,July 2010,3500,2010,7,EAST,190,House,215021469
446,455,"76 SAN MATEO AVENUE, MILDURA EAST",-34.190319,142.166762,3.0,1.0,2,$245_p.w.,House,August 2010,3500,2010,8,EAST,245,House,215021469
447,456,"187 WHITECLIFF AVENUE, MILDURA SOUTH",-34.241984,142.071341,4.0,2.0,2,$290_pw,House,November 2010,3500,2010,11,SOUTH,290,House,215021398
448,457,"4 SEBASTIAN COURT, MILDURA WEST",-34.1923564,142.1354569,3.0,1.0,2,$240_p.w.,House,December 2010,3500,2010,12,WEST,240,House,215021470
449,458,"32 JUDE AVENUE, MILDURA WEST",-34.177624,142.147733,3.0,1.0,2,$210_pw,House,October 2010,3500,2010,10,WEST,210,House,215021469
450,459,"3 MATOTEK COURT, MILDURA",-34.203513,142.138114,3.0,2.0,2,$270_per_week,House,September 2010,3500,2010,9,MILDURA,270,House,215021470
451,460,"3 MATOTEK COURT, MILDURA",-34.203513,142.138114,3.0,2.0,2,$270_per_week,House,August 2010,3500,2010,8,MILDURA,270,House,215021470
452,461,"1/32 PLANTATION STREET, MILDURA",-34.203585,142.136346,2.0,1.0,2,$200_per_week,House,July 2010,3500,2010,7,MILDURA,200,House,215021470
453,462,"11 MATOTEK COURT, MILDURA",-34.203588,142.138517,4.0,2.0,2,$270_per_week,House,November 2010,3500,2010,11,MILDURA,270,House,215021470
454,463,"4/2 CAMERON AVENUE, MILDURA",-34.182067,142.150982,2.0,1.0,1,$140_pw,Unit,January 2010,3500,2010,1,MILDURA,140,Apartment,215021469
455,464,"14 TARELLA COURT, MILDURA",-34.168144,142.151057,3.0,1.0,4,$215_Weekly,Rental_residential,May 2010,3500,2010,5,MILDURA,215,Other,215021469
456,465,"176 WALNUT AVENUE, MILDURA",-34.186143,142.151655,3.0,2.0,1,$270_per_week,none,July 2010,3500,2010,7,MILDURA,270,Other,215021469
457,466,"176 WALNUT AVENUE, MILDURA",-34.186143,142.151655,3.0,2.0,1,$260_per_week,none,March 2010,3500,2010,3,MILDURA,260,Other,215021469
458,467,"4/124 THIRTEENTH STREET, MILDURA",-34.192858,142.154618,2.0,1.0,2,$140_per_week,Rental_residential,May 2010,3500,2010,5,MILDURA,140,Other,215021469
459,468,"108 LEMON AVENUE, MILDURA",-34.190139,142.163171,2.0,1.0,2,$205_pw,House,November 2010,3500,2010,11,MILDURA,205,House,215021469
460,469,"2/3 EILEEN STREET, MILDURA",-34.206123,142.138747,2.0,1.0,1,$135,none,April 2010,3500,2010,4,MILDURA,135,Other,215021470
461,470,"2/3 EILEEN STREET, MILDURA",-34.206123,142.138747,2.0,1.0,1,$135_per_week,none,March 2010,3500,2010,3,MILDURA,135,Other,215021470
462,471,"4 PLANT COURT, MILDURA",-34.204522,142.137103,3.0,2.0,2,$270_pw,none,April 2010,3500,2010,4,MILDURA,270,Other,215021470
463,472,"12/280 TENTH STREET, MILDURA",-34.17703,142.146402,2.0,1.0,1,$175_per_week,Rental_residential,October 2010,3500,2010,10,MILDURA,175,Other,215021469
464,473,"9 MARY AVENUE, MILDURA",-34.199547,142.150833,3.0,2.0,1,$220_per_week,House,August 2010,3500,2010,8,MILDURA,220,House,215021469
465,474,"138 LEMON AVENUE, MILDURA",-34.191289,142.161779,3.0,1.0,3,$210_per_week,House,September 2010,3500,2010,9,MILDURA,210,House,215021469
466,475,"134 ORANGE AVENUE, MILDURA",-34.190324,142.160935,3.0,2.0,2,$185_per_week,none,September 2010,3500,2010,9,MILDURA,185,Other,215021469
467,476,"4/529 WALNUT AVENUE, MILDURA",-34.206973,142.125127,3.0,2.0,2,$280_per_week,House,July 2010,3500,2010,7,MILDURA,280,House,215021470
468,477,"4/225 WOODHAM AVENUE, MILDURA",-34.193944,142.153472,2.0,1.0,1,$140,House,April 2010,3500,2010,4,MILDURA,140,House,215021469
469,478,"4/225 WOODHAM AVENUE, MILDURA",-34.193944,142.153472,2.0,1.0,1,$145_per_week,House,March 2010,3500,2010,3,MILDURA,145,House,215021469
470,479,"15/257 NINTH STREET, MILDURA",-34.175816,142.147684,3.0,1.0,2,$215_per_week,Townhouse,August 2010,3500,2010,8,MILDURA,215,House,215021469
471,480,"3/43 OLIVE AVENUE, MILDURA",-34.181349,142.158548,2.0,1.0,1,$225,House,July 2010,3500,2010,7,MILDURA,225,House,215021469
472,481,"3/43 OLIVE AVENUE, MILDURA",-34.181349,142.158548,2.0,1.0,1,$225_per_week,House,April 2010,3500,2010,4,MILDURA,225,House,215021469
473,482,"3 WANERA WAY, MILDURA",-34.169908,142.15599,4.0,1.0,2,$290_per_week,House,May 2010,3500,2010,5,MILDURA,290,House,215021469
474,483,"3/471 WALNUT AVENUE, MILDURA",-34.204117,142.12893,3.0,1.0,1,$175_Weekly,House,December 2010,3500,2010,12,MILDURA,175,House,215021470
475,484,"53 MAGNOLIA AVENUE, MILDURA",-34.188759,142.166144,4.0,2.0,2,$180_pw,House,December 2010,3500,2010,12,MILDURA,180,House,215021469
476,485,"19/313 EIGHTH STREET, MILDURA",-34.172404,142.14619,2.0,1.0,1,$200_pw,Townhouse,February 2010,3500,2010,2,MILDURA,200,House,215021469
477,486,"20 WALNUT AVENUE, MILDURA",-34.179726,142.159426,3.0,2.0,2,$180,House,May 2010,3500,2010,5,MILDURA,180,House,215021469
478,487,"1/265 TWELFTH STREET, MILDURA",-34.180731,142.142929,2.0,2.0,1,$210_pw,Rental_residential,June 2010,3500,2010,6,MILDURA,210,Other,215021469
479,488,"2/5 JOHN MONASH BOULEVARD, MILDURA",-34.20825,142.125652,3.0,2.0,2,$270_per_week,Townhouse,January 2010,3500,2010,1,MILDURA,270,House,215021470
480,489,"76 MAGNOLIA AVENUE, MILDURA",-34.189603,142.165831,4.0,2.0,2,$170,House,December 2010,3500,2010,12,MILDURA,170,House,215021469
481,490,"76 MAGNOLIA AVENUE, MILDURA",-34.189603,142.165831,4.0,2.0,2,$170_per_week,House,November 2010,3500,2010,11,MILDURA,170,House,215021469
482,491,"1 HOMEBUSH COURT, MILDURA",-34.193428,142.135766,2.0,1.0,1,$200_per_week,none,July 2010,3500,2010,7,MILDURA,200,Other,215021470
483,492,"2/482 WALNUT AVENUE, MILDURA",-34.205697,142.128552,2.0,1.0,2,$220_per_week,none,October 2010,3500,2010,10,MILDURA,220,Other,215021470
484,493,"259 WADE AVENUE, MILDURA",-34.197034,142.152382,4.0,2.0,2,$250,House,December 2010,3500,2010,12,MILDURA,250,House,215021469
485,494,"259 WADE AVENUE, MILDURA",-34.197034,142.152382,4.0,2.0,2,$260_per_week,House,February 2010,3500,2010,2,MILDURA,260,House,215021469
486,495,"306 DEAKIN AVENUE, MILDURA",-34.1987346,142.1464103,3.0,1.0,1,$220_pw,Rental_residential,May 2010,3500,2010,5,MILDURA,220,Other,215021470
487,496,"2/367 DEAKIN AVENUE, MILDURA",-34.201056,142.142727,2.0,1.0,1,$160_per_week,none,July 2010,3500,2010,7,MILDURA,160,Other,215021470
488,497,"4 BURNETT COURT, MILL PARK",-37.659915,145.062071,3.0,2.0,1,$310_pw,none,April 2010,3082,2010,4,PARK,310,Other,209041220
489,498,"4 BURNETT COURT, MILL PARK",-37.659915,145.062071,3.0,2.0,1,$320_Weekly,none,March 2010,3082,2010,3,PARK,320,Other,209041220
490,499,"5 MELROSE PLACE, MILL PARK",-37.675923,145.059505,4.0,1.0,3,$360_p.w.,none,September 2010,3082,2010,9,PARK,360,Other,209041221
491,500,"6/1 MORANG DRIVE, MILL PARK",-37.661425,145.053371,3.0,2.0,1,$340_per_week,Townhouse,October 2010,3082,2010,10,PARK,340,House,209041220
492,501,"1/2 BELBIN COURT, MILL PARK",-37.660624,145.040083,3.0,1.0,2,$300_per_week,none,December 2010,3082,2010,12,PARK,300,Other,209041220
493,502,"7 POSEIDON CLOSE, MILL PARK",-37.672673,145.063251,6.0,3.0,2,$375_per_week,House,December 2010,3082,2010,12,PARK,375,House,209041221
494,503,"7 CONIFER CLOSE, MILL PARK",-37.674342,145.053191,3.0,2.0,2,$350_per_week,House,December 2010,3082,2010,12,PARK,350,House,209041221
495,504,"235 BETULA AVENUE, MILL PARK",-37.675571,145.058318,3.0,1.0,2,$350_per_week,House,December 2010,3082,2010,12,PARK,350,House,209041221
496,505,"41 ESTER DRIVE, MILL PARK",-37.65631,145.041829,3.0,2.0,2,$360_Weekly,House,January 2010,3082,2010,1,PARK,360,House,209041220
497,506,"5 CARBON CRESCENT, MILL PARK",-37.662395,145.0382,3.0,2.0,2,$370_p.w.,House,August 2010,3082,2010,8,PARK,370,House,209041221
498,507,"78 CENTENARY DRIVE, MILL PARK",-37.658322,145.068755,3.0,2.0,2,$310,House,November 2010,3082,2010,11,PARK,310,House,209041220
499,508,"78 CENTENARY DRIVE, MILL PARK",-37.658322,145.068755,3.0,2.0,2,$310_pw,House,October 2010,3082,2010,10,PARK,310,House,209041220
500,509,"23 LAMINA AVENUE, MILL PARK",-37.654674,145.049738,3.0,2.0,2,$310_p.w.,House,December 2010,3082,2010,12,PARK,310,House,209041220
501,510,"9 STREETON CIRCUIT, MILL PARK",-37.669458,145.069124,3.0,2.0,4,$370_per_week,House,June 2010,3082,2010,6,PARK,370,House,209041220
502,511,"112 WOOLNOUGH DRIVE, MILL PARK",-37.660259,145.038176,2.0,1.0,2,$275,Unit,December 2010,3082,2010,12,PARK,275,Apartment,209041220
503,512,"7 DORRINGTON COURT, MILL PARK",-37.652223,145.042695,3.0,2.0,0,$300_pw,House,May 2010,3082,2010,5,PARK,300,House,209041220
504,513,"5 LILLIS COURT, MILLGROVE",-37.746086,145.65827,3.0,2.0,1,$240_pw,House,October 2010,3799,2010,10,MILLGROVE,240,House,211051286
505,514,"9 PAMELA COURT, MILLGROVE",-37.75045,145.660813,2.0,1.0,1,$195_pw,House,September 2010,3799,2010,9,MILLGROVE,195,House,211051286
506,515,"21 PATRICK STREET, MILLGROVE",-37.746795,145.661912,3.0,1.0,3,$235_pw,House,August 2010,3799,2010,8,MILLGROVE,235,House,211051286
507,516,"5/5 WANDANA DRIVE, WANDANA HEIGHTS",-38.171721,144.308536,1.0,1.0,1,$150_per_week,House,November 2010,3216,2010,11,HEIGHTS,150,House,203021042
508,517,"47B SUNDERLAND ROAD, WANDANA HEIGHTS",-38.176249,144.30285,3.0,2.0,1,$370_pw,Townhouse,February 2010,3216,2010,2,HEIGHTS,370,House,203021042
509,518,"12 MCEVOYS LANE, WANDILIGONG",-36.766944,146.980435,4.0,1.0,0,$310,House,November 2010,3744,2010,11,WANDILIGONG,310,House,204031069
510,519,"14 WILLIAMS ROAD, WANDILIGONG",-36.775848,146.984132,3.0,1.0,0,$250_per_week,none,July 2010,3744,2010,7,WANDILIGONG,250,Other,204031069
511,520,"12 PARK STREET, WANDIN NORTH",-37.783346,145.430466,3.0,1.0,1,$320_p.w.,House,June 2010,3139,2010,6,NORTH,320,House,211051285
512,521,"1/86 STAMPS LANE, WANGARATTA NORTH",-36.33286,146.342758,3.0,1.0,0,$210,House,July 2010,3677,2010,7,NORTH,210,House,204021067
513,522,"277 WARBY RANGE ROAD, WANGARATTA SOUTH",-36.357612,146.255309,4.0,2.0,1,$270_per_week,House,April 2010,3678,2010,4,SOUTH,270,House,204021067
514,523,"2/125 APPIN STREET, WANGARATTA",-36.3453943,146.3003718,3.0,2.0,2,$310_per_week,House,December 2010,3677,2010,12,WANGARATTA,310,House,204021066
515,524,"4/61 TEMPLETON STREET, WANGARATTA",-36.35156,146.319742,2.0,1.0,1,$170_per_week,Unit,April 2010,3677,2010,4,WANGARATTA,170,Apartment,204021066
516,525,"1/155 PHILLIPSON STREET, WANGARATTA",-36.343379,146.30708,2.0,1.0,1,$155_per_week,Unit,August 2010,3677,2010,8,WANGARATTA,155,Apartment,204021066
517,526,"24 MURDOCH ROAD, WANGARATTA",-36.364522,146.323735,3.0,1.0,1,$260_per_week,House,July 2010,3677,2010,7,WANGARATTA,260,House,204021066
518,527,"55A MURPHY STREET, WANGARATTA",-36.355529,146.325929,3.0,1.0,1,$185_per_week,Unit,January 2010,3677,2010,1,WANGARATTA,185,Apartment,204021066
519,528,"1/7 ST COLUMBS DRIVE, WANGARATTA",-36.367326,146.324893,2.0,1.0,2,$190_per_week,Unit,December 2010,3677,2010,12,WANGARATTA,190,Apartment,204021066
520,529,"8/81 VINCENT ROAD, WANGARATTA",-36.365043,146.312173,1.0,1.0,1,$125,House,June 2010,3677,2010,6,WANGARATTA,125,House,204021066
521,530,"5 GAYER AVENUE, WANGARATTA",-36.364904,146.324966,3.0,1.0,1,$210_per_week,House,November 2010,3677,2010,11,WANGARATTA,210,House,204021066
522,531,"3 TODD STREET, WANGARATTA",-36.38141,146.323048,3.0,2.0,2,$270_pw,none,September 2010,3677,2010,9,WANGARATTA,270,Other,204021066
523,532,"3 TODD STREET, WANGARATTA",-36.38141,146.323048,3.0,2.0,2,$270_pw,none,July 2010,3677,2010,7,WANGARATTA,270,Other,204021066
524,533,"3 TODD STREET, WANGARATTA",-36.38141,146.323048,3.0,2.0,2,$270_pw,none,January 2010,3677,2010,1,WANGARATTA,270,Other,204021066
525,534,"1/40 FRANKLIN STREET, WANGARATTA",-36.347032,146.294163,2.0,1.0,1,$155_per_week,none,February 2010,3677,2010,2,WANGARATTA,155,Other,204021066
526,535,"2/24 LOGAN DRIVE, WANGARATTA",-36.334626,146.305907,3.0,2.0,1,$290_per_week,none,June 2010,3677,2010,6,WANGARATTA,290,Other,204021066
527,536,"14 MATLOCK ROAD, WANTIRNA SOUTH",-37.858779,145.251664,3.0,1.0,2,$320_per_week,none,September 2010,3152,2010,9,SOUTH,320,Other,211011260
528,537,"16 BILLARA CLOSE, WANTIRNA SOUTH",-37.855691,145.248282,3.0,1.0,0,$330_per_week,House,September 2010,3152,2010,9,SOUTH,330,House,211011260
529,538,"13/19 SOVEREIGN PLACE, WANTIRNA SOUTH",-37.872,145.231572,3.0,1.0,2,$350_pw,Townhouse,April 2010,3152,2010,4,SOUTH,350,House,211011260
530,539,"3 APLIN PLACE, WANTIRNA SOUTH",-37.885394,145.22238,4.0,2.0,2,$485_per_week,none,March 2010,3152,2010,3,SOUTH,485,Other,211011260
531,540,"30 CLARENCE ROAD, WANTIRNA SOUTH",-37.842176,145.223839,3.0,1.0,2,$280_pw,House,September 2010,3152,2010,9,SOUTH,280,House,211011259
532,541,"85 BARMAH DRIVE, WANTIRNA",-37.8570683,145.2192873,4.0,2.0,5,$370,House,December 2010,3152,2010,12,WANTIRNA,370,House,211011259
533,542,"85 BARMAH DRIVE, WANTIRNA",-37.8570683,145.2192873,4.0,2.0,5,$350_p.w.,House,June 2010,3152,2010,6,WANTIRNA,350,House,211011259
534,543,"9 BENTLEY STREET, WANTIRNA",-37.848573,145.235073,4.0,1.0,2,$340_p.w.,House,June 2010,3152,2010,6,WANTIRNA,340,House,211011259
535,544,"1/743 BORONIA ROAD, WANTIRNA",-37.846836,145.22323,3.0,1.0,1,$350_per_week,Townhouse,November 2010,3152,2010,11,WANTIRNA,350,House,211011259
536,545,"2/265 WANTIRNA ROAD, WANTIRNA",-37.8405456,145.227586,2.0,1.0,1,$300_per_week,none,September 2010,3152,2010,9,WANTIRNA,300,Other,211011259
537,546,"33 BRISBANE HILL ROAD, WARBURTON",-37.748594,145.693617,4.0,2.0,0,$260,Rental_residential,December 2010,3799,2010,12,WARBURTON,260,Other,211051286
538,547,"12 LA LA AVENUE, WARBURTON",-37.75611116,145.69785359,3.0,1.0,2,$285_pw,House,April 2010,3799,2010,4,WARBURTON,285,House,211051286
539,548,"2 DEVON STREET, WARBURTON",-37.748734,145.676417,3.0,1.0,2,$265_pw,House,April 2010,3799,2010,4,WARBURTON,265,House,211051286
540,549,"10 ILUKA STREET, WARNEET",-38.221492,145.31233,3.0,2.0,1,$290_Weekly,House,August 2010,3980,2010,8,WARNEET,290,House,212031308
541,550,"12 RUTHERFORD PARADE, WARNEET",-38.227077,145.308408,4.0,2.0,4,$380_p.w.,House,November 2010,3980,2010,11,WARNEET,380,House,212031308
542,551,"5 GNOORNONG ROAD, WARNEET",-38.220563,145.314044,2.0,1.0,2,$265_p.w.,House,August 2010,3980,2010,8,WARNEET,265,House,212031308
543,552,"4 BANKS STREET, WARNEET",-38.225006,145.307268,3.0,2.0,3,$320_per_week,House,March 2010,3980,2010,3,WARNEET,320,House,212031308
544,554,"15 CLIFFORD STREET, WARRACKNABEAL",-36.243659,142.396096,3.0,1.0,1,$140_per_week,House,March 2010,3393,2010,3,WARRACKNABEAL,140,House,215011394
545,555,"79 CLIFFORD STREET, WARRAGUL",-38.15659,145.93904,2.0,1.0,1,$230_per_week,none,June 2010,3820,2010,6,WARRAGUL,230,Other,205011079
546,556,"63 NORTH ROAD, WARRAGUL",-38.159412,145.949167,3.0,2.0,2,$230_per_week,House,May 2010,3820,2010,5,WARRAGUL,230,House,205011079
547,557,"6 HILLANDALE ROAD, WARRAGUL",-38.14386,145.937337,4.0,2.0,1,$250_per_week,House,October 2010,3820,2010,10,WARRAGUL,250,House,205011079
548,558,"86 NORTH ROAD, WARRAGUL",-38.16123,145.94923,3.0,1.0,3,$250_per_week,House,May 2010,3820,2010,5,WARRAGUL,250,House,205011079
549,559,"24 SINCLAIR STREET, WARRAGUL",-38.149351,145.937788,2.0,1.0,1,$220_per_week,none,September 2010,3820,2010,9,WARRAGUL,220,Other,205011079
550,560,"19 MOUNT COLE ROAD, WARRAK",-37.261463,143.150143,2.0,1.0,1,$150_per_week,House,May 2010,3377,2010,5,WARRAK,150,House,215011387
551,561,"280 HEIDELBERG-WARRANDYTE ROAD, WARRANDYTE",-37.74962365,145.18960945,2.0,2.0,2,$310_pw,Rental_residential,June 2010,3113,2010,6,WARRANDYTE,310,Other,211021262
552,562,"2/12 HOUGHTON ROAD, WARRANDYTE",-37.746542,145.203235,1.0,1.0,1,$210_pw,Rental_residential,April 2010,3113,2010,4,WARRANDYTE,210,Other,211021262
553,563,"6 PENSHURST PLACE, WARRANWOOD",-37.770081,145.25229,3.0,2.0,1,$360_per_week,Rental_residential,June 2010,3134,2010,6,WARRANWOOD,360,Other,211031265
554,564,"3 BROOKFIELD PLACE, WARRANWOOD",-37.780734,145.255366,4.0,2.0,2,$450_per_week,Rental_residential,December 2010,3134,2010,12,WARRANWOOD,450,Other,211031265
555,565,"14 PENSHURST PLACE, WARRANWOOD",-37.77029,145.253046,4.0,2.0,2,$410_pw,Rental_residential,July 2010,3134,2010,7,WARRANWOOD,410,Other,211031265
556,566,"1 GEORGE AVE, WARRNAMBOOL EAST",-38.386499,142.515493,4.0,2.0,2,$430_p.w.,House,December 2010,3280,2010,12,EAST,430,House,217041480
557,567,"58 SIMPSON STREET, WARRNAMBOOL EAST",-38.387961,142.51157,2.0,1.0,1,$300_p.w.,House,December 2010,3280,2010,12,EAST,300,House,217041480
558,568,"1 GEORGE AVENUE, WARRNAMBOOL EAST",-38.386499,142.515493,4.0,2.0,2,$430_pw,House,December 2010,3280,2010,12,EAST,430,House,217041480
559,569,"1/11 HOTHAM STREET, WARRNAMBOOL",-38.388294,142.490912,4.0,2.0,1,$380_per_week,House,June 2010,3280,2010,6,WARRNAMBOOL,380,House,217041480
560,570,"5/44 WELLINGTON STREET, WARRNAMBOOL",-38.38445,142.46981,3.0,1.0,1,$290,Rental_residential,November 2010,3280,2010,11,WARRNAMBOOL,290,Other,217041480
561,571,"11 RONGOA DRIVE, WARRNAMBOOL",-38.361178,142.456885,2.0,1.0,1,$250,none,December 2010,3280,2010,12,WARRNAMBOOL,250,Other,217041479
562,572,"292 KOROIT STREET, WARRNAMBOOL",-38.377855,142.471313,2.0,1.0,1,$235_p.w.,House,June 2010,3280,2010,6,WARRNAMBOOL,235,House,217041480
563,573,"292 KOROIT STREET, WARRNAMBOOL",-38.377855,142.471313,2.0,1.0,1,$235,House,May 2010,3280,2010,5,WARRNAMBOOL,235,House,217041480
564,574,"28 DERBY STREET, WARRNAMBOOL",-38.384295,142.505131,4.0,2.0,2,$350_p.w.,none,July 2010,3280,2010,7,WARRNAMBOOL,350,Other,217041479
565,575,"90 KOROIT STREET, WARRNAMBOOL",-38.384717,142.486584,3.0,1.0,1,$350_p.w.,House,February 2010,3280,2010,2,WARRNAMBOOL,350,House,217041480
566,576,"14 FOSTER STREET, WARRNAMBOOL",-38.389678,142.491798,2.0,1.0,2,$390_Weekly,House,October 2010,3280,2010,10,WARRNAMBOOL,390,House,217041480
568,578,"13 JUBILEE BOULEVARD, WATERWAYS",-38.016403198242,145.123321533203,3.0,2.0,2,$490_per_week,Rental_residential,October 2010,3195,2010,10,WATERWAYS,490,Other,208031183
569,579,"19 LAKE KING CIRCLE, WATERWAYS",-38.013303,145.135533,4.0,2.0,2,$680,House,January 2010,3195,2010,1,WATERWAYS,680,House,208031183
570,580,"1 ARCOTS COURT, WATERWAYS",-38.015943,145.1293065,3.0,2.0,2,$440_per_week,Townhouse,November 2010,3195,2010,11,WATERWAYS,440,House,208031183
571,581,"1 ARCOTS COURT, WATERWAYS",-38.015943,145.1293065,3.0,2.0,2,$440_per_week,Townhouse,October 2010,3195,2010,10,WATERWAYS,440,House,208031183
572,582,"1 ARCOTS COURT, WATERWAYS",-38.015943,145.1293065,3.0,2.0,2,$440_per_week,Townhouse,September 2010,3195,2010,9,WATERWAYS,440,House,208031183
573,583,"11 CHOPARD AVENUE, WATERWAYS",-38.013457,145.139149,5.0,2.0,2,$520_per_week,none,October 2010,3195,2010,10,WATERWAYS,520,Other,208031183
574,584,"2 JUBILEE BOULEVARD, WATERWAYS",-38.012499,145.138336,4.0,2.0,2,$650_per_week,House,December 2010,3195,2010,12,WATERWAYS,650,House,208031183
575,585,"18 DRESDEN DRIVE, WATERWAYS",-38.013821,145.139492,3.0,2.0,1,$410,Townhouse,October 2010,3195,2010,10,WATERWAYS,410,House,208031183
576,586,"18 DRESDEN DRIVE, WATERWAYS",-38.013821,145.139492,3.0,2.0,1,$430,Townhouse,January 2010,3195,2010,1,WATERWAYS,430,House,208031183
577,587,"3 BULOKE LANE, WATERWAYS",-38.008051,145.110473,5.0,5.0,2,$695,House,January 2010,3195,2010,1,WATERWAYS,695,House,208031184
578,588,"1395 MIDLAND HIGHWAY, GHERINGHAP",-38.070043,144.225308,6.0,2.0,2,$350_p.w.,House,July 2010,3331,2010,7,GHERINGHAP,350,House,203011034
579,589,"15 OLYMPIC STREET, GIRGARRE",-36.395412,144.978842,3.0,1.0,2,$170_per_week,House,November 2010,3624,2010,11,GIRGARRE,170,House,216011410
580,590,"15 OLYMPIC STREET, GIRGARRE",-36.395412,144.978842,3.0,1.0,2,$170_per_week,House,May 2010,3624,2010,5,GIRGARRE,170,House,216011410
581,591,"15 OLYMPIC STREET, GIRGARRE",-36.395412,144.978842,3.0,1.0,2,$170_per_week,House,January 2010,3624,2010,1,GIRGARRE,170,House,216011410
582,592,"16 CHURCH STREET, GIRGARRE",-36.395475,144.97784,3.0,1.0,0,$160_per_week,House,July 2010,3624,2010,7,GIRGARRE,160,House,216011410
583,593,"36 CHURCH STREET, GIRGARRE",-36.394073,144.979398,3.0,1.0,1,$150_per_week,House,January 2010,3624,2010,1,GIRGARRE,150,House,216011410
584,594,"202 MASON ROAD, GIRGARRE",-36.41176,145.009394,3.0,1.0,0,$170_per_week,House,December 2010,3624,2010,12,GIRGARRE,170,House,216011410
585,595,"202 MASON ROAD, GIRGARRE",-36.41176,145.009394,3.0,1.0,0,$170_per_week,House,November 2010,3624,2010,11,GIRGARRE,170,House,216011410
586,596,"202 MASON ROAD, GIRGARRE",-36.41176,145.009394,3.0,1.0,0,$170_per_week,House,October 2010,3624,2010,10,GIRGARRE,170,House,216011410
587,597,"WINTER RD, GIRGARRE",-36.398629,144.963562,2.0,1.0,1,$120_per_week,none,November 2010,3624,2010,11,GIRGARRE,120,Other,216011410
588,598,"14 CHURCH STREET, GIRGARRE",-36.39566,144.977851,3.0,1.0,1,$165_per_week,House,May 2010,3624,2010,5,GIRGARRE,165,House,216011410
589,599,"14 CHURCH STREET, GIRGARRE",-36.39566,144.977851,3.0,1.0,1,$165_per_week,House,April 2010,3624,2010,4,GIRGARRE,165,House,216011410
590,600,"891 WINTER ROAD, GIRGARRE",-36.399255,144.933878,4.0,1.0,2,$200_per_week,House,April 2010,3624,2010,4,GIRGARRE,200,House,216011410
591,601,"891 WINTER ROAD, GIRGARRE",-36.399255,144.933878,4.0,1.0,2,$200_per_week,House,March 2010,3624,2010,3,GIRGARRE,200,House,216011410
592,602,"870 WINTER ROAD, GIRGARRE",-36.398299,144.936446,3.0,1.0,1,$150_pw,House,February 2010,3624,2010,2,GIRGARRE,150,House,216011410
593,603,"79 BERRIE ROAD, GISBORNE SOUTH",-37.548655,144.646863,3.0,1.0,0,$250_pw,none,March 2010,3437,2010,3,SOUTH,250,Other,210021232
594,604,"7/36 STEPHEN STREET, GISBORNE",-37.488495,144.584698,3.0,1.0,1,$280_p.w.,House,February 2010,3437,2010,2,GISBORNE,280,House,210021232
595,605,"16 SKYLINE DRIVE, GISBORNE",-37.476858,144.583041,3.0,2.0,3,$450_p.w.,House,March 2010,3437,2010,3,GISBORNE,450,House,210021232
596,606,"52 FERSFIELD ROAD, GISBORNE",-37.497024,144.597629,3.0,2.0,2,$280_pw,House,July 2010,3437,2010,7,GISBORNE,280,House,210021232
597,607,"44 BURNLEIGH DRIVE, GLADSTONE PARK",-37.692938,144.892083,4.0,1.0,1,$300_per_week,none,November 2010,3043,2010,11,PARK,300,Other,210051245
598,608,"15 PAYNE STREET, GLADSTONE PARK",-37.686422,144.885033,4.0,2.0,1,$420_per_week,House,September 2010,3043,2010,9,PARK,420,House,210051245
599,609,"10 SHANE COURT, GLADSTONE PARK",-37.696301,144.897288,3.0,1.0,1,$280,none,November 2010,3043,2010,11,PARK,280,Other,210051245
600,610,"10 SHANE COURT, GLADSTONE PARK",-37.696301,144.897288,3.0,1.0,1,$300_p.w.,none,September 2010,3043,2010,9,PARK,300,Other,210051245
601,611,"1 BRAEMAR CLOSE, GLADSTONE PARK",-37.684531,144.887128,3.0,2.0,2,$360_per_week,House,May 2010,3043,2010,5,PARK,360,House,210051245
602,612,"11 COSDOWN CLOSE, GLADSTONE PARK",-37.691604,144.894571,3.0,1.0,3,$350_pw,House,December 2010,3043,2010,12,PARK,350,House,210051245
603,613,"11 COSDOWN CLOSE, GLADSTONE PARK",-37.691604,144.894571,3.0,1.0,3,$350_per_week,House,October 2010,3043,2010,10,PARK,350,House,210051245
604,614,"0 ELLIS TRACK, GLADYSDALE",-37.823809,145.66613,1.0,1.0,1,$200_pw,House,December 2010,3797,2010,12,GLADYSDALE,200,House,211051286
605,615,"0 ELLIS TRACK, GLADYSDALE",-37.823809,145.66613,1.0,1.0,1,$200,House,May 2010,3797,2010,5,GLADYSDALE,200,House,211051286
606,616,"7 / 21 ROYAL AVENUE, GLEN HUNTLY",-37.892399,145.04199,2.0,1.0,1,$350_pw,none,June 2010,3163,2010,6,HUNTLY,350,Other,208021182
607,617,"8/5 BEVERLEY STREET, GLEN HUNTLY",-37.892141,145.038928,2.0,1.0,1,$335_pw,none,June 2010,3163,2010,6,HUNTLY,335,Other,208021182
608,618,"6/8 WARATAH AVENUE, GLEN HUNTLY",-37.892039,145.043672,2.0,1.0,1,$350_pw,Rental_residential,October 2010,3163,2010,10,HUNTLY,350,Other,208021182
609,619,"7/123 GRANGE ROAD, GLEN HUNTLY",-37.890364,145.044944,1.0,1.0,2,$235_pw,Rental_residential,September 2010,3163,2010,9,HUNTLY,235,Other,208021182
610,620,"5/12 MAROONA ROAD, GLEN HUNTLY",-37.888887,145.04761,2.0,1.0,1,$295,none,July 2010,3163,2010,7,HUNTLY,295,Other,208021176
611,621,"2/125 GRANGE ROAD, GLEN HUNTLY",-37.890391,145.04483,1.0,1.0,1,$260_pw,Unit,July 2010,3163,2010,7,HUNTLY,260,Apartment,208021182
612,622,"3/15 MACKAY AVENUE, GLEN HUNTLY",-37.897025,145.044063,2.0,1.0,1,$350,Rental_residential,June 2010,3163,2010,6,HUNTLY,350,Other,208021182
613,623,"2 / 34 DOROTHY AVENUE, GLEN HUNTLY",-37.896693,145.040225,2.0,1.0,1,$375_per_week,none,November 2010,3163,2010,11,HUNTLY,375,Other,208021182
614,624,"12B ROTHSCHILD STREET, GLEN HUNTLY",-37.890955,145.039186,4.0,2.0,2,$680_pw,Townhouse,August 2010,3163,2010,8,HUNTLY,680,House,208021182
615,625,"3/125 GRANGE ROAD, GLEN HUNTLY",-37.890391,145.04483,1.0,1.0,1,$215,none,March 2010,3163,2010,3,HUNTLY,215,Other,208021182
616,626,"16/1083-1089 GLEN HUNTLY ROAD, GLEN HUNTLY",-37.888579,145.039075,1.0,1.0,1,$320_pw,none,June 2010,3163,2010,6,HUNTLY,320,Other,208021182
617,627,"8/12 ROSEBERRY GROVE, GLEN HUNTLY",-37.888037,145.039832,2.0,1.0,1,$330_pw,none,September 2010,3163,2010,9,HUNTLY,330,Other,208021182
618,628,"3/115 NEERIM ROAD, GLEN HUNTLY",-37.886764,145.042038,2.0,1.0,1,$380_pw,Rental_residential,August 2010,3163,2010,8,HUNTLY,380,Other,208021182
619,629,"3/115 NEERIM ROAD, GLEN HUNTLY",-37.886764,145.042038,2.0,1.0,1,$380_pw,Rental_residential,January 2010,3163,2010,1,HUNTLY,380,Other,208021182
620,630,"3/16 WATTLE AVENUE, GLEN HUNTLY",-37.894674,145.044421,2.0,1.0,1,$385_pw,none,December 2010,3163,2010,12,HUNTLY,385,Other,208021182
621,631,"6 GARDINER PARADE, GLEN IRIS",-37.854336,145.066162,5.0,2.0,2,$840_per_week,none,August 2010,3146,2010,8,IRIS,840,Other,207011150
622,632,"1/32 BELMONT AVENUE NORTH, GLEN IRIS",-37.854998,145.049143,2.0,1.0,1,$350,none,January 2010,3146,2010,1,IRIS,350,Other,208041194
623,633,"5/1583 MALVERN ROAD, GLEN IRIS",-37.854028,145.050258,2.0,1.0,1,$330_pw,none,January 2010,3146,2010,1,IRIS,330,Other,208041194
624,634,"3/23 GARDINER PARADE, GLEN IRIS",-37.853793,145.063743,2.0,1.0,1,$330_pw,none,March 2010,3146,2010,3,IRIS,330,Other,207011150
625,635,"3/23 GARDINER PARADE, GLEN IRIS",-37.853793,145.063743,2.0,1.0,1,$350_pw,none,February 2010,3146,2010,2,IRIS,350,Other,207011150
626,636,"3/23 GARDINER PARADE, GLEN IRIS",-37.853793,145.063743,2.0,1.0,1,$350,none,January 2010,3146,2010,1,IRIS,350,Other,207011150
627,637,"5/304 TOORONGA ROAD, GLEN IRIS",-37.851826,145.042624,2.0,1.0,1,$380_pw,Available Now,June 2010,3146,2010,6,IRIS,380,Other,208041194
628,638,"5/304 TOORONGA ROAD, GLEN IRIS",-37.851826,145.042624,2.0,1.0,1,$370_pw,Available Now,May 2010,3146,2010,5,IRIS,370,Other,208041194
629,639,"48 ESSEX STREET, GLEN IRIS",-37.862581,145.059403,2.0,2.0,1,$290_Weekly,Townhouse,November 2010,3146,2010,11,IRIS,290,House,208041194
630,640,"48 ESSEX STREET, GLEN IRIS",-37.862581,145.059403,2.0,2.0,1,$290_Weekly,Townhouse,October 2010,3146,2010,10,IRIS,290,House,208041194
631,641,"5/68 ERICA AVENUE, GLEN IRIS",-37.859557,145.0482,2.0,1.0,1,$290_per_week,Rental_residential,November 2010,3146,2010,11,IRIS,290,Other,208041194
632,642,"2/1512 MALVERN ROAD, GLEN IRIS",-37.854217,145.049013,2.0,1.0,1,$340,Rental_residential,August 2010,3146,2010,8,IRIS,340,Other,208041194
633,643,"12/6 CRESWICK STREET, GLEN IRIS",-37.85272,145.044121,2.0,1.0,1,$400_pw,Available Now,February 2010,3146,2010,2,IRIS,400,Other,208041194
634,644,"1/21 OSBORNE AVENUE, GLEN IRIS",-37.856233,145.046584,3.0,3.0,1,$480,Townhouse,January 2010,3146,2010,1,IRIS,480,House,208041194
635,645,"3/12 BELMONT AVENUE, GLEN IRIS",-37.857628,145.048333,1.0,1.0,1,$265_pw,Rental_residential,May 2010,3146,2010,5,IRIS,265,Other,208041194
636,646,"3/201 BURKE ROAD, GLEN IRIS",-37.860752,145.050842,1.0,1.0,1,$320_pw,none,September 2010,3146,2010,9,IRIS,320,Other,208041194
637,647,"8/46 SCOTT GROVE, GLEN IRIS",-37.85461426,145.050354,2.0,1.0,1,$340_pw,none,September 2010,3146,2010,9,IRIS,340,Other,208041194
638,648,"9/42 EDGAR STREET, GLEN IRIS",-37.85319,145.046022,1.0,1.0,1,$230_pw,none,May 2010,3146,2010,5,IRIS,230,Other,208041194
639,649,"1/19 MAVERSTON STREET, GLEN IRIS",-37.851759,145.079557,2.0,1.0,3,$299_per_week,none,May 2010,3146,2010,5,IRIS,299,Other,207011150
640,650,"1/19 MAVERSTON STREET, GLEN IRIS",-37.851759,145.079557,2.0,1.0,3,$299_per_week,none,April 2010,3146,2010,4,IRIS,299,Other,207011150
641,651,"29 SINCLAIR AVENUE, GLEN IRIS",-37.850362,145.051434,3.0,2.0,1,$415_pw,House,February 2010,3146,2010,2,IRIS,415,House,207011150
642,653,"3/10 NASH STREET, GLEN IRIS",-37.8559227,145.04878235,2.0,1.0,1,$345_pw,Rental_residential,January 2010,3146,2010,1,IRIS,345,Other,208041194
643,654,"6/1395 HIGH STREET, GLEN IRIS",-37.858198,145.042741,2.0,1.0,1,$320_pw,Rental_residential,February 2010,3146,2010,2,IRIS,320,Other,208041194
644,656,"32 ALBION ROAD, GLEN IRIS",-37.864257,145.066096,4.0,2.0,2,$1100_per_week,House,January 2010,3146,2010,1,IRIS,1100,House,207011150
645,657,"2/13 BELMONT AVENUE, GLEN IRIS",-37.857169,145.047543,2.0,1.0,1,$325_pw,none,April 2010,3146,2010,4,IRIS,325,Other,208041194
646,658,"4/39 OSBORNE AVENUE, GLEN IRIS",-37.854684,145.046887,1.0,1.0,1,$280_pw,Rental_residential,May 2010,3146,2010,5,IRIS,280,Other,208041194
647,659,"11/11 BELMONT AVENUE, GLEN IRIS",-37.85782,145.04799,1.0,1.0,1,$230_per_week,Rental_residential,August 2010,3146,2010,8,IRIS,230,Other,208041194
648,660,"55A MAITLAND STREET, GLEN IRIS",-37.854229,145.042819,2.0,1.0,2,$420_per_week,House,October 2010,3146,2010,10,IRIS,420,House,208041194
649,661,"32/1495 MALVERN ROAD, GLEN IRIS",-37.853323,145.044333,3.0,2.0,1,$550_per_week,none,August 2010,3146,2010,8,IRIS,550,Other,208041194
650,662,"7/6 CRESWICK STREET, GLEN IRIS",-37.85272,145.044121,2.0,1.0,1,$325,Available Now,November 2010,3146,2010,11,IRIS,325,Other,208041194
651,663,"15 WEBB STREET, GLEN IRIS",-37.848619,145.067073,3.0,1.0,2,$399_per_week,none,March 2010,3146,2010,3,IRIS,399,Other,207011150
652,664,"1 / 28 QUEENS PARADE, GLEN IRIS",-37.85246,145.092056,3.0,1.0,1,$330_per_week,Unit,November 2010,3146,2010,11,IRIS,330,Apartment,207011150
653,665,"3/13 ALFRED ROAD, GLEN IRIS",-37.851255,145.090112,3.0,2.0,1,$530,Townhouse,December 2010,3146,2010,12,IRIS,530,House,207011150
654,666,"9A LITHGOW STREET, GLEN IRIS",-37.850125,145.081979,2.0,1.0,1,$450_pw,House,June 2010,3146,2010,6,IRIS,450,House,207011150
655,667,"9/6 OSBORNE AVENUE, GLEN IRIS",-37.8578,145.046737,2.0,1.0,1,$320_per_week,Rental_residential,March 2010,3146,2010,3,IRIS,320,Other,208041194
656,668,"3/48 MAITLAND STREET, GLEN IRIS",-37.857508,145.042175,3.0,1.0,1,$370,Available Now,September 2010,3146,2010,9,IRIS,370,Other,208041194
657,669,"2/1 WOLSELEY AVENUE, GLEN WAVERLEY",-37.879047,145.173949,4.0,2.0,2,$550,Townhouse,February 2010,3150,2010,2,WAVERLEY,550,House,212051321
658,670,"13 THOMPSON STREET, GLEN WAVERLEY",-37.867436,145.170246,3.0,1.0,2,$365_pw,none,August 2010,3150,2010,8,WAVERLEY,365,Other,212051321
659,671,"13 THOMPSON STREET, GLEN WAVERLEY",-37.867436,145.170246,3.0,1.0,2,$330_per_week,none,July 2010,3150,2010,7,WAVERLEY,330,Other,212051321
660,672,"13 WOODLEA DRIVE, GLEN WAVERLEY",-37.90147,145.157313,3.0,1.0,1,$365_per_week,House,November 2010,3150,2010,11,WAVERLEY,365,House,212051322
661,673,"13 WOODLEA DRIVE, GLEN WAVERLEY",-37.90147,145.157313,3.0,1.0,1,$375_per_week,House,October 2010,3150,2010,10,WAVERLEY,375,House,212051322
662,674,"46 WESTLANDS ROAD, GLEN WAVERLEY",-37.873788,145.178888,4.0,1.0,2,$380_pw,none,February 2010,3150,2010,2,WAVERLEY,380,Other,212051321
663,675,"2/318 BLACKBURN ROAD, GLEN WAVERLEY",-37.880084,145.146916,2.0,1.0,1,$280_p.w.,none,July 2010,3150,2010,7,WAVERLEY,280,Other,212051322
664,676,"7/60 AVENDON BOULEVARD, GLEN WAVERLEY",-37.881058,145.151602,3.0,2.0,0,$410_pw,none,April 2010,3150,2010,4,WAVERLEY,410,Other,212051322
665,677,"3 PLYMOUTH STREET, GLEN WAVERLEY",-37.863354,145.174359,3.0,1.0,2,$350,House,October 2010,3150,2010,10,WAVERLEY,350,House,212051321
666,678,"18 BRIGHTON STREET, GLEN WAVERLEY",-37.872417,145.174158,3.0,1.0,1,$345_pw,House,March 2010,3150,2010,3,WAVERLEY,345,House,212051321
667,679,"18 BRIGHTON STREET, GLEN WAVERLEY",-37.872417,145.174158,3.0,1.0,1,$370_pw,House,February 2010,3150,2010,2,WAVERLEY,370,House,212051321
668,680,"2/19 MARTIN PLACE, GLEN WAVERLEY",-37.868465,145.163152,2.0,1.0,1,$330,Unit,May 2010,3150,2010,5,WAVERLEY,330,Apartment,212051322
669,681,"1/19 HUNTER STREET, GLEN WAVERLEY",-37.874613,145.150297,3.0,2.0,0,$400,none,October 2010,3150,2010,10,WAVERLEY,400,Other,212051322
670,682,"1/19 HUNTER STREET, GLEN WAVERLEY",-37.874613,145.150297,3.0,2.0,0,$400_p.w.,none,September 2010,3150,2010,9,WAVERLEY,400,Other,212051322
671,683,"1/19 HUNTER STREET, GLEN WAVERLEY",-37.874613,145.150297,3.0,2.0,0,$370_pw,none,August 2010,3150,2010,8,WAVERLEY,370,Other,212051322
672,684,"1/19 HUNTER STREET, GLEN WAVERLEY",-37.874613,145.150297,3.0,2.0,0,$370_pw,none,June 2010,3150,2010,6,WAVERLEY,370,Other,212051322
673,685,"1/19 HUNTER STREET, GLEN WAVERLEY",-37.874613,145.150297,3.0,2.0,0,$370_p.w.,none,March 2010,3150,2010,3,WAVERLEY,370,Other,212051322
674,686,"1/7 KALONGA COURT, GLEN WAVERLEY",-37.893094,145.164516,3.0,1.0,2,$370_per_week,House,December 2010,3150,2010,12,WAVERLEY,370,House,212051321
675,687,"52 CALLAGHAN AVENUE, GLEN WAVERLEY",-37.894584,145.15412,4.0,2.0,2,$575_Weekly,House,January 2010,3150,2010,1,WAVERLEY,575,House,212051322
676,688,"10 BELMONT ROAD, GLEN WAVERLEY",-37.861799,145.158415,3.0,1.0,1,$335_Weekly,House,June 2010,3150,2010,6,WAVERLEY,335,House,212051322
677,689,"4 HIGHVALE ROAD, GLEN WAVERLEY",-37.862198,145.167829,3.0,2.0,2,$365_p.w.,House,April 2010,3150,2010,4,WAVERLEY,365,House,212051322
678,690,"22 KENNEDY STREET, GLEN WAVERLEY",-37.876475,145.170261,4.0,2.0,1,$430_pw,House,April 2010,3150,2010,4,WAVERLEY,430,House,212051321
679,691,"4 LARPENT STREET, GLEN WAVERLEY",-37.870663,145.168586,5.0,2.0,2,$360_pw,House,March 2010,3150,2010,3,WAVERLEY,360,House,212051321
680,692,"695 HIGH STREET ROAD, GLEN WAVERLEY",-37.87274,145.154437,5.0,2.0,1,$430_per_week,House,November 2010,3150,2010,11,WAVERLEY,430,House,212051322
681,693,"9 GARWAIN PARADE, GLEN WAVERLEY",-37.869928,145.181587,3.0,2.0,1,$365_per_week,House,August 2010,3150,2010,8,WAVERLEY,365,House,212051321
682,694,"39 CAMBRIDGE DRIVE, GLEN WAVERLEY",-37.891626,145.150224,4.0,2.0,2,$425_p.w.,House,December 2010,3150,2010,12,WAVERLEY,425,House,212051322
683,695,"3 EASTBOURNE COURT, GLEN WAVERLEY",-37.898747,145.170494,3.0,1.0,1,$320_per_week,House,February 2010,3150,2010,2,WAVERLEY,320,House,212051321
684,696,"1/1 MARTIN PLACE, GLEN WAVERLEY",-37.8685389,145.1614244,4.0,2.0,2,$330_per_week,Townhouse,February 2010,3150,2010,2,WAVERLEY,330,House,212051322
685,697,"34 BOGONG AVENUE, GLEN WAVERLEY",-37.881636,145.160218,4.0,2.0,1,$360_per_week,House,January 2010,3150,2010,1,WAVERLEY,360,House,212051322
686,698,"12 CYPRESS AVENUE, GLEN WAVERLEY",-37.862985,145.151872,3.0,2.0,1,$380_pw,House,August 2010,3150,2010,8,WAVERLEY,380,House,212051322
687,699,"57 WILSON ROAD, GLEN WAVERLEY",-37.886121,145.173968,5.0,2.0,2,$550_p.w.,House,July 2010,3150,2010,7,WAVERLEY,550,House,212051321
688,700,"2/22 GARRISSON DRIVE, GLEN WAVERLEY",-37.879004,145.174557,2.0,1.0,1,$310_per_week,none,May 2010,3150,2010,5,WAVERLEY,310,Other,212051321
689,701,"766 HIGHBURY ROAD, GLEN WAVERLEY",-37.863458,145.179881,4.0,2.0,2,$425_p.w.,House,April 2010,3150,2010,4,WAVERLEY,425,House,212051321
690,702,"480 SPRINGVALE ROAD, GLEN WAVERLEY",-37.897694,145.163071,4.0,1.0,1,$390_per_week,House,April 2010,3150,2010,4,WAVERLEY,390,House,212051321
691,703,"3 VINE COURT, GLEN WAVERLEY",-37.883298,145.182509,3.0,2.0,4,$430_p.w.,Rental_residential,September 2010,3150,2010,9,WAVERLEY,430,Other,212051321
692,704,"1280 'WOODLANDS' COTTAGE, GLENAROUA",-37.111242,144.9502551,2.0,1.0,1,$130_Weekly,House,November 2010,3764,2010,11,GLENAROUA,130,House,204011060
693,705,"9 HARRISON STREET, BENDIGO",-36.750851,144.267259,2.0,1.0,2,$330_per_week,House,September 2010,3550,2010,9,BENDIGO,330,House,202011018
694,706,"9 HARRISON STREET, BENDIGO",-36.750851,144.267259,2.0,1.0,2,$330_per_week,House,June 2010,3550,2010,6,BENDIGO,330,House,202011018
695,707,"59 ARNOLD STREET, BENDIGO",-36.75167,144.285176,2.0,1.0,0,$210_per_week,House,May 2010,3550,2010,5,BENDIGO,210,House,202011018
696,708,"16 CASLEY STREET, BENDIGO",-36.749741,144.262432,3.0,1.0,1,$240_per_week,House,July 2010,3550,2010,7,BENDIGO,240,House,202011018
697,709,"16 CASLEY STREET, BENDIGO",-36.749741,144.262432,3.0,1.0,1,$240_per_week,House,January 2010,3550,2010,1,BENDIGO,240,House,202011018
698,710,"3/9 ACACIA STREET, BENDIGO",-36.755722,144.271259,3.0,2.0,1,$525,none,August 2010,3550,2010,8,BENDIGO,525,Other,202011018
699,711,"3/9 ACACIA STREET, BENDIGO",-36.755722,144.271259,3.0,2.0,1,$510_-_$525,none,January 2010,3550,2010,1,BENDIGO,525,Other,202011018
700,712,"5/734 CENTRE ROAD, BENTLEIGH EAST",-37.921445,145.060025,2.0,1.0,1,$265_Weekly,Rental_residential,May 2010,3165,2010,5,EAST,265,Other,208021427
701,713,"2/41 EAST BOUNDARY ROAD, BENTLEIGH EAST",-37.931576,145.056226,3.0,1.0,1,$360_pw,none,April 2010,3165,2010,4,EAST,360,Other,208021427
702,714,"124A MACKIE ROAD, BENTLEIGH EAST",-37.911294,145.076072,3.0,2.0,1,$430_p.w.,House,December 2010,3165,2010,12,EAST,430,House,208021426
703,715,"607 SOUTH ROAD, BENTLEIGH EAST",-37.934791,145.051289,3.0,1.0,3,$450_pw,House,April 2010,3165,2010,4,EAST,450,House,208021427
704,716,"14 ROWLAND STREET, BENTLEIGH EAST",-37.934546,145.059897,2.0,1.0,1,$350_pw,none,April 2010,3165,2010,4,EAST,350,Other,208021427
