,Unnamed: 0,Unnamed: 0.2,Unnamed: 0.1,address,latitude,longitude,nbed,nbath,ncar,price,type,historical_dates,postcode,year,month,suburb,weekly_rent,residence_type,SA2_CODE
0,0,0,0,"49 ADELAIDE STREET, CHEWTON",-37.086142,144.253413,3.0,2.0,2,$350_pw,House,January 2012,3451,2012,1,CHEWTON,350,House,202021027
1,1,1,1,"16 STEELE STREET, CHEWTON",-37.0797293,144.248306,3.0,2.0,2,$330_pw,House,July 2012,3451,2012,7,CHEWTON,330,House,202021027
2,2,2,2,"114 FRYERS ROAD, CHEWTON",-37.094488,144.2554,2.0,1.0,3,$235_pw,House,January 2012,3451,2012,1,CHEWTON,235,House,202021027
3,3,3,3,"173 MAIN ROAD, CHEWTON",-37.080952,144.259378,2.0,1.0,0,$270_pw,House,August 2012,3451,2012,8,CHEWTON,270,House,202021027
4,4,4,4,"173 MAIN ROAD, CHEWTON",-37.080952,144.259378,2.0,1.0,0,$270_pw,House,April 2012,3451,2012,4,CHEWTON,270,House,202021027
5,5,5,5,"17 PARK STREET, CHILTERN",-36.148025,146.608721,3.0,2.0,0,$190,Rental_residential,May 2012,3683,2012,5,CHILTERN,190,Other,204031070
6,6,6,6,"17 PARK STREET, CHILTERN",-36.148025,146.608721,3.0,2.0,0,$190,Rental_residential,April 2012,3683,2012,4,CHILTERN,190,Other,204031070
7,7,7,7,"2/20 NICKLESS STREET, CHILTERN",-36.154038,146.602977,2.0,1.0,2,$185_pw,Rental_residential,March 2012,3683,2012,3,CHILTERN,185,Other,204031070
8,8,8,8,"3 MARTINS LANE, CHILTERN",-36.1514034,146.6082599,2.0,1.0,1,$210,Townhouse,February 2012,3683,2012,2,CHILTERN,210,House,204031070
9,9,9,9,"2/56 ALBERT ROAD, CHILTERN",-36.14908,146.604709,2.0,1.0,1,$175_pw,House,June 2012,3683,2012,6,CHILTERN,175,House,204031070
10,10,10,10,"27 SWITCHBACK ROAD, CHIRNSIDE PARK",-37.745383,145.332843,3.0,1.0,1,$370_per_week,House,October 2012,3116,2012,10,PARK,370,House,211051275
11,11,11,11,"66 ROSEMAN ROAD, CHIRNSIDE PARK",-37.746928,145.33598,3.0,1.0,1,$300_pw,House,May 2012,3116,2012,5,PARK,300,House,211051275
12,12,12,12,"66 ROSEMAN ROAD, CHIRNSIDE PARK",-37.746928,145.33598,3.0,1.0,1,$300_pw,House,April 2012,3116,2012,4,PARK,300,House,211051275
13,13,13,13,"53 VICTORIA ROAD, CHIRNSIDE PARK",-37.755744,145.335116,3.0,1.0,1,$295_per_week,none,July 2012,3116,2012,7,PARK,295,Other,211051275
14,14,14,14,"25 CLUBPOINT DRIVE, CHIRNSIDE PARK",-37.7526153,145.3270934,3.0,2.0,1,$350_pw,House,February 2012,3116,2012,2,PARK,350,House,211051275
15,15,15,15,"55 CHIRNSIDE DRIVE, CHIRNSIDE PARK",-37.754336,145.320414,4.0,2.0,2,$400_pw,House,June 2012,3116,2012,6,PARK,400,House,211051275
16,16,16,16,"55 CHIRNSIDE DRIVE, CHIRNSIDE PARK",-37.754336,145.320414,4.0,2.0,2,$400_pw,House,May 2012,3116,2012,5,PARK,400,House,211051275
17,17,17,17,"56 MUIR ROAD, CHRISTMAS HILLS",-37.657453,145.338221,2.0,1.0,0,$340_per_week,Rental_residential,May 2012,3775,2012,5,HILLS,340,Other,209031212
18,18,18,18,"136 WESTERING ROAD, CHRISTMAS HILLS",-37.681579,145.268052,4.0,2.0,2,$400_per_week,none,July 2012,3775,2012,7,HILLS,400,Other,209031212
19,19,19,19,"136 WESTERING ROAD, CHRISTMAS HILLS",-37.681579,145.268052,4.0,2.0,2,$400_per_week,none,May 2012,3775,2012,5,HILLS,400,Other,209031212
20,20,20,20,"1251 SKYLINE ROAD, CHRISTMAS HILLS",-37.626424,145.352993,4.0,2.0,2,$600_per_week,House,June 2012,3775,2012,6,HILLS,600,House,209031212
21,21,21,21,"23 WESTERING ROAD, CHRISTMAS HILLS",-37.673706,145.275099,5.0,2.0,7,$950,House,April 2012,3775,2012,4,HILLS,950,House,209031212
22,22,22,22,"23 WESTERING ROAD, CHRISTMAS HILLS",-37.673706,145.275099,5.0,2.0,7,$950,House,February 2012,3775,2012,2,HILLS,950,House,209031212
23,23,23,23,"17 AUCHTERLONIE CRESCENT, CHURCHILL",-38.316505,146.414675,3.0,2.0,1,$260_per_week,House,July 2012,3842,2012,7,CHURCHILL,260,House,205041094
24,24,24,24,"13 GUNDAROO PLACE, CHURCHILL",-38.320975,146.423926,3.0,1.0,0,$210_pw,House,November 2012,3842,2012,11,CHURCHILL,210,House,205041094
25,25,25,25,"38 COOLABAH DRIVE, CHURCHILL",-38.303151,146.416263,3.0,1.0,1,$195_per_week,House,August 2012,3842,2012,8,CHURCHILL,195,House,205041094
26,26,26,26,"48 MCDONALD WAY, CHURCHILL",-38.312359,146.412762,3.0,1.0,1,$195_pw,Rental_residential,December 2012,3842,2012,12,CHURCHILL,195,Other,205041094
27,27,27,27,"4 CASEY COURT, CLARINDA",-37.942898,145.109007,3.0,1.0,2,$360_per_week,House,April 2012,3169,2012,4,CLARINDA,360,House,212041309
28,28,28,28,"UNIT 1/19 ELDER STREET, CLARINDA",-37.928967,145.103913,2.0,1.0,1,$290_pw,Unit,August 2012,3169,2012,8,CLARINDA,290,Apartment,212041309
29,29,29,29,"20 CRAWFORD ROAD, CLARINDA",-37.929396,145.101594,2.0,1.0,1,$315_pw,House,July 2012,3169,2012,7,CLARINDA,315,House,212041309
30,30,30,30,"20 CRAWFORD ROAD, CLARINDA",-37.929396,145.101594,2.0,1.0,1,$315_per_week,House,June 2012,3169,2012,6,CLARINDA,315,House,212041309
31,31,31,31,"20 CRAWFORD ROAD, CLARINDA",-37.929396,145.101594,2.0,1.0,1,$315_per_week,House,April 2012,3169,2012,4,CLARINDA,315,House,212041309
32,32,32,32,"554 HEATHS LANE, CLARKEFIELD",-37.460714,144.804313,3.0,1.0,2,$250_pw,House,February 2012,3430,2012,2,CLARKEFIELD,250,House,210021235
33,33,33,33,"554 HEATHS LANE, CLARKEFIELD",-37.460714,144.804313,3.0,1.0,2,$250_pw,House,January 2012,3430,2012,1,CLARKEFIELD,250,House,210021235
34,34,34,34,"2/29 GLENBROOK AVENUE, CLAYTON NORTH",-37.908932,145.123434,4.0,3.0,1,$570_per_week,House,July 2012,3168,2012,7,NORTH,570,House,212051567
35,35,35,35,"650 BLACKBURN ROAD, CLAYTON NORTH",-37.9037544,145.1426657,3.0,1.0,2,$310_Weekly,none,November 2012,3168,2012,11,NORTH,310,Other,212051567
36,36,36,36,"1/31 BEVAN AVENUE, CLAYTON SOUTH",-37.934415,145.128568,3.0,1.0,1,$350_per_week,House,August 2012,3169,2012,8,SOUTH,350,House,212041310
37,37,37,37,"1/31 BEVAN AVENUE, CLAYTON SOUTH",-37.934415,145.128568,3.0,1.0,1,$350_per_week,House,July 2012,3169,2012,7,SOUTH,350,House,212041310
38,38,38,38,"12 BOTANIC DRIVE, CLAYTON SOUTH",-37.939354,145.13641,3.0,2.0,2,$450,none,November 2012,3169,2012,11,SOUTH,450,Other,212041310
39,39,39,39,"3 GLENN COURT, CLAYTON SOUTH",-37.955304,145.136471,3.0,1.0,2,$365,House,November 2012,3169,2012,11,SOUTH,365,House,212041310
40,40,40,40,"5C TENNYSON AVENUE, CLAYTON SOUTH",-37.9333826,145.1302077,3.0,2.0,1,$409_per_week,Townhouse,April 2012,3169,2012,4,SOUTH,409,House,212041310
41,41,41,41,"3/44 OAKES AVENUE, CLAYTON SOUTH",-37.935969,145.133936,2.0,1.0,1,$260_p.w.,House,September 2012,3169,2012,9,SOUTH,260,House,212041310
42,42,42,42,"3/44 OAKES AVENUE, CLAYTON SOUTH",-37.935969,145.133936,2.0,1.0,1,$260_p.w.,House,August 2012,3169,2012,8,SOUTH,260,House,212041310
43,43,43,43,"13 SPRING VALLEY DRIVE, CLAYTON SOUTH",-37.947671,145.137097,3.0,2.0,2,$350,House,March 2012,3169,2012,3,SOUTH,350,House,212041310
44,44,44,44,"4/15 OAKES AVENUE, CLAYTON SOUTH",-37.935135,145.129653,3.0,2.0,1,$370_pw,House,April 2012,3169,2012,4,SOUTH,370,House,212041310
45,45,45,45,"4/15 OAKES AVENUE, CLAYTON SOUTH",-37.935135,145.129653,3.0,2.0,1,$370_p.w.,House,March 2012,3169,2012,3,SOUTH,370,House,212041310
46,46,46,46,"10 EVERGREEN BOULEVARD, CLAYTON SOUTH",-37.93957,145.137404,3.0,2.0,2,$460,House,December 2012,3169,2012,12,SOUTH,460,House,212041310
47,47,47,47,"A202/59 AUTUMN TERRACE, CLAYTON SOUTH",-37.9391661,145.1385972,1.0,1.0,1,$300_p.w.,Rental_residential,July 2012,3169,2012,7,SOUTH,300,Other,212041310
48,48,48,48,"10 WARRAWEENA ROAD, CLAYTON SOUTH",-37.941496,145.11352,3.0,1.0,2,$380,House,August 2012,3169,2012,8,SOUTH,380,House,212041310
49,49,49,49,"10 WARRAWEENA ROAD, CLAYTON SOUTH",-37.941496,145.11352,3.0,1.0,2,$350,House,May 2012,3169,2012,5,SOUTH,350,House,212041310
50,50,50,50,"UNIT 11/38 WORDSWORTH AVENUE, CLAYTON SOUTH",-37.939192,145.132069,2.0,1.0,1,$300_per_week,Unit,July 2012,3169,2012,7,SOUTH,300,Apartment,212041310
51,51,51,51,"4/31 MILTON AVENUE, CLAYTON SOUTH",-37.93671799,145.13082886,2.0,1.0,1,$270_Weekly,Unit,June 2012,3169,2012,6,SOUTH,270,Apartment,212041310
52,52,52,52,"4/31 MILTON AVENUE, CLAYTON SOUTH",-37.93671799,145.13082886,2.0,1.0,1,$270_p.w.,Unit,May 2012,3169,2012,5,SOUTH,270,Apartment,212041310
53,53,53,53,"1/60 OAKES AVENUE, CLAYTON SOUTH",-37.93713,145.136159,3.0,2.0,2,$280_p.w.,Townhouse,January 2012,3169,2012,1,SOUTH,280,House,212041310
54,54,54,54,"2/52 BEDDOE AVENUE, CLAYTON",-37.911613,145.128216,3.0,3.0,1,$480_p.w.,Townhouse,June 2012,3168,2012,6,CLAYTON,480,House,212051567
55,55,55,55,"6/58 KANOOKA GROVE, CLAYTON",-37.92192,145.125966,2.0,1.0,1,$350_p.w.,Townhouse,August 2012,3168,2012,8,CLAYTON,350,House,212051568
56,56,56,56,"6/58 KANOOKA GROVE, CLAYTON",-37.92192,145.125966,2.0,1.0,1,$350_pw,Townhouse,July 2012,3168,2012,7,CLAYTON,350,House,212051568
57,57,57,57,"30/2 GREENFIELD DRIVE, CLAYTON",-37.923181,145.128623,2.0,1.0,1,$390,Unit,October 2012,3168,2012,10,CLAYTON,390,Apartment,212051568
58,58,58,58,"1266 CENTRE ROAD, CLAYTON",-37.9278306,145.1130031,2.0,1.0,2,$300_per_week,House,May 2012,3168,2012,5,CLAYTON,300,House,212041310
59,59,59,59,"1266 CENTRE ROAD, CLAYTON",-37.9278306,145.1130031,2.0,1.0,2,$310_per_week,House,May 2012,3168,2012,5,CLAYTON,310,House,212041310
60,60,60,60,"1266 CENTRE ROAD, CLAYTON",-37.9278306,145.1130031,2.0,1.0,2,$310_Weekly,House,March 2012,3168,2012,3,CLAYTON,310,House,212041310
61,61,61,61,"1266 CENTRE ROAD, CLAYTON",-37.9278306,145.1130031,2.0,1.0,2,$310_per_week,House,February 2012,3168,2012,2,CLAYTON,310,House,212041310
62,62,62,62,"UNIT 3/10 DENNIS STREET, CLAYTON",-37.9181978,145.1365816,2.0,1.0,1,$290_per_week,Unit,June 2012,3168,2012,6,CLAYTON,290,Apartment,212051567
63,63,63,63,"33 ALICE STREET, CLAYTON",-37.917622,145.115287,4.0,2.0,1,$400_per_week,House,January 2012,3168,2012,1,CLAYTON,400,House,212051568
64,64,64,64,"UNIT 2/20 BETTINA STREET, CLAYTON",-37.919178,145.137236,4.0,1.0,2,$500_Weekly,Townhouse,February 2012,3168,2012,2,CLAYTON,500,House,212051567
65,65,65,65,"UNIT 1/5-7 THOMAS STREET, CLAYTON",-37.926088,145.12026,2.0,1.0,1,$330_per_week,Unit,July 2012,3168,2012,7,CLAYTON,330,Apartment,212051568
66,66,66,66,"2/10 RENVER ROAD, CLAYTON",-37.918093,145.14382,3.0,2.0,1,$450_p.w.,Unit,July 2012,3168,2012,7,CLAYTON,450,Apartment,212051567
67,67,67,67,"2/10 RENVER ROAD, CLAYTON",-37.918093,145.14382,3.0,2.0,1,$450_per_week,Unit,June 2012,3168,2012,6,CLAYTON,450,Apartment,212051567
68,68,68,68,"UNIT 6/1927 DANDENONG ROAD, CLAYTON",-37.911756,145.123934,2.0,1.0,1,$300_per_week,Unit,April 2012,3168,2012,4,CLAYTON,300,Apartment,212051567
69,69,69,69,"UNIT 6/1927 DANDENONG ROAD, CLAYTON",-37.911756,145.123934,2.0,1.0,1,$320_Weekly,Unit,March 2012,3168,2012,3,CLAYTON,320,Apartment,212051567
70,70,70,70,"UNIT 6/1927 DANDENONG ROAD, CLAYTON",-37.911756,145.123934,2.0,1.0,1,$320_pw,Unit,February 2012,3168,2012,2,CLAYTON,320,Apartment,212051567
71,71,71,71,"3/6 OLIVE STREET, CLAYTON",-37.930011,145.119843,2.0,1.0,2,$350_per_week,Unit,July 2012,3168,2012,7,CLAYTON,350,Apartment,212041310
72,72,72,72,"6/13-15 ARNOTT STREET, CLAYTON",-37.917233,145.134413,3.0,1.0,1,$420_Weekly,Townhouse,February 2012,3168,2012,2,CLAYTON,420,House,212051567
73,73,73,73,"6/13-15 ARNOTT STREET, CLAYTON",-37.917233,145.134413,3.0,1.0,1,$440_pw,Townhouse,January 2012,3168,2012,1,CLAYTON,440,House,212051567
74,74,74,74,"2/54 PANORAMA STREET, CLAYTON",-37.921554,145.129661,3.0,2.0,2,$445_Weekly,Townhouse,March 2012,3168,2012,3,CLAYTON,445,House,212051568
75,75,75,75,"2/54 PANORAMA STREET, CLAYTON",-37.921554,145.129661,3.0,2.0,2,$450_pw,Townhouse,March 2012,3168,2012,3,CLAYTON,450,House,212051568
76,76,76,76,"16 WELLINGTON ROAD, CLAYTON",-37.915481,145.130845,1.0,2.0,0,$135_Weekly,House,May 2012,3168,2012,5,CLAYTON,135,House,212051567
77,77,77,77,"16 WELLINGTON ROAD, CLAYTON",-37.915481,145.130845,1.0,2.0,0,$135_pw,House,April 2012,3168,2012,4,CLAYTON,135,House,212051567
78,78,78,78,"16 WELLINGTON ROAD, CLAYTON",-37.915481,145.130845,1.0,2.0,0,$600_Weekly,House,April 2012,3168,2012,4,CLAYTON,600,House,212051567
79,79,79,79,"16 WELLINGTON ROAD, CLAYTON",-37.915481,145.130845,1.0,2.0,0,$600_pw,House,March 2012,3168,2012,3,CLAYTON,600,House,212051567
80,80,80,80,"5/645 BLACKBURN ROAD, CLAYTON",-37.917981,145.139598,1.0,1.0,1,$230_p.w.,Unit,June 2012,3168,2012,6,CLAYTON,230,Apartment,212051567
81,81,81,81,"43 HARLINGTON STREET, CLAYTON",-37.923241,145.110846,3.0,1.0,1,$310_per_week,House,March 2012,3168,2012,3,CLAYTON,310,House,212051568
82,82,82,82,"43 HARLINGTON STREET, CLAYTON",-37.923241,145.110846,3.0,1.0,1,$330_Weekly,House,March 2012,3168,2012,3,CLAYTON,330,House,212051568
83,83,83,83,"43 HARLINGTON STREET, CLAYTON",-37.923241,145.110846,3.0,1.0,1,$350_pw,House,February 2012,3168,2012,2,CLAYTON,350,House,212051568
84,84,84,84,"43 HARLINGTON STREET, CLAYTON",-37.923241,145.110846,3.0,1.0,1,$375_per_week,House,January 2012,3168,2012,1,CLAYTON,375,House,212051568
85,85,85,85,"UNIT 1/40 ALICE STREET, CLAYTON",-37.9180741,145.1159047,2.0,1.0,2,$340_per_week,Unit,May 2012,3168,2012,5,CLAYTON,340,Apartment,212051568
86,86,86,86,"UNIT 1/40 ALICE STREET, CLAYTON",-37.9180741,145.1159047,2.0,1.0,2,$350_per_week,Unit,May 2012,3168,2012,5,CLAYTON,350,Apartment,212051568
87,87,87,87,"UNIT 1/40 ALICE STREET, CLAYTON",-37.9180741,145.1159047,2.0,1.0,2,$350_pw,Unit,March 2012,3168,2012,3,CLAYTON,350,Apartment,212051568
88,88,88,88,"25 STOCKDALE AVENUE, CLAYTON",-37.90903,145.125797,3.0,1.0,2,$330_Weekly,House,November 2012,3168,2012,11,CLAYTON,330,House,212051567
89,89,89,89,"2/1 EVA STREET, CLAYTON",-37.920577,145.113735,4.0,2.0,1,$580_pw,House,November 2012,3168,2012,11,CLAYTON,580,House,212051568
90,90,90,90,"2/1 EVA STREET, CLAYTON",-37.920577,145.113735,4.0,2.0,1,$580_pw,House,October 2012,3168,2012,10,CLAYTON,580,House,212051568
91,91,91,91,"2/1 EVA STREET, CLAYTON",-37.920577,145.113735,4.0,2.0,1,$620_per_week,House,September 2012,3168,2012,9,CLAYTON,620,House,212051568
92,92,92,92,"2/1 EVA STREET, CLAYTON",-37.920577,145.113735,4.0,2.0,1,$600_pw,House,September 2012,3168,2012,9,CLAYTON,600,House,212051568
93,93,93,93,"2/1 EVA STREET, CLAYTON",-37.920577,145.113735,4.0,2.0,1,$620_pw,House,August 2012,3168,2012,8,CLAYTON,620,House,212051568
94,94,94,94,"UNIT 4/6 ARNOTT STREET, CLAYTON",-37.916706,145.135221,1.0,1.0,1,$330_Weekly,Unit,August 2012,3168,2012,8,CLAYTON,330,Apartment,212051567
95,95,95,95,"1/67 MADELEINE ROAD, CLAYTON",-37.919718,145.118887,2.0,1.0,1,$310_per_week,none,November 2012,3168,2012,11,CLAYTON,310,Other,212051568
96,96,96,96,"1/67 MADELEINE ROAD, CLAYTON",-37.919718,145.118887,2.0,1.0,1,$310_per_week,none,October 2012,3168,2012,10,CLAYTON,310,Other,212051568
97,97,97,97,"6/10 HILLTOP AVENUE, CLAYTON",-37.905826,145.127234,2.0,1.0,1,$320_per_week,none,September 2012,3168,2012,9,CLAYTON,320,Other,212051567
98,98,98,98,"4/22 WRIGHT STREET, CLAYTON",-37.922062,145.124729,2.0,1.0,1,$280_Weekly,House,January 2012,3168,2012,1,CLAYTON,280,House,212051568
99,99,99,99,"4/22 WRIGHT STREET, CLAYTON",-37.922062,145.124729,2.0,1.0,1,$290_pw,House,January 2012,3168,2012,1,CLAYTON,290,House,212051568
100,100,100,100,"1/56 PANORAMA STREET, CLAYTON",-37.921779,145.129744,1.0,1.0,1,$250_pw,Available Now,January 2012,3168,2012,1,CLAYTON,250,Other,212051568
101,101,101,101,"9/34 WELLINGTON ROAD, CLAYTON",-37.915995,145.133951,1.0,1.0,1,$215,none,March 2012,3168,2012,3,CLAYTON,215,Other,212051567
102,102,102,102,"9/34 WELLINGTON ROAD, CLAYTON",-37.915995,145.133951,1.0,1.0,1,$215,none,February 2012,3168,2012,2,CLAYTON,215,Other,212051567
103,103,103,103,"9/34 WELLINGTON ROAD, CLAYTON",-37.915995,145.133951,1.0,1.0,1,$230,none,February 2012,3168,2012,2,CLAYTON,230,Other,212051567
104,104,104,104,"9/34 WELLINGTON ROAD, CLAYTON",-37.915995,145.133951,1.0,1.0,1,$240,none,January 2012,3168,2012,1,CLAYTON,240,Other,212051567
105,105,105,105,"9 SHADY MEWS, CLAYTON",-37.922424,145.12782,2.0,1.0,2,$365_per_week,Rental_residential,November 2012,3168,2012,11,CLAYTON,365,Other,212051568
106,106,106,106,"9 SHADY MEWS, CLAYTON",-37.922424,145.12782,2.0,1.0,2,$365_pw,Rental_residential,October 2012,3168,2012,10,CLAYTON,365,Other,212051568
107,107,107,107,"9 SHADY MEWS, CLAYTON",-37.922424,145.12782,2.0,1.0,2,$370_per_week,Rental_residential,March 2012,3168,2012,3,CLAYTON,370,Other,212051568
108,108,108,108,"24 PRINCE CHARLES STREET, CLAYTON",-37.923408,145.114968,4.0,1.0,1,$450_Weekly,House,February 2012,3168,2012,2,CLAYTON,450,House,212051568
109,109,109,109,"24 PRINCE CHARLES STREET, CLAYTON",-37.923408,145.114968,4.0,1.0,1,$450_pw,House,January 2012,3168,2012,1,CLAYTON,450,House,212051568
110,110,110,110,"42 STOCKDALE AVENUE, CLAYTON",-37.910502,145.126035,4.0,2.0,1,$295_per_week,House,June 2012,3168,2012,6,CLAYTON,295,House,212051567
111,111,111,111,"6/1-3 ARNOTT STREET, CLAYTON",-37.916516,145.134721,3.0,1.0,1,$400_pw,none,September 2012,3168,2012,9,CLAYTON,400,Other,212051567
112,112,112,112,"6/1-3 ARNOTT STREET, CLAYTON",-37.916516,145.134721,3.0,1.0,1,$420_pw,none,August 2012,3168,2012,8,CLAYTON,420,Other,212051567
113,113,113,113,"6/1-3 ARNOTT STREET, CLAYTON",-37.916516,145.134721,3.0,1.0,1,$420_pw,none,July 2012,3168,2012,7,CLAYTON,420,Other,212051567
114,114,114,114,"3/320 HAUGHTON ROAD, CLAYTON",-37.919046,145.111712,2.0,1.0,2,$350_per_week,Available Now,August 2012,3168,2012,8,CLAYTON,350,Other,212051568
115,115,115,115,"3/320 HAUGHTON ROAD, CLAYTON",-37.919046,145.111712,2.0,1.0,2,$350_per_week,Available Now,July 2012,3168,2012,7,CLAYTON,350,Other,212051568
116,116,116,116,"3/320 HAUGHTON ROAD, CLAYTON",-37.919046,145.111712,2.0,1.0,2,$350_per_week,Available Now,June 2012,3168,2012,6,CLAYTON,350,Other,212051568
117,117,117,117,"2B HOURIGAN AVENUE, CLAYTON",-37.917265,145.121913,3.0,2.0,2,$430_Weekly,Townhouse,January 2012,3168,2012,1,CLAYTON,430,House,212051568
118,118,118,118,"3/52 BEDDOE AVENUE, CLAYTON",-37.911613,145.128216,4.0,4.0,2,$620_pw,Townhouse,June 2012,3168,2012,6,CLAYTON,620,House,212051567
119,119,119,119,"1/1440 NORTH ROAD, CLAYTON",-37.913904,145.118858,3.0,1.0,1,$480_pw,Townhouse,November 2012,3168,2012,11,CLAYTON,480,House,212051568
120,120,120,120,"1/70 EDINBURGH STREET, CLAYTON",-37.916705,145.117864,3.0,1.0,2,$400,House,February 2012,3168,2012,2,CLAYTON,400,House,212051568
121,121,121,121,"1/70 EDINBURGH STREET, CLAYTON",-37.916705,145.117864,3.0,1.0,2,$370_pw,House,January 2012,3168,2012,1,CLAYTON,370,House,212051568
122,122,122,122,"6 BANKSIA STREET, CLAYTON",-37.914523,145.119282,3.0,1.0,2,$385_per_week,none,March 2012,3168,2012,3,CLAYTON,385,Other,212051568
123,123,123,123,"9 PRINCE CHARLES STREET, CLAYTON",-37.921871,145.114627,3.0,1.0,2,$330_per_week,House,September 2012,3168,2012,9,CLAYTON,330,House,212051568
124,124,124,124,"9 PRINCE CHARLES STREET, CLAYTON",-37.921871,145.114627,3.0,1.0,2,$340_pw,House,August 2012,3168,2012,8,CLAYTON,340,House,212051568
125,125,125,125,"16 BRUSHBOX COURT, CLAYTON",-37.92314,145.129478,2.0,1.0,2,$365_per_week,Townhouse,July 2012,3168,2012,7,CLAYTON,365,House,212051568
126,126,126,126,"16 BRUSHBOX COURT, CLAYTON",-37.92314,145.129478,2.0,1.0,2,$385_per_week,Townhouse,June 2012,3168,2012,6,CLAYTON,385,House,212051568
127,127,127,127,"16 BRUSHBOX COURT, CLAYTON",-37.92314,145.129478,2.0,1.0,2,$385_per_week,Townhouse,May 2012,3168,2012,5,CLAYTON,385,House,212051568
128,128,128,128,"16 BRUSHBOX COURT, CLAYTON",-37.92314,145.129478,2.0,1.0,2,$385_per_week,Townhouse,February 2012,3168,2012,2,CLAYTON,385,House,212051568
129,129,129,129,"3/7 MARY STREET, CLAYTON",-37.922061,145.12127,2.0,2.0,2,$395_pw,Townhouse,April 2012,3168,2012,4,CLAYTON,395,House,212051568
130,130,130,130,"2/53 ALICE STREET, CLAYTON",-37.917891,145.117465,3.0,2.0,2,$410_per_week,Townhouse,August 2012,3168,2012,8,CLAYTON,410,House,212051568
131,131,131,131,"2/53 ALICE STREET, CLAYTON",-37.917891,145.117465,3.0,2.0,2,$410_per_week,Townhouse,July 2012,3168,2012,7,CLAYTON,410,House,212051568
132,132,132,132,"1/25 HOURIGAN AVENUE, CLAYTON",-37.917441,145.12482,3.0,2.0,1,$400_Weekly,Townhouse,February 2012,3168,2012,2,CLAYTON,400,House,212051568
133,133,133,133,"1/17 BEDDOE AVENUE, CLAYTON",-37.90863,145.128127,3.0,2.0,1,$495_pw,Townhouse,March 2012,3168,2012,3,CLAYTON,495,House,212051567
134,134,134,134,"1/17 BEDDOE AVENUE, CLAYTON",-37.90863,145.128127,3.0,2.0,1,$510_pw,Townhouse,February 2012,3168,2012,2,CLAYTON,510,House,212051567
135,135,135,135,"1/17 BEDDOE AVENUE, CLAYTON",-37.90863,145.128127,3.0,2.0,1,$510_pw,Townhouse,January 2012,3168,2012,1,CLAYTON,510,House,212051567
136,136,136,136,"6 VICTOR ROAD, CLEMATIS",-37.929987,145.420214,2.0,1.0,1,$300_per_week,none,July 2012,3782,2012,7,CLEMATIS,300,Other,212011289
137,137,137,137,"278 BELGRAVE GEMBROOK ROAD, CLEMATIS",-37.928421,145.421523,4.0,2.0,2,$390_pw,House,October 2012,3782,2012,10,CLEMATIS,390,House,212011289
138,138,138,138,"260 BELGRAVE GEMBROOK ROAD, CLEMATIS",-37.9292827,145.4253821,4.0,2.0,5,$400_per_week,House,April 2012,3782,2012,4,CLEMATIS,400,House,212011289
139,139,139,139,"260 BELGRAVE GEMBROOK ROAD, CLEMATIS",-37.9292827,145.4253821,4.0,2.0,5,$400_per_week,House,March 2012,3782,2012,3,CLEMATIS,400,House,212011289
140,140,140,140,"260 BELGRAVE GEMBROOK ROAD, CLEMATIS",-37.9292827,145.4253821,4.0,2.0,5,$450_per_week,House,March 2012,3782,2012,3,CLEMATIS,450,House,212011289
141,141,141,141,"260A BELLBIRD ROAD, CLIFTON CREEK",-37.721096,147.703205,3.0,1.0,0,$255_per_week,House,January 2012,3875,2012,1,CREEK,255,House,205021082
142,142,142,142,"29 FENWICK STREET, CLIFTON HILL",-37.789226,144.999862,2.0,1.0,0,$450_per_week,none,November 2012,3068,2012,11,HILL,450,Other,206071145
143,143,143,143,"6/32 THE ESPLANADE, CLIFTON HILL",-37.787185,145.005992,2.0,1.0,1,$335_p.w.,Rental_residential,February 2012,3068,2012,2,HILL,335,Other,206071145
144,144,144,144,"8/32 DWYER STREET, CLIFTON HILL",-37.787239,145.002994,1.0,1.0,1,$300_per_week,none,August 2012,3068,2012,8,HILL,300,Other,206071145
145,145,145,145,"32 NOONE STREET, CLIFTON HILL",-37.793155,144.990768,3.0,2.0,1,$750_pw,House,March 2012,3068,2012,3,HILL,750,House,206071145
146,146,146,146,"128 NOONE ST, CLIFTON HILL",-37.793754,144.996451,2.0,1.0,0,$465_p.w.,Rental_residential,February 2012,3068,2012,2,HILL,465,Other,206071145
147,147,147,147,"128 NOONE STREET, CLIFTON HILL",-37.793818,144.996434,2.0,1.0,0,$465_pw,none,February 2012,3068,2012,2,HILL,465,Other,206071145
148,148,148,148,"3/165 NOONE STREET, CLIFTON HILL",-37.7943443,145.0001585,2.0,2.0,1,$490_pw,Rental_residential,October 2012,3068,2012,10,HILL,490,Other,206071145
149,149,149,149,"3/165 NOONE STREET, CLIFTON HILL",-37.7943443,145.0001585,2.0,2.0,1,$490_pw,Rental_residential,September 2012,3068,2012,9,HILL,490,Other,206071145
150,150,150,150,"2/3 BARRIES PLACE, CLIFTON HILL",-37.7945179,144.9987711,1.0,1.0,1,$350_pw,none,May 2012,3068,2012,5,HILL,350,Other,206071145
151,151,151,151,"144 GOLD STREET, CLIFTON HILL",-37.793178,144.990398,2.0,1.0,0,$525_pw,Rental_residential,July 2012,3068,2012,7,HILL,525,Other,206071145
152,152,152,152,"29 YAMBLA STREET, CLIFTON HILL",-37.791802,145.000849,3.0,1.0,0,$525_per_week,House,August 2012,3068,2012,8,HILL,525,House,206071145
153,153,153,153,"10/9 SOUTH TERRACE, CLIFTON HILL",-37.79235,144.99226,1.0,1.0,1,$300_p.w.,Flat,October 2012,3068,2012,10,HILL,300,Apartment,206071145
154,154,154,154,"1 YAMBLA STREET, CLIFTON HILL",-37.792736,145.000619,2.0,1.0,1,$490_pw,none,October 2012,3068,2012,10,HILL,490,Other,206071145
155,155,155,155,"4/1 BARRIES PLACE, CLIFTON HILL",-37.7945179,144.9987711,1.0,1.0,1,$360_pw,none,June 2012,3068,2012,6,HILL,360,Other,206071145
156,156,156,156,"40 O GRADY STREET, CLIFTON HILL",-37.786837,144.998903,3.0,1.0,2,$735_pw,Rental_residential,September 2012,3068,2012,9,HILL,735,Other,206071145
157,157,157,157,"15 COUNCIL STREET, CLIFTON HILL",-37.792726,144.986822,3.0,2.0,2,$675_pw,House,August 2012,3068,2012,8,HILL,675,House,206071145
158,158,158,158,"57 CLIFFORD PLACE, CLIFTON HILL",-37.791503,145.001466,3.0,2.0,1,$685_pw,Townhouse,November 2012,3068,2012,11,HILL,685,House,206071145
159,159,159,159,"152 GOLD STREET, CLIFTON HILL",-37.792994,144.990414,2.0,1.0,1,$550_pw,Rental_residential,November 2012,3068,2012,11,HILL,550,Other,206071145
160,160,160,160,"135A NOONE STREET, CLIFTON HILL",-37.7942689,144.9984992,1.0,1.0,0,$450_per_week,House,June 2012,3068,2012,6,HILL,450,House,206071145
161,161,161,161,"11/56 JOHN STREET, CLIFTON HILL",-37.789298,144.995897,2.0,2.0,1,$400_per_week,none,April 2012,3068,2012,4,HILL,400,Other,206071145
162,162,162,162,"30 WRIGHT STREET, CLIFTON HILL",-37.78906,145.00174,2.0,1.0,1,$540_pw,Rental_residential,February 2012,3068,2012,2,HILL,540,Other,206071145
163,163,163,163,"23 AITKEN STREET, CLIFTON HILL",-37.791383,145.000129,2.0,1.0,0,$420,Rental_residential,October 2012,3068,2012,10,HILL,420,Other,206071145
164,164,164,164,"5/56 JOHN STREET, CLIFTON HILL",-37.78723145,144.99583435,1.0,1.0,1,$350_per_week,none,August 2012,3068,2012,8,HILL,350,Other,206071145
165,165,165,165,"3 CLIFTON AVENUE, CLIFTON HILL",-37.792302,144.997499,3.0,1.0,0,$720_pw,House,July 2012,3068,2012,7,HILL,720,House,206071145
166,166,166,166,"6 RUTLAND STREET, CLIFTON HILL",-37.794625,144.996207,2.0,1.0,1,$510,House,April 2012,3068,2012,4,HILL,510,House,206071145
167,167,167,167,"5/60 FENWICK STREET, CLIFTON HILL",-37.786721,144.999896,2.0,1.0,1,$400_pw,Rental_residential,February 2012,3068,2012,2,HILL,400,Other,206071145
168,168,168,168,"3/268 ALEXANDRA PARADE EAST, CLIFTON HILL",-37.7951063,144.9997451,1.0,1.0,1,$350_pw,none,January 2012,3068,2012,1,HILL,350,Other,206071145
169,169,169,169,"1/211 GOLD STREET, CLIFTON HILL",-37.791306,144.990222,2.0,1.0,1,$400_per_week,none,August 2012,3068,2012,8,HILL,400,Other,206071145
170,170,170,170,"4 COOLABAH WAY, CLIFTON SPRINGS",-38.148568,144.576425,4.0,2.0,3,$290_Weekly,none,April 2012,3222,2012,4,SPRINGS,290,Other,203031048
171,171,171,171,"4 RYANS ROAD, CLONBINANE",-37.301373,145.067139,3.0,1.0,1,$220_Weekly,House,March 2012,3658,2012,3,CLONBINANE,220,House,209041224
172,172,172,172,"4 RYANS ROAD, CLONBINANE",-37.301373,145.067139,3.0,1.0,1,$220_Weekly,House,April 2012,3658,2012,4,CLONBINANE,220,House,209041224
173,173,173,173,"6 HANNAH STREET, CLUNES",-37.295479,143.78396,2.0,1.0,0,$205_per_week,Rental_residential,May 2012,3370,2012,5,CLUNES,205,Other,201021010
174,174,174,174,"27A BECKWITH STREET, CLUNES",-37.299866,143.781619,3.0,1.0,1,$250_pw,House,June 2012,3370,2012,6,CLUNES,250,House,201021010
175,175,175,175,"10 ALBERT STREET, CLUNES",-37.287198,143.78807,3.0,2.0,1,$230,House,November 2012,3370,2012,11,CLUNES,230,House,201021010
176,176,176,176,"15 BECKWITH STREET, CLUNES",-37.298842,143.78253,3.0,1.0,2,$190_per_week,House,August 2012,3370,2012,8,CLUNES,190,House,201021010
177,177,177,177,"2110 BALLARTO ROAD, CLYDE",-38.1434798,145.4038337,3.0,1.0,4,$300_pw,House,July 2012,3978,2012,7,CLYDE,300,House,212011548
178,178,178,178,"12 BALLARTO ROAD, CLYDE",-38.13434,145.329343,4.0,2.0,4,$505,House,July 2012,3978,2012,7,CLYDE,505,House,212031303
179,179,179,179,"110 CLYDE FIVE WAYS ROAD, CLYDE",-38.1595057,145.3188431,4.0,3.0,3,$450_per_week,House,November 2012,3978,2012,11,CLYDE,450,House,212031303
180,180,180,180,"110 CLYDE FIVE WAYS ROAD, CLYDE",-38.1595057,145.3188431,4.0,3.0,3,$470_per_week,House,May 2012,3978,2012,5,CLYDE,470,House,212031303
181,181,181,181,"2/86 CURDIE STREET, COBDEN",-38.327394,143.071066,2.0,1.0,1,$185_per_week,House,February 2012,3266,2012,2,COBDEN,185,House,217031475
182,182,182,182,"2/86 CURDIE STREET, COBDEN",-38.327394,143.071066,2.0,1.0,1,$185_per_week,House,January 2012,3266,2012,1,COBDEN,185,House,217031475
183,183,183,183,"74 WALKER STREET, COBDEN",-38.32536,143.080733,2.0,1.0,1,$185_per_week,House,September 2012,3266,2012,9,COBDEN,185,House,217031475
184,184,184,184,"22 PARROTT STREET, COBDEN",-38.32951,143.076719,4.0,1.0,3,$230_per_week,House,October 2012,3266,2012,10,COBDEN,230,House,217031475
185,185,185,185,"78 SILVESTER STREET, COBDEN",-38.326388,143.070045,3.0,1.0,2,$230_per_week,House,May 2012,3266,2012,5,COBDEN,230,House,217031475
186,186,186,186,"78 SILVESTER STREET, COBDEN",-38.326388,143.070045,3.0,1.0,2,$250_per_week,House,March 2012,3266,2012,3,COBDEN,250,House,217031475
187,187,187,187,"397 MCINTYRE ROAD, COBRAM EAST",-35.981858,145.675956,3.0,1.0,0,$150_per_week,House,May 2012,3644,2012,5,EAST,150,House,216021411
188,188,188,188,"1/6 THOMPSON AVE, COBRAM",-35.9158,145.653804,2.0,1.0,1,$140_p.w.,House,March 2012,3644,2012,3,COBRAM,140,House,216021411
189,189,189,189,"54 LIVINGSTONE STREET, COBURG NORTH",-37.7243911,144.9808818,2.0,1.0,2,$300_per_week,Available Now,November 2012,3058,2012,11,NORTH,300,Other,210031236
190,190,190,190,"9 RONALD STREET, COBURG NORTH",-37.730771,144.980626,3.0,1.0,0,$300_p.w.,Rental_residential,February 2012,3058,2012,2,NORTH,300,Other,210031236
191,191,191,191,"2 BELGRAVE STREET, COBURG",-37.742793,144.974864,3.0,1.0,1,$420_pw,none,February 2012,3058,2012,2,COBURG,420,Other,206011497
192,192,192,192,"2/64 VICTORIA STREET, COBURG",-37.742205,144.958461,2.0,1.0,1,$300_per_week,none,April 2012,3058,2012,4,COBURG,300,Other,206011498
193,193,193,193,"104A/1 MANNA GUM COURT, COBURG",-37.737353,144.976093,1.0,1.0,1,$330_per_week,Rental_residential,December 2012,3058,2012,12,COBURG,330,Other,206011497
194,194,194,194,"11/51 STOCKADE AVENUE, COBURG",-37.7383322,144.9702595,5.0,4.0,1,$700_Weekly,none,October 2012,3058,2012,10,COBURG,700,Other,206011497
195,195,195,195,"3/95 HARDING STREET, COBURG",-37.745848,144.975359,2.0,1.0,1,$330_pw,none,September 2012,3058,2012,9,COBURG,330,Other,206011497
196,196,196,196,"101B/41-43 STOCKADE AVENUE, COBURG",-37.7370199,144.9707254,3.0,1.0,2,$430_per_week,none,August 2012,3058,2012,8,COBURG,430,Other,206011497
197,197,197,197,"101B/41-43 STOCKADE AVENUE, COBURG",-37.7370199,144.9707254,3.0,1.0,2,$430,none,July 2012,3058,2012,7,COBURG,430,Other,206011497
198,198,198,198,"8/144 NICHOLSON STREET, COBURG",-37.745665,144.978198,2.0,1.0,1,$340_pw,none,February 2012,3058,2012,2,COBURG,340,Other,206011497
199,199,199,199,"177 URQUHART STREET, COBURG",-37.741016,144.975769,3.0,2.0,1,$475_pw,House,March 2012,3058,2012,3,COBURG,475,House,206011497
200,200,200,200,"5 CARRON STREET, COBURG",-37.751754,144.963576,2.0,1.0,0,$350_pw,Rental_residential,December 2012,3058,2012,12,COBURG,350,Other,206011497
201,201,201,201,"27 KELSON STREET, COBURG",-37.741122,144.955288,2.0,1.0,0,$310_pw,Rental_residential,April 2012,3058,2012,4,COBURG,310,Other,206011498
202,202,202,202,"56 ROSE STREET, COBURG",-37.743155,144.947356,3.0,1.0,2,$400_pw,Rental_residential,February 2012,3058,2012,2,COBURG,400,Other,206011498
203,203,203,203,"53 NICHOLSON STREET, COBURG",-37.753605,144.975761,2.0,1.0,1,$350_pw,none,August 2012,3058,2012,8,COBURG,350,Other,206011497
204,204,204,204,"14A HARDWICK STREET, COBURG",-37.749445,144.968678,2.0,1.0,0,$415_pw,House,April 2012,3058,2012,4,COBURG,415,House,206011497
205,205,205,205,"21/14 BELL STREET, COBURG",-37.7424804,144.9771819,2.0,1.0,1,$320_per_week,Rental_residential,October 2012,3058,2012,10,COBURG,320,Other,206011497
206,206,206,206,"207/37-41 MUNRO STREET, COBURG",-37.744967,144.963371,2.0,1.0,1,$350_pw,Rental_residential,November 2012,3058,2012,11,COBURG,350,Other,206011497
207,207,207,207,"207/37-41 MUNRO STREET, COBURG",-37.744967,144.963371,2.0,1.0,1,$350_pw,Rental_residential,August 2012,3058,2012,8,COBURG,350,Other,206011497
208,208,208,208,"207/37-41 MUNRO STREET, COBURG",-37.744967,144.963371,2.0,1.0,1,$390_pw,Rental_residential,June 2012,3058,2012,6,COBURG,390,Other,206011497
209,209,209,209,"2/17-18 CHAMP STREET, COBURG",-37.735876,144.967325,2.0,1.0,2,$330,Rental_residential,February 2012,3058,2012,2,COBURG,330,Other,206011497
210,210,210,210,"13 COLLINS STREET, COBURG",-37.737022,144.954334,3.0,1.0,2,$395_per_week,Rental_residential,November 2012,3058,2012,11,COBURG,395,Other,206011498
211,211,211,211,"13 COLLINS STREET, COBURG",-37.737022,144.954334,3.0,1.0,2,$395_per_week,Rental_residential,October 2012,3058,2012,10,COBURG,395,Other,206011498
212,212,212,212,"114 SHAFTSBURY STREET, COBURG",-37.745519,144.955825,3.0,2.0,1,$550_per_week,none,December 2012,3058,2012,12,COBURG,550,Other,206011498
213,213,213,213,"4/36 THE GROVE, COBURG",-37.751916,144.969914,2.0,1.0,1,$385_per_week,Townhouse,October 2012,3058,2012,10,COBURG,385,House,206011497
214,214,214,214,"42 JAMIESON STREET, COBURG",-37.744647,144.951898,2.0,1.0,1,$370_pw,House,May 2012,3058,2012,5,COBURG,370,House,206011498
215,215,215,215,"69 CAMPBELL STREET, COBURG",-37.753608,144.969821,2.0,2.0,1,$470_pw,Rental_residential,December 2012,3058,2012,12,COBURG,470,Other,206011497
216,216,216,216,"31 RODDA STREET, COBURG",-37.743612,144.970075,2.0,1.0,1,$365_pw,none,May 2012,3058,2012,5,COBURG,365,Other,206011497
217,217,217,217,"5 / 197 THE AVENUE, COBURG",-37.753771,144.97906,4.0,2.0,1,$500_per_week,none,March 2012,3058,2012,3,COBURG,500,Other,206011497
218,218,218,218,"92A RENNIE STREET, COBURG",-37.751411,144.973948,3.0,1.0,1,$340_per_week,House,January 2012,3058,2012,1,COBURG,340,House,206011497
219,219,219,219,"20/5 INDUSTRY LANE, COBURG",-37.7370286,144.9695513,2.0,1.0,1,$370_per_week,Townhouse,May 2012,3058,2012,5,COBURG,370,House,206011497
220,220,220,220,"7/9 THE GROVE, COBURG",-37.751302,144.966562,2.0,1.0,1,$330_pw,none,February 2012,3058,2012,2,COBURG,330,Other,206011497
221,221,221,221,"246 REYNARD STREET, COBURG",-37.74662,144.949666,4.0,1.0,3,$460,House,February 2012,3058,2012,2,COBURG,460,House,206011498
222,222,222,222,"246 REYNARD STREET, COBURG",-37.74662,144.949666,4.0,1.0,3,$460,House,January 2012,3058,2012,1,COBURG,460,House,206011498
223,223,223,223,"35 BAKERS ROAD, COBURG",-37.7274333,144.9624865,3.0,1.0,1,$450_pw,Available Now,April 2012,3058,2012,4,COBURG,450,Other,210031236
224,224,224,224,"35 BAKERS ROAD, COBURG",-37.7274333,144.9624865,3.0,1.0,1,$330_pw,Available Now,February 2012,3058,2012,2,COBURG,330,Other,210031236
225,225,225,225,"35 BAKERS ROAD, COBURG",-37.7274333,144.9624865,3.0,1.0,1,$330_pw,Available Now,January 2012,3058,2012,1,COBURG,330,Other,210031236
226,226,226,226,"102A/1 MANNA GUM COURT, COBURG",-37.737353,144.976093,1.0,1.0,1,$335_per_week,Available Now,February 2012,3058,2012,2,COBURG,335,Other,206011497
227,227,227,227,"214/19 PENTRIDGE BOULEVARD, COBURG",-37.738903,144.970583,1.0,1.0,1,$290_pw,Unit,August 2012,3058,2012,8,COBURG,290,Apartment,206011497
228,228,228,228,"43 BELGRAVE STREET, COBURG",-37.745555,144.974835,3.0,1.0,2,$400_per_week,House,December 2012,3058,2012,12,COBURG,400,House,206011497
229,229,229,229,"508/14-20 NICHOLSON STREET, COBURG",-37.755441,144.975716,1.0,1.0,1,$310_per_week,Rental_residential,August 2012,3058,2012,8,COBURG,310,Other,206011497
230,230,230,230,"508/14-20 NICHOLSON STREET, COBURG",-37.755441,144.975716,1.0,1.0,1,$325,Rental_residential,June 2012,3058,2012,6,COBURG,325,Other,206011497
231,231,231,231,"5/144 NICHOLSON STREET, COBURG",-37.745681,144.977713,2.0,1.0,1,$280_pw,none,May 2012,3058,2012,5,COBURG,280,Other,206011497
232,232,232,232,"7 FISCHER STREET, COBURG",-37.735594,144.953568,3.0,1.0,1,$480_per_week,House,February 2012,3058,2012,2,COBURG,480,House,206011498
233,233,233,233,"5/17-18 CHAMP STREET, COBURG",-37.735876,144.967325,1.0,1.0,1,$310,Rental_residential,April 2012,3058,2012,4,COBURG,310,Other,206011497
234,234,234,234,"28 LINDA STREET, COBURG",-37.750645,144.960192,3.0,1.0,2,$520_per_week,Available Now,May 2012,3058,2012,5,COBURG,520,Other,206011498
235,235,235,235,"3/170 GORDON STREET, COBURG",-37.742134,144.94979,2.0,1.0,1,$350_pw,none,March 2012,3058,2012,3,COBURG,350,Other,206011498
236,236,236,236,"1/22 CHAMBERS STREET, COBURG",-37.748545,144.968059,2.0,1.0,1,$290_pw,Rental_residential,July 2012,3058,2012,7,COBURG,290,Other,206011497
237,237,237,237,"18/2 ALICE STREET, COBURG",-37.743803,144.957178,2.0,1.0,1,$290_Weekly,none,August 2012,3058,2012,8,COBURG,290,Other,206011498
238,238,238,238,"13 MAYFIELD STREET, COBURG",-37.743452,144.960753,3.0,1.0,2,$480_per_week,none,March 2012,3058,2012,3,COBURG,480,Other,206011498
239,239,239,239,"2 BELGRAVE AVENUE, COCKATOO",-37.92732,145.495818,4.0,2.0,6,$380_pw,Rental_residential,September 2012,3781,2012,9,COCKATOO,380,Other,212011289
240,240,240,240,"22 GLEN ROAD, COCKATOO",-37.937274,145.486381,2.0,1.0,0,$290_per_week,House,March 2012,3781,2012,3,COCKATOO,290,House,212011289
241,241,241,241,"18 DEVON AVENUE, COCKATOO",-37.933329,145.495013,3.0,1.0,2,$310_pw,House,November 2012,3781,2012,11,COCKATOO,310,House,212011289
242,242,242,242,"18 CARAWA STREET, COCKATOO",-37.926109,145.49772,3.0,2.0,1,$295_per_week,Rental_residential,September 2012,3781,2012,9,COCKATOO,295,Other,212011289
243,243,243,243,"290 PATERNOSTER ROAD, COCKATOO",-37.960651,145.495412,3.0,1.0,2,$600_pw,House,April 2012,3781,2012,4,COCKATOO,600,House,212011289
244,244,244,244,"80 RAINY HILL ROAD, COCKATOO",-37.91618,145.516997,3.0,1.0,0,$550_per_week,Rental_residential,May 2012,3781,2012,5,COCKATOO,550,Other,212011289
245,245,245,245,"111 CHANNEL STREET, COHUNA",-35.805715,144.215196,3.0,2.0,2,$200_pw,House,October 2012,3568,2012,10,COHUNA,200,House,215031401
246,246,246,246,"94 CHANNEL STREET, COHUNA",-35.804436,144.214723,2.0,1.0,1,$140_pw,House,June 2012,3568,2012,6,COHUNA,140,House,215031401
247,247,247,247,"94 CHANNEL STREET, COHUNA",-35.804436,144.214723,2.0,1.0,1,$140_pw,House,May 2012,3568,2012,5,COHUNA,140,House,215031401
248,248,248,248,"1949 GISBORNE ROAD, COIMADAI",-37.579675,144.460298,3.0,1.0,0,$200_Weekly,none,July 2012,3340,2012,7,COIMADAI,200,Other,213041353
249,249,249,249,"34 MURRAY STREET, COLAC EAST",-38.339894,143.590167,3.0,1.0,1,$195_pw,House,February 2012,3250,2012,2,EAST,195,House,217031472
250,250,250,250,"114 MARRINER STREET, COLAC EAST",-38.328298,143.62072,3.0,2.0,2,$360_pw,House,December 2012,3250,2012,12,EAST,360,House,217031472
251,251,251,251,"125 TRIGGS ROAD, COLAC EAST",-38.3289993,143.6301787,3.0,2.0,2,$270_pw,House,September 2012,3250,2012,9,EAST,270,House,217031473
252,252,252,252,"34 MURRAY EAST STREET, COLAC EAST",-38.338567,143.596163,3.0,1.0,1,$195_pw,House,April 2012,3250,2012,4,EAST,195,House,217031472
253,253,253,253,"1/27 DOWLING STREET, COLAC",-38.351997,143.582613,3.0,1.0,1,$270_pw,none,June 2012,3250,2012,6,COLAC,270,Other,217031472
254,254,254,254,"1/42A MANIFOLD STREET, COLAC",-38.33727,143.58236,2.0,1.0,1,$250_pw,none,December 2012,3250,2012,12,COLAC,250,Other,217031472
255,255,255,255,"5A MARKS STREET, COLAC",-38.338987,143.575414,1.0,1.0,1,$160_pw,none,November 2012,3250,2012,11,COLAC,160,Other,217031472
256,256,256,256,"78 MURRAY STREET, COLAC",-38.3396915,143.5883928,2.0,1.0,1,$270_per_week,House,September 2012,3250,2012,9,COLAC,270,House,217031472
257,257,257,257,"22 CHURCH STREET, COLAC",-38.335155,143.599279,3.0,1.0,1,$260_per_week,House,May 2012,3250,2012,5,COLAC,260,House,217031472
258,258,258,258,"15 QUAMBY AVENUE, COLAC",-38.333898,143.595916,3.0,2.0,1,$230_per_week,House,March 2012,3250,2012,3,COLAC,230,House,217031472
259,259,259,259,"1/7 CAMPBELL STREET, COLAC",-38.34482193,143.58259583,2.0,1.0,1,$210_pw,House,February 2012,3250,2012,2,COLAC,210,House,217031472
260,260,260,260,"22 GRAVESEND STREET, COLAC",-38.346357,143.5853,3.0,2.0,1,$195_per_week,none,October 2012,3250,2012,10,COLAC,195,Other,217031472
261,261,261,261,"10A WITHAM DRIVE, COLDSTREAM",-37.729977,145.382792,3.0,2.0,2,$380_per_week,House,October 2012,3770,2012,10,COLDSTREAM,380,House,211051278
262,262,262,262,"17 NORTH GATEWAY, COLDSTREAM",-37.727807,145.380801,3.0,2.0,1,$415_pw,House,September 2012,3770,2012,9,COLDSTREAM,415,House,211051278
263,263,263,263,"39B KILLARA ROAD, COLDSTREAM",-37.7234335,145.4013246,2.0,1.0,2,$350_per_week,House,April 2012,3770,2012,4,COLDSTREAM,350,House,211051278
264,264,264,264,"39B KILLARA ROAD, COLDSTREAM",-37.7234335,145.4013246,2.0,1.0,2,$350_pw,House,March 2012,3770,2012,3,COLDSTREAM,350,House,211051278
265,265,265,265,"37 INGRAM ROAD, COLDSTREAM",-37.7338,145.399124,4.0,2.0,2,$600_per_week,House,February 2012,3770,2012,2,COLDSTREAM,600,House,211051278
266,266,266,266,"37 INGRAM ROAD, COLDSTREAM",-37.7338,145.399124,4.0,2.0,2,$600_per_week,House,January 2012,3770,2012,1,COLDSTREAM,600,House,211051278
267,267,267,267,"60 KILLARA ROAD, COLDSTREAM",-37.724734,145.3852,4.0,2.0,1,$420_per_week,House,January 2012,3770,2012,1,COLDSTREAM,420,House,211051278
268,268,268,268,"8 JESSICA STREET, COLIGNAN",-34.52679543,142.36634023,3.0,1.0,2,$180_Weekly,none,February 2012,3494,2012,2,COLIGNAN,180,Other,215021398
269,269,269,269,"22/15-25 OXFORD STREET, COLLINGWOOD",-37.80752,144.983944,2.0,1.0,2,$460_pw,Rental_residential,October 2012,3066,2012,10,COLLINGWOOD,460,Other,206071141
270,270,270,270,"11/115 OXFORD STREET, COLLINGWOOD",-37.802615,144.984783,3.0,2.0,2,$1100_pw,none,October 2012,3066,2012,10,COLLINGWOOD,1100,Other,206071141
271,271,271,271,"11/115 OXFORD STREET, COLLINGWOOD",-37.802615,144.984783,3.0,2.0,2,$1000_pw,none,August 2012,3066,2012,8,COLLINGWOOD,1000,Other,206071141
272,272,272,272,"305/10 STANLEY STREET, COLLINGWOOD",-37.80182,144.984563,3.0,1.0,1,$620_pw,Rental_residential,January 2012,3066,2012,1,COLLINGWOOD,620,Other,206071141
273,273,273,273,"18/34 SMITH STREET, COLLINGWOOD",-37.807413,144.983606,1.0,1.0,1,$420_pw,Rental_residential,November 2012,3066,2012,11,COLLINGWOOD,420,Other,206071141
274,274,274,274,"5/15-17 BENDIGO STREET, COLLINGWOOD",-37.796087,144.992632,1.0,1.0,1,$270_pw,Rental_residential,November 2012,3066,2012,11,COLLINGWOOD,270,Other,206071141
275,275,275,275,"5/15-17 BENDIGO STREET, COLLINGWOOD",-37.796087,144.992632,1.0,1.0,1,$280_pw,Rental_residential,August 2012,3066,2012,8,COLLINGWOOD,280,Other,206071141
276,276,276,276,"14/34 SMITH STREET, COLLINGWOOD",-37.8072953,144.9828207,1.0,1.0,1,$375_pw,Rental_residential,February 2012,3066,2012,2,COLLINGWOOD,375,Other,206071142
277,277,277,277,"9/1 PEEL STREET, COLLINGWOOD",-37.805201,144.983757,1.0,1.0,1,$360_pw,Rental_residential,November 2012,3066,2012,11,COLLINGWOOD,360,Other,206071141
278,278,278,278,"321 WELLINGTON STREET, COLLINGWOOD",-37.795446,144.987781,2.0,1.0,0,$430_pw,none,September 2012,3066,2012,9,COLLINGWOOD,430,Other,206071141
279,279,279,279,"151 JOHNSTON STREET, COLLINGWOOD",-37.799711,144.990002,3.0,1.0,1,$650_pw,Townhouse,September 2012,3066,2012,9,COLLINGWOOD,650,House,206071141
280,280,280,280,"151 JOHNSTON STREET, COLLINGWOOD",-37.799711,144.990002,3.0,1.0,1,$650_pw,Townhouse,August 2012,3066,2012,8,COLLINGWOOD,650,House,206071141
281,281,281,281,"151 JOHNSTON STREET, COLLINGWOOD",-37.799711,144.990002,3.0,1.0,1,$650_pw,Townhouse,March 2012,3066,2012,3,COLLINGWOOD,650,House,206071141
282,282,282,282,"151 JOHNSTON STREET, COLLINGWOOD",-37.799711,144.990002,3.0,1.0,1,$695_pw,Townhouse,February 2012,3066,2012,2,COLLINGWOOD,695,House,206071141
283,283,283,283,"2/17 ALEXANDER STREET, COLLINGWOOD",-37.795758,144.991069,1.0,1.0,1,$250_per_week,none,December 2012,3066,2012,12,COLLINGWOOD,250,Other,206071141
284,284,284,284,"2/17 ALEXANDER STREET, COLLINGWOOD",-37.795758,144.991069,1.0,1.0,1,$260_per_week,none,December 2012,3066,2012,12,COLLINGWOOD,260,Other,206071141
285,285,285,285,"2/17 ALEXANDER STREET, COLLINGWOOD",-37.795758,144.991069,1.0,1.0,1,$260_per_week,none,November 2012,3066,2012,11,COLLINGWOOD,260,Other,206071141
286,286,286,286,"15/15-25 OXFORD STREET, COLLINGWOOD",-37.8076309,144.9840188,2.0,1.0,2,$470_pw,none,November 2012,3066,2012,11,COLLINGWOOD,470,Other,206071141
287,287,287,287,"108/10 STANLEY STREET, COLLINGWOOD",-37.80182,144.984563,2.0,2.0,1,$620_pw,none,February 2012,3066,2012,2,COLLINGWOOD,620,Other,206071141
288,288,288,288,"301/45 VICTORIA PARADE, COLLINGWOOD",-37.8087039,144.9841198,1.0,1.0,1,$375_pw,Rental_residential,May 2012,3066,2012,5,COLLINGWOOD,375,Other,206071141
289,289,289,289,"301/45 VICTORIA PARADE, COLLINGWOOD",-37.8087039,144.9841198,1.0,1.0,1,$399_pw,Rental_residential,February 2012,3066,2012,2,COLLINGWOOD,399,Other,206071141
290,290,290,290,"2 BUDD STREET, COLLINGWOOD",-37.798899,144.986824,3.0,1.0,1,$510_per_week,Unit,September 2012,3066,2012,9,COLLINGWOOD,510,Apartment,206071141
291,291,291,291,"2 BUDD STREET, COLLINGWOOD",-37.798899,144.986824,3.0,1.0,1,$510_per_week,Unit,August 2012,3066,2012,8,COLLINGWOOD,510,Apartment,206071141
292,292,292,292,"8/78 OXFORD STREET, COLLINGWOOD",-37.803368,144.985101,1.0,1.0,1,$390_per_week,Unit,September 2012,3066,2012,9,COLLINGWOOD,390,Apartment,206071141
293,293,293,293,"202/11 HODDLE STREET, COLLINGWOOD",-37.8088988,144.9906795,1.0,1.0,1,$360_pw,Rental_residential,January 2012,3066,2012,1,COLLINGWOOD,360,Other,206071141
294,294,294,294,"9/78 OXFORD STREET, COLLINGWOOD",-37.807815,144.983906,1.0,1.0,1,$420_per_week,Available Now,September 2012,3066,2012,9,COLLINGWOOD,420,Other,206071141
295,295,295,295,"182 EASEY STREET, COLLINGWOOD",-37.79824,144.992589,2.0,1.0,0,$430_per_week,none,July 2012,3066,2012,7,COLLINGWOOD,430,Other,206071141
296,296,296,296,"G01/40 STANLEY STREET, COLLINGWOOD",-37.8021816,144.9853665,1.0,1.0,1,$365,none,February 2012,3066,2012,2,COLLINGWOOD,365,Other,206071141
297,297,297,297,"6/15-25 OXFORD STREET, COLLINGWOOD",-37.807803,144.984175,2.0,1.0,1,$500_pw,none,September 2012,3066,2012,9,COLLINGWOOD,500,Other,206071141
298,299,299,299,"33 MCLEODS ROAD, CONDAH",-37.949464,141.754979,3.0,1.0,2,$170_per_week,none,October 2012,3303,2012,10,CONDAH,170,Other,217011420
299,300,300,300,"235 KNIGHTS ROAD, CONGUPNA",-36.323892,145.458638,3.0,1.0,1,$250_pw,none,September 2012,3633,2012,9,CONGUPNA,250,Other,216031418
300,301,301,301,"1115 GOULBURN VALLEY HIGHWAY, CONGUPNA",-36.288698,145.425108,4.0,2.0,1,$200_pw,none,October 2012,3633,2012,10,CONGUPNA,200,Other,216031418
301,302,302,302,"3490 SHEPPARTON - KATAMATITE ROAD, CONGUPNA",-36.292248,145.436731,4.0,2.0,2,$400_pw,House,October 2012,3633,2012,10,CONGUPNA,400,House,216031418
302,303,303,303,"112 LONGFORD CRESCENT, COOLAROO",-37.655438,144.929122,3.0,1.0,4,$310_per_week,Rental_residential,August 2012,3048,2012,8,COOLAROO,310,Other,210051243
303,304,304,304,"112 LONGFORD CRESCENT, COOLAROO",-37.655438,144.929122,3.0,1.0,4,$320,Rental_residential,July 2012,3048,2012,7,COOLAROO,320,Other,210051243
304,305,305,305,"7 ALMURTA AVENUE, COOLAROO",-37.659159,144.935219,3.0,1.0,1,$320_Weekly,Rental_residential,August 2012,3048,2012,8,COOLAROO,320,Other,210051243
306,307,307,307,"4 ALLENS ROAD, COOMOORA",-37.334815,144.185877,1.0,1.0,1,$250_per_week,House,October 2012,3461,2012,10,COOMOORA,250,House,201021011
307,308,308,308,"210 DAYLESFORD MALMSBURY ROAD, COOMOORA",-37.325691,144.185619,4.0,1.0,0,$350_per_week,House,November 2012,3461,2012,11,COOMOORA,350,House,201021011
308,309,309,309,"31 RYANS ROAD, COONGULLA",-37.892595,146.785392,3.0,1.0,2,$220_pw,House,March 2012,3860,2012,3,COONGULLA,220,House,205051101
309,310,310,310,"5930 GALLUM ROAD, COORIEMUNGLE",-38.556994,143.1541907,3.0,1.0,1,$195_p.w.,House,September 2012,3268,2012,9,COORIEMUNGLE,195,House,217031475
310,311,311,311,"635 BUNYIP RIVER ROAD, CORA LYNN",-38.138998,145.623274,3.0,1.0,2,$500_pw,none,August 2012,3814,2012,8,LYNN,500,Other,212011547
311,312,312,312,"6/178 MATTHEWS ROAD, CORIO",-38.065074,144.340953,2.0,1.0,2,$240_per_week,Rental_residential,July 2012,3214,2012,7,CORIO,240,Other,203021486
312,313,313,313,"6/178 MATTHEWS ROAD, CORIO",-38.065074,144.340953,2.0,1.0,2,$250_per_week,Rental_residential,June 2012,3214,2012,6,CORIO,250,Other,203021486
313,314,314,314,"59 CLOVERDALE DRIVE, CORIO",-38.067956,144.347957,4.0,2.0,2,$390_Weekly,House,February 2012,3214,2012,2,CORIO,390,House,203021486
314,315,315,315,"59 CLOVERDALE DRIVE, CORIO",-38.067956,144.347957,4.0,2.0,2,$390_Weekly,House,January 2012,3214,2012,1,CORIO,390,House,203021486
315,316,316,316,"16 LODDON STREET, CORIO",-38.073727,144.350715,3.0,1.0,1,$260_p.w.,none,August 2012,3214,2012,8,CORIO,260,Other,203021486
316,317,317,317,"16 LODDON STREET, CORIO",-38.073727,144.350715,3.0,1.0,1,$280_pw,none,May 2012,3214,2012,5,CORIO,280,Other,203021486
317,318,318,318,"7 MINEHAN COURT, CORIO",-38.077977,144.346519,3.0,1.0,1,$280_p.w.,House,December 2012,3214,2012,12,CORIO,280,House,203021486
318,319,319,319,"10 VICKERS COURT, CORIO",-38.067044,144.354752,3.0,1.0,1,$250_p.w.,House,July 2012,3214,2012,7,CORIO,250,House,203021486
319,320,320,320,"10 VICKERS COURT, CORIO",-38.067044,144.354752,3.0,1.0,1,$265_pw,House,July 2012,3214,2012,7,CORIO,265,House,203021486
320,321,321,321,"3 BUCHAN COURT, CORIO",-38.07746,144.355374,3.0,1.0,1,$230_pw,House,January 2012,3214,2012,1,CORIO,230,House,203021486
321,322,322,322,"11 CLUNIES COURT, CORIO",-38.067515,144.341556,3.0,1.0,1,$295_pw,none,February 2012,3214,2012,2,CORIO,295,Other,203021486
322,323,323,323,"12 CARAMUT COURT, CORIO",-38.066684,144.342205,3.0,2.0,2,$220_p.w.,House,April 2012,3214,2012,4,CORIO,220,House,203021486
323,324,324,324,"12 CARAMUT COURT, CORIO",-38.066684,144.342205,3.0,2.0,2,$220_Weekly,House,March 2012,3214,2012,3,CORIO,220,House,203021486
324,325,325,325,"37 CUTTY SARK ROAD, CORONET BAY",-38.438772,145.442029,3.0,1.0,2,$230_pw,House,May 2012,3984,2012,5,BAY,230,House,205031093
325,326,326,326,"37 CUTTY SARK ROAD, CORONET BAY",-38.438772,145.442029,3.0,1.0,2,$230_pw,House,March 2012,3984,2012,3,BAY,230,House,205031093
326,327,327,327,"25 GREENWICH GRANGE, CORONET BAY",-38.433751,145.443706,4.0,2.0,1,$330_pw,House,February 2012,3984,2012,2,BAY,330,House,205031093
327,328,328,328,"29 SEMAPHORE STREET, CORONET BAY",-38.435814,145.442975,2.0,2.0,2,$230_pw,House,January 2012,3984,2012,1,BAY,230,House,205031093
328,329,329,329,"1922 MIDLAND HIGHWAY, COROP",-36.458016,144.795608,2.0,1.0,2,$150_p.w.,House,August 2012,3559,2012,8,COROP,150,House,216011410
329,330,330,330,"1914 MIDLAND HIGHWAY, COROP",-36.4857376,144.7047842,2.0,1.0,0,$170_p.w.,House,June 2012,3559,2012,6,COROP,170,House,216011410
330,331,331,331,"521 CORANGAMITE LAKE ROAD, COROROOKE",-38.289201,143.522132,3.0,1.0,1,$170_pw,none,August 2012,3254,2012,8,COROROOKE,170,Other,217031473
331,332,332,332,"523 CORANGAMITE LAKE ROAD, COROROOKE",-38.2890562,143.5225133,3.0,1.0,2,$170_pw,none,July 2012,3254,2012,7,COROROOKE,170,Other,217031473
332,333,333,333,"124 CORANGAMITE LAKE ROAD, COROROOKE",-38.282141,143.511946,3.0,2.0,2,$235_pw,House,January 2012,3254,2012,1,COROROOKE,235,House,217031473
333,334,334,334,"4 MITCHELL COURT, CORRYONG",-36.194683,147.900324,2.0,1.0,2,$145_per_week,none,August 2012,3707,2012,8,CORRYONG,145,Other,204031072
334,335,335,335,"UNIT 4/154 HARRIS STREET, CORRYONG",-36.198582,147.89388,1.0,1.0,1,$105_per_week,none,October 2012,3707,2012,10,CORRYONG,105,Other,204031072
335,336,336,336,"24 JEPHCOTT AVENUE, CORRYONG",-36.20032,147.900704,4.0,3.0,6,$240_per_week,House,February 2012,3707,2012,2,CORRYONG,240,House,204031072
336,337,337,337,"24 JEPHCOTT AVENUE, CORRYONG",-36.20032,147.900704,4.0,3.0,6,$240_per_week,House,January 2012,3707,2012,1,CORRYONG,240,House,204031072
337,338,338,338,"28 HAMILTON CRESCENT, CORRYONG",-36.195183,147.90018,3.0,1.0,2,$135_per_week,House,September 2012,3707,2012,9,CORRYONG,135,House,204031072
338,339,339,339,"28 HAMILTON CRESCENT, CORRYONG",-36.195183,147.90018,3.0,1.0,2,$135_per_week,House,April 2012,3707,2012,4,CORRYONG,135,House,204031072
339,340,340,340,"64 HARRIS STREET, CORRYONG",-36.195021,147.902679,3.0,1.0,1,$170_p.w.,House,July 2012,3707,2012,7,CORRYONG,170,House,204031072
340,341,341,341,"64 HARRIS STREET, CORRYONG",-36.195021,147.902679,3.0,1.0,1,$170_per_week,House,March 2012,3707,2012,3,CORRYONG,170,House,204031072
341,342,342,342,"805 NALANGIL ROAD, CORUNNUN",-38.276093,143.481628,3.0,1.0,1,$210_per_week,none,January 2012,3249,2012,1,CORUNNUN,210,Other,217031473
342,343,343,343,"65 BARREENONG ROAD, COTTLES BRIDGE",-37.608175,145.212167,2.0,1.0,2,$380_p.w.,House,December 2012,3099,2012,12,BRIDGE,380,House,209031212
343,344,344,344,"10 HILDEBRAND ROAD, COTTLES BRIDGE",-37.602332,145.217868,2.0,1.0,0,$370_Weekly,none,June 2012,3099,2012,6,BRIDGE,370,Other,209031212
344,345,345,345,"10 HILDEBRAND ROAD, COTTLES BRIDGE",-37.602332,145.217868,2.0,1.0,0,$370_-_$400_per_week,none,May 2012,3099,2012,5,BRIDGE,400,Other,209031212
345,346,346,346,"10 HILDEBRAND ROAD, COTTLES BRIDGE",-37.602332,145.217868,2.0,1.0,0,$400_per_week,none,March 2012,3099,2012,3,BRIDGE,400,Other,209031212
346,347,347,347,"10 HILDEBRAND ROAD, COTTLES BRIDGE",-37.602332,145.217868,2.0,1.0,0,$400_-_$450_per_week,none,March 2012,3099,2012,3,BRIDGE,450,Other,209031212
347,348,348,348,"10 HILDEBRAND ROAD, COTTLES BRIDGE",-37.602332,145.217868,2.0,1.0,0,$400_-_$450_per_week,none,February 2012,3099,2012,2,BRIDGE,450,Other,209031212
348,349,349,349,"10 HILDEBRAND ROAD, COTTLES BRIDGE",-37.602332,145.217868,2.0,1.0,0,$400_per_week,none,January 2012,3099,2012,1,BRIDGE,400,Other,209031212
349,350,350,350,"10 HILDEBRAND ROAD, COTTLES BRIDGE",-37.602332,145.217868,2.0,1.0,0,$400_-_$450_per_week,none,January 2012,3099,2012,1,BRIDGE,450,Other,209031212
350,351,351,351,"10 HILDEBRAND RD, COTTLES BRIDGE",-37.602332,145.217868,2.0,1.0,0,$370_Weekly,none,June 2012,3099,2012,6,BRIDGE,370,Other,209031212
351,352,352,352,"10 OUTLOOK DRIVE, COWES",-38.456911,145.205001,4.0,1.0,2,$320_per_week,House,September 2012,3922,2012,9,COWES,320,House,205031091
352,353,353,353,"40 PLOVER STREET, COWES",-38.457503,145.212103,3.0,1.0,2,$240,House,May 2012,3922,2012,5,COWES,240,House,205031091
353,354,354,354,"11 POBBLEBONK PLACE, COWES",-38.4567102,145.2240183,3.0,2.0,2,$365_per_week,House,July 2012,3922,2012,7,COWES,365,House,205031091
354,355,355,355,"11 POBBLEBONK PLACE, COWES",-38.4567102,145.2240183,3.0,2.0,2,$385,House,July 2012,3922,2012,7,COWES,385,House,205031091
355,356,356,356,"5/34-36 JENNER AVENUE, COWES",-38.4551416,145.2467173,2.0,1.0,1,$250,Townhouse,May 2012,3922,2012,5,COWES,250,House,205031091
356,357,357,357,"7 PARKRIDGE CLOSE, COWES",-38.459731,145.256282,3.0,2.0,2,$310_per_week,House,July 2012,3922,2012,7,COWES,310,House,205031091
357,358,358,358,"2 GREVILIA CLOSE, COWES",-38.461625,145.241525,3.0,2.0,2,$280_per_week,House,August 2012,3922,2012,8,COWES,280,House,205031091
358,359,359,359,"2 GREVILIA CLOSE, COWES",-38.461625,145.241525,3.0,2.0,2,$340_per_week,House,May 2012,3922,2012,5,COWES,340,House,205031091
359,360,360,360,"12 KOALA STREET, COWES",-38.455075,145.228525,3.0,1.0,2,$270,House,June 2012,3922,2012,6,COWES,270,House,205031091
360,361,361,361,"71 CHURCH STREET, COWES",-38.452602,145.240046,3.0,1.0,2,$240_per_week,House,August 2012,3922,2012,8,COWES,240,House,205031091
361,362,362,362,"71 CHURCH STREET, COWES",-38.452602,145.240046,3.0,1.0,2,$245,House,July 2012,3922,2012,7,COWES,245,House,205031091
362,363,363,363,"7 POBBLEBONK PLACE, COWES",-38.4567102,145.2240183,3.0,2.0,2,$350_per_week,House,July 2012,3922,2012,7,COWES,350,House,205031091
363,364,364,364,"2/64 JUSTICE ROAD, COWES",-38.4557179,145.2106686,3.0,2.0,2,$270,Townhouse,July 2012,3922,2012,7,COWES,270,House,205031091
364,365,365,365,"54 SCENIC DRIVE, COWES",-38.460778,145.205415,3.0,1.0,2,$250_pw,House,January 2012,3922,2012,1,COWES,250,House,205031091
365,366,366,366,"79 CHAPEL STREET, COWES",-38.450631,145.237243,3.0,1.0,2,$230_per_week,House,October 2012,3922,2012,10,COWES,230,House,205031091
366,367,367,367,"79 CHAPEL STREET, COWES",-38.450631,145.237243,3.0,1.0,2,$265,House,July 2012,3922,2012,7,COWES,265,House,205031091
367,368,368,368,"485 SETTLEMENT ROAD, COWES",-38.456405,145.213572,3.0,1.0,4,$250,House,March 2012,3922,2012,3,COWES,250,House,205031091
368,369,369,369,"556 SETTLEMENT ROAD, COWES",-38.455855,145.206757,3.0,2.0,2,$240_per_week,House,November 2012,3922,2012,11,COWES,240,House,205031091
369,370,370,370,"556 SETTLEMENT ROAD, COWES",-38.455855,145.206757,3.0,2.0,2,$240_pw,House,October 2012,3922,2012,10,COWES,240,House,205031091
370,371,371,371,"556 SETTLEMENT ROAD, COWES",-38.455855,145.206757,3.0,2.0,2,$260,House,September 2012,3922,2012,9,COWES,260,House,205031091
371,372,372,372,"480 TOONGABBIE/COWWARR ROAD, COWWARR",-38.019748,146.653656,3.0,1.0,3,$260,House,April 2012,3857,2012,4,COWWARR,260,House,205051102
372,373,373,373,"5 CRICKET STREET, COWWARR",-38.013297,146.697389,5.0,2.0,0,$240_per_week,House,January 2012,3857,2012,1,COWWARR,240,House,205051102
373,374,374,374,"2 WOODLANDS COURT, CRAIGIEBURN",-37.592569,144.929748,3.0,1.0,2,$320,none,April 2012,3064,2012,4,CRAIGIEBURN,320,Other,210051441
374,375,375,375,"2 WOODLANDS COURT, CRAIGIEBURN",-37.592569,144.929748,3.0,1.0,2,$320_pw,none,March 2012,3064,2012,3,CRAIGIEBURN,320,Other,210051441
375,376,376,376,"20 BOTTLEBRUSH ROAD, CRAIGIEBURN",-37.5740962,144.9137881,4.0,2.0,1,$300_per_week,none,July 2012,3064,2012,7,CRAIGIEBURN,300,Other,210051442
376,377,377,377,"3 EGTON COURT, CRAIGIEBURN",-37.59984,144.932267,3.0,2.0,2,$300_per_week,Rental_residential,December 2012,3064,2012,12,CRAIGIEBURN,300,Other,210051443
377,378,378,378,"3 EGTON COURT, CRAIGIEBURN",-37.59984,144.932267,3.0,2.0,2,$300_per_week,Rental_residential,November 2012,3064,2012,11,CRAIGIEBURN,300,Other,210051443
378,379,379,379,"8 BRECON NOOK, CRAIGIEBURN",-37.608906,144.924308,3.0,1.0,0,$285_Weekly,House,June 2012,3064,2012,6,CRAIGIEBURN,285,House,210051443
379,380,380,380,"274 WATERVIEW BOULEVARD, CRAIGIEBURN",-37.582363,144.907861,4.0,2.0,2,$375_pw,House,December 2012,3064,2012,12,CRAIGIEBURN,375,House,210051543
380,381,381,381,"39 CARLISLE STREET, CRAIGIEBURN",-37.601518,144.937935,3.0,2.0,2,$315_p.w.,House,February 2012,3064,2012,2,CRAIGIEBURN,315,House,210051443
381,382,382,382,"6 LARKWOOD LANE, CRAIGIEBURN",-37.607651,144.919158,3.0,1.0,1,$300_pw,House,January 2012,3064,2012,1,CRAIGIEBURN,300,House,210051443
382,383,383,383,"24/60 CRADLE MOUNTAIN DRIVE, CRAIGIEBURN",-37.5739808,144.9235038,3.0,2.0,2,$320_per_week,Townhouse,December 2012,3064,2012,12,CRAIGIEBURN,320,House,210051442
383,384,384,384,"24/60 CRADLE MOUNTAIN DRIVE, CRAIGIEBURN",-37.5739808,144.9235038,3.0,2.0,2,$340_per_week,Townhouse,December 2012,3064,2012,12,CRAIGIEBURN,340,House,210051442
384,385,385,385,"54 GILLINGHAM CRESCENT, CRAIGIEBURN",-37.604385,144.931673,3.0,1.0,1,$285,House,July 2012,3064,2012,7,CRAIGIEBURN,285,House,210051443
385,386,386,386,"54 GILLINGHAM CRESCENT, CRAIGIEBURN",-37.604385,144.931673,3.0,1.0,1,$295_pw,House,July 2012,3064,2012,7,CRAIGIEBURN,295,House,210051443
386,387,387,387,"26 MOOR PARK DRIVE, CRAIGIEBURN",-37.6083268,144.922029,4.0,2.0,1,$320_per_week,House,July 2012,3064,2012,7,CRAIGIEBURN,320,House,210051443
387,388,388,388,"26 MOOR PARK DRIVE, CRAIGIEBURN",-37.6083268,144.922029,4.0,2.0,1,$350_pw,House,June 2012,3064,2012,6,CRAIGIEBURN,350,House,210051443
388,389,389,389,"33 PRINCES CIRCUIT, CRAIGIEBURN",-37.584038,144.936392,3.0,2.0,2,$365_per_week,House,September 2012,3064,2012,9,CRAIGIEBURN,365,House,210051442
389,390,390,390,"33 PRINCES CIRCUIT, CRAIGIEBURN",-37.584038,144.936392,3.0,2.0,2,$365_Weekly,House,August 2012,3064,2012,8,CRAIGIEBURN,365,House,210051442
390,391,391,391,"28 TRAFALGAR WAY, CRANBOURNE EAST",-38.098296,145.297601,4.0,2.0,2,$310_per_week,House,February 2012,3977,2012,2,EAST,310,House,212031557
391,392,392,392,"22 DAN MORGAN DRIVE, CRANBOURNE EAST",-38.099713,145.318784,4.0,2.0,2,$390_per_week,House,March 2012,3977,2012,3,EAST,390,House,212031557
392,393,393,393,"22 DAN MORGAN DRIVE, CRANBOURNE EAST",-38.099713,145.318784,4.0,2.0,2,$390_p.w.,House,January 2012,3977,2012,1,EAST,390,House,212031557
393,394,394,394,"86 MOUNTAINVIEW BOULEVARD, CRANBOURNE NORTH",-38.081956,145.322394,4.0,2.0,2,$390_pw,House,May 2012,3977,2012,5,NORTH,390,House,212031559
394,395,395,395,"86 MOUNTAINVIEW BOULEVARD, CRANBOURNE NORTH",-38.081956,145.322394,4.0,2.0,2,$400_pw,House,April 2012,3977,2012,4,NORTH,400,House,212031559
395,396,396,396,"86 MOUNTAINVIEW BOULEVARD, CRANBOURNE NORTH",-38.081956,145.322394,4.0,2.0,2,$390_pw,House,April 2012,3977,2012,4,NORTH,390,House,212031559
396,397,397,397,"14 ASPERA PLACE, CRANBOURNE NORTH",-38.0822575,145.2790713,4.0,2.0,2,$375_Weekly,House,March 2012,3977,2012,3,NORTH,375,House,212031560
397,398,398,398,"138 ENDEAVOUR DRIVE, CRANBOURNE NORTH",-38.076849,145.270127,3.0,1.0,2,$270,House,February 2012,3977,2012,2,NORTH,270,House,212031560
398,399,399,399,"14 ASPERA PL, CRANBOURNE NORTH",-38.0822575,145.2790713,4.0,2.0,2,$375_Weekly,House,March 2012,3977,2012,3,NORTH,375,House,212031560
399,400,400,400,"4/20 HUON PARK ROAD, CRANBOURNE NORTH",-38.074527,145.27318,3.0,2.0,2,$315,none,February 2012,3977,2012,2,NORTH,315,Other,212031560
400,401,401,401,"9 LUMINA AVENUE, CRANBOURNE NORTH",-38.073867,145.311814,4.0,2.0,2,$380_per_week,House,January 2012,3977,2012,1,NORTH,380,House,212031559
401,402,402,402,"33 JOSEPHINE AVENUE, CRANBOURNE NORTH",-38.08147,145.2907,3.0,1.0,2,$285,House,February 2012,3977,2012,2,NORTH,285,House,212031560
402,403,403,403,"33 JOSEPHINE AVENUE, CRANBOURNE NORTH",-38.08147,145.2907,3.0,1.0,2,$285,House,January 2012,3977,2012,1,NORTH,285,House,212031560
403,404,404,404,"134 BROWNS ROAD, CRANBOURNE SOUTH",-38.151027,145.251109,5.0,2.0,1,$470_per_week,House,November 2012,3977,2012,11,SOUTH,470,House,212031303
404,405,405,405,"134 BROWNS ROAD, CRANBOURNE SOUTH",-38.151027,145.251109,5.0,2.0,1,$500,House,September 2012,3977,2012,9,SOUTH,500,House,212031303
405,406,406,406,"61 WILLORA CRESCENT, CRANBOURNE WEST",-38.104335,145.25968,3.0,1.0,2,$280_per_week,House,August 2012,3977,2012,8,WEST,280,House,212031304
406,407,407,407,"10 NERRENA RISE, CRANBOURNE WEST",-38.096508,145.259518,3.0,2.0,2,$350_per_week,House,August 2012,3977,2012,8,WEST,350,House,212031304
407,408,408,408,"19 MARNIE DRIVE, CRANBOURNE WEST",-38.102863,145.25812,3.0,1.0,0,$295,Rental_residential,March 2012,3977,2012,3,WEST,295,Other,212031304
408,409,409,409,"28 SCOTT STREET, CRANBOURNE",-38.109806,145.280379,3.0,1.0,2,$240_Weekly,none,November 2012,3977,2012,11,CRANBOURNE,240,Other,212031300
409,410,410,410,"28 SCOTT STREET, CRANBOURNE",-38.109806,145.280379,3.0,1.0,2,$250_Weekly,none,October 2012,3977,2012,10,CRANBOURNE,250,Other,212031300
410,411,411,411,"5 BLAINROE CRESCENT, CRANBOURNE",-38.121289,145.252817,4.0,2.0,2,$380_pw,House,October 2012,3977,2012,10,CRANBOURNE,380,House,212031300
411,412,412,412,"3 HARRY STREET, CRANBOURNE",-38.10985,145.276055,3.0,1.0,1,$300_pw,Rental_residential,June 2012,3977,2012,6,CRANBOURNE,300,Other,212031300
412,413,413,413,"1/311 SOUTH GIPPSLAND HIGHWAY, CRANBOURNE",-38.09213,145.28015,2.0,1.0,1,$230,none,June 2012,3977,2012,6,CRANBOURNE,230,Other,212031300
413,414,414,414,"1/311 SOUTH GIPPSLAND HIGHWAY, CRANBOURNE",-38.09213,145.28015,2.0,1.0,1,$230_pw,none,February 2012,3977,2012,2,CRANBOURNE,230,Other,212031300
414,415,415,415,"27 PEPPERBUSH CIRCUIT, CRANBOURNE",-38.086679,145.281677,4.0,2.0,2,$320,House,March 2012,3977,2012,3,CRANBOURNE,320,House,212031300
415,416,416,416,"39 BELLBRAE CRESCENT, CRANBOURNE",-38.092001,145.260427,3.0,2.0,2,$310_per_week,House,February 2012,3977,2012,2,CRANBOURNE,310,House,212031304
416,417,417,417,"39 BELLBRAE CRESCENT, CRANBOURNE",-38.092001,145.260427,3.0,2.0,2,$310_pw,House,January 2012,3977,2012,1,CRANBOURNE,310,House,212031304
417,418,418,418,"4/205 SLADEN STREET, CRANBOURNE",-38.113304,145.288071,2.0,1.0,1,$210_per_week,none,February 2012,3977,2012,2,CRANBOURNE,210,Other,212031300
418,419,419,419,"4/205 SLADEN STREET, CRANBOURNE",-38.113304,145.288071,2.0,1.0,1,$210_pw,none,January 2012,3977,2012,1,CRANBOURNE,210,Other,212031300
419,420,420,420,"23 LAMONT CRESCENT, CRANBOURNE",-38.099023,145.270836,3.0,1.0,1,$270_per_week,House,July 2012,3977,2012,7,CRANBOURNE,270,House,212031300
420,421,421,421,"23 LAMONT CRESCENT, CRANBOURNE",-38.099023,145.270836,3.0,1.0,1,$270_per_week,House,June 2012,3977,2012,6,CRANBOURNE,270,House,212031300
421,422,422,422,"14 ROBUSTA AVENUE, CRANBOURNE",-38.088643,145.287868,4.0,2.0,2,$345,House,April 2012,3977,2012,4,CRANBOURNE,345,House,212031300
422,423,423,423,"11 GLENBOURNE ROAD, CRANBOURNE",-38.093097,145.271354,3.0,1.0,1,$350_per_week,House,June 2012,3977,2012,6,CRANBOURNE,350,House,212031300
423,424,424,424,"53 HOTHAM STREET, CRANBOURNE",-38.099366,145.290009,3.0,1.0,2,$285_per_week,none,October 2012,3977,2012,10,CRANBOURNE,285,Other,212031300
424,425,425,425,"53 HOTHAM STREET, CRANBOURNE",-38.099366,145.290009,3.0,1.0,2,$285_pw,none,September 2012,3977,2012,9,CRANBOURNE,285,Other,212031300
425,426,426,426,"2/2 LAWSON CLOSE, CRANBOURNE",-38.106181,145.2679944,2.0,1.0,1,$280,Unit,September 2012,3977,2012,9,CRANBOURNE,280,Apartment,212031300
426,427,427,427,"2/2 LAWSON CLOSE, CRANBOURNE",-38.106181,145.2679944,2.0,1.0,1,$290_per_week,Unit,August 2012,3977,2012,8,CRANBOURNE,290,Apartment,212031300
427,428,428,428,"2/2 LAWSON CLOSE, CRANBOURNE",-38.106181,145.2679944,2.0,1.0,1,$240_per_week,Unit,July 2012,3977,2012,7,CRANBOURNE,240,Apartment,212031300
428,429,429,429,"2/2 LAWSON CLOSE, CRANBOURNE",-38.106181,145.2679944,2.0,1.0,1,$240_per_week,Unit,June 2012,3977,2012,6,CRANBOURNE,240,Apartment,212031300
429,430,430,430,"19 JILLIAN STREET, CRANBOURNE",-38.107651,145.274156,3.0,1.0,1,$300_per_week,Rental_residential,September 2012,3977,2012,9,CRANBOURNE,300,Other,212031300
430,431,431,431,"19 JILLIAN STREET, CRANBOURNE",-38.107651,145.274156,3.0,1.0,1,$300_per_week,Rental_residential,August 2012,3977,2012,8,CRANBOURNE,300,Other,212031300
431,432,432,432,"31 ELCAN AVENUE, CRANBOURNE",-38.105439,145.264786,3.0,2.0,2,$340_Weekly,House,March 2012,3977,2012,3,CRANBOURNE,340,House,212031304
432,433,433,433,"31 ELCAN AVENUE, CRANBOURNE",-38.105439,145.264786,3.0,2.0,2,$340_pw,House,February 2012,3977,2012,2,CRANBOURNE,340,House,212031304
433,434,434,434,"36 CHOMLEY STREET, CRANBOURNE",-38.10019,145.270557,3.0,1.0,1,$290_per_week,House,October 2012,3977,2012,10,CRANBOURNE,290,House,212031300
434,435,435,435,"36 CHOMLEY STREET, CRANBOURNE",-38.10019,145.270557,3.0,1.0,1,$290_per_week,House,February 2012,3977,2012,2,CRANBOURNE,290,House,212031300
435,436,436,436,"83 DUFF STREET, CRANBOURNE",-38.101006,145.271437,3.0,1.0,2,$275_per_week,House,November 2012,3977,2012,11,CRANBOURNE,275,House,212031300
436,437,437,437,"4 MCLAREN AVENUE, CRANBOURNE",-38.108197,145.279884,3.0,1.0,4,$290_Weekly,House,December 2012,3977,2012,12,CRANBOURNE,290,House,212031300
437,438,438,438,"4 MCLAREN AVENUE, CRANBOURNE",-38.108197,145.279884,3.0,1.0,4,$300_Weekly,House,December 2012,3977,2012,12,CRANBOURNE,300,House,212031300
438,439,439,439,"4 MCLAREN AVENUE, CRANBOURNE",-38.108197,145.279884,3.0,1.0,4,$290_Weekly,House,November 2012,3977,2012,11,CRANBOURNE,290,House,212031300
439,440,440,440,"4 MCLAREN AVENUE, CRANBOURNE",-38.108197,145.279884,3.0,1.0,4,$300_Weekly,House,November 2012,3977,2012,11,CRANBOURNE,300,House,212031300
440,441,441,441,"18 HARWOOD COURT, BURNSIDE HEIGHTS",-37.73689281,144.7488262,3.0,2.0,2,$350,House,October 2012,3023,2012,10,HEIGHTS,350,House,213041462
441,442,442,442,"46 MIMOSA WAY, BURNSIDE HEIGHTS",-37.73678504,144.75042793,4.0,2.0,2,$340_per_week,House,January 2012,3023,2012,1,HEIGHTS,340,House,213041462
442,443,443,443,"39 GIVERNY CL, BURNSIDE HEIGHTS",-37.725305,144.751652,4.0,2.0,2,$375_Weekly,House,December 2012,3023,2012,12,HEIGHTS,375,House,213041462
443,444,444,444,"39 GIVERNY CLOSE, BURNSIDE HEIGHTS",-37.725305,144.751652,4.0,2.0,2,$375_pw,House,December 2012,3023,2012,12,HEIGHTS,375,House,213041462
444,445,445,445,"39 GIVERNY CLOSE, BURNSIDE HEIGHTS",-37.725305,144.751652,4.0,2.0,2,$385_pw,House,November 2012,3023,2012,11,HEIGHTS,385,House,213041462
445,446,446,446,"39 GIVERNY CLOSE, BURNSIDE HEIGHTS",-37.725305,144.751652,4.0,2.0,2,$390_per_week,House,October 2012,3023,2012,10,HEIGHTS,390,House,213041462
446,447,447,447,"1 FLORIDA COURT, BURNSIDE HEIGHTS",-37.735711,144.750294,3.0,2.0,3,$360_pw,House,March 2012,3023,2012,3,HEIGHTS,360,House,213041462
447,448,448,448,"1 FLORIDA COURT, BURNSIDE HEIGHTS",-37.735711,144.750294,3.0,2.0,3,$370_per_week,House,February 2012,3023,2012,2,HEIGHTS,370,House,213041462
448,449,449,449,"16 HARWOOD COURT, BURNSIDE HEIGHTS",-37.73690666,144.7489709,3.0,2.0,2,$350_per_week,House,February 2012,3023,2012,2,HEIGHTS,350,House,213041462
449,450,450,450,"44 WILKINS CRESCENT, BURNSIDE HEIGHTS",-37.73136905,144.75632225,4.0,2.0,2,$350_per_week,House,June 2012,3023,2012,6,HEIGHTS,350,House,213041462
450,451,451,451,"34 GIVERNY CLOSE, BURNSIDE HEIGHTS",-37.72495081,144.75187835,4.0,2.0,2,$355_pw,House,September 2012,3023,2012,9,HEIGHTS,355,House,213041462
451,452,452,452,"26 MANNY PAUL CIRCUIT, BURNSIDE HEIGHTS",-37.7280734,144.75766204,4.0,2.0,2,$490_per_week,House,April 2012,3023,2012,4,HEIGHTS,490,House,213041462
452,453,453,453,"2 MIKAYLA COURT, BURNSIDE HEIGHTS",-37.73296236,144.75608631,3.0,2.0,1,$340_per_week,House,February 2012,3023,2012,2,HEIGHTS,340,House,213041462
453,454,454,454,"179 ARBOUR BOULEVARD, BURNSIDE HEIGHTS",-37.74017139,144.75188095,4.0,2.0,2,$380_per_week,House,September 2012,3023,2012,9,HEIGHTS,380,House,213041462
454,455,455,455,"48 CUNNINGHAM CHASE, BURNSIDE HEIGHTS",-37.73551891,144.76110285,3.0,2.0,2,$350_per_week,Townhouse,October 2012,3023,2012,10,HEIGHTS,350,House,213041462
455,456,456,456,"48 CUNNINGHAM CHASE, BURNSIDE HEIGHTS",-37.73551891,144.76110285,3.0,2.0,2,$380_pw,Townhouse,September 2012,3023,2012,9,HEIGHTS,380,House,213041462
456,457,457,457,"14 BARTON ROAD, BURNSIDE HEIGHTS",-37.7262084,144.7576957,4.0,2.0,2,$400_per_week,none,September 2012,3023,2012,9,HEIGHTS,400,Other,213041462
457,458,458,458,"5 COOMA PLACE, BURNSIDE HEIGHTS",-37.73630946,144.74950885,4.0,2.0,2,$380_per_week,House,April 2012,3023,2012,4,HEIGHTS,380,House,213041462
458,459,459,459,"29 MENZIES DRIVE, BURNSIDE HEIGHTS",-37.728059,144.763555,3.0,2.0,2,$340_pw,none,November 2012,3023,2012,11,HEIGHTS,340,Other,213041462
459,460,460,460,"29 MENZIES DRIVE, BURNSIDE HEIGHTS",-37.728059,144.763555,3.0,2.0,2,$350_p.w.,none,November 2012,3023,2012,11,HEIGHTS,350,Other,213041462
460,461,461,461,"5 BLAXLAND STREET, BURNSIDE HEIGHTS",-37.732565,144.75958,3.0,2.0,2,$370_per_week,House,November 2012,3023,2012,11,HEIGHTS,370,House,213041462
461,462,462,462,"38 BELLEVILLE CLOSE, BURNSIDE HEIGHTS",-37.7254185,144.7535818,3.0,2.0,1,$350,none,August 2012,3023,2012,8,HEIGHTS,350,Other,213041462
462,463,463,463,"3 LEE PLACE, BURNSIDE HEIGHTS",-37.727432,144.75635,4.0,2.0,2,$350_Weekly,House,December 2012,3023,2012,12,HEIGHTS,350,House,213041462
463,464,464,464,"86 TENTERFIELD DRIVE, BURNSIDE HEIGHTS",-37.73387776,144.75896123,4.0,2.0,2,$440_pw,House,October 2012,3023,2012,10,HEIGHTS,440,House,213041462
464,465,465,465,"3 RYANS COURT, BURNSIDE HEIGHTS",-37.73216,144.757394,4.0,2.0,2,$330,none,November 2012,3023,2012,11,HEIGHTS,330,Other,213041462
465,466,466,466,"39 BELLEVILLE CLOSE, BURNSIDE HEIGHTS",-37.72506,144.753699,4.0,2.0,2,$340_per_week,none,December 2012,3023,2012,12,HEIGHTS,340,Other,213041462
466,467,467,467,"2 TENTERFIELD DRIVE, BURNSIDE HEIGHTS",-37.726737,144.759664,4.0,3.0,0,$520_per_week,House,November 2012,3023,2012,11,HEIGHTS,520,House,213041462
467,468,468,468,"7 LAWSON PLACE, BURNSIDE HEIGHTS",-37.73191435,144.76067959,3.0,2.0,2,$350_per_week,House,May 2012,3023,2012,5,HEIGHTS,350,House,213041462
468,469,469,469,"7 LAWSON PLACE, BURNSIDE HEIGHTS",-37.73191435,144.76067959,3.0,2.0,2,$350_per_week,House,March 2012,3023,2012,3,HEIGHTS,350,House,213041462
469,470,470,470,"14 INVERELL STREET, BURNSIDE HEIGHTS",-37.73392925,144.75780529,3.0,2.0,2,$370_per_week,none,April 2012,3023,2012,4,HEIGHTS,370,Other,213041462
470,471,471,471,"14 WILKINS COURT, BURNSIDE HEIGHTS",-37.730888,144.754206,4.0,2.0,2,$380_per_week,House,October 2012,3023,2012,10,HEIGHTS,380,House,213041462
471,472,472,472,"12 HARWOOD COURT, BURNSIDE HEIGHTS",-37.736934,144.749293,3.0,2.0,2,$330_p.w.,House,December 2012,3023,2012,12,HEIGHTS,330,House,213041462
472,473,473,473,"8 REGENT COURT, BURNSIDE HEIGHTS",-37.72553574,144.7505617,4.0,2.0,2,$370_per_week,House,October 2012,3023,2012,10,HEIGHTS,370,House,213041462
473,474,474,474,"17 SYON COURT, BURNSIDE HEIGHTS",-37.73126016,144.75158056,4.0,2.0,2,$480,House,October 2012,3023,2012,10,HEIGHTS,480,House,213041462
474,475,475,475,"16 PERKINS GROVE, BURNSIDE",-37.754606,144.751083,3.0,2.0,2,$370_per_week,House,June 2012,3023,2012,6,BURNSIDE,370,House,213041461
475,476,476,476,"16 PERKINS GROVE, BURNSIDE",-37.754606,144.751083,3.0,2.0,2,$400_per_week,House,May 2012,3023,2012,5,BURNSIDE,400,House,213041461
476,477,477,477,"16 PERKINS GROVE, BURNSIDE",-37.754606,144.751083,3.0,2.0,2,$320,House,March 2012,3023,2012,3,BURNSIDE,320,House,213041461
477,478,478,478,"19 PILBARA AVENUE, BURNSIDE",-37.748601,144.751932,4.0,2.0,2,$365_pw,House,December 2012,3023,2012,12,BURNSIDE,365,House,213041461
478,479,479,479,"158 WESTWOOD DRIVE, BURNSIDE",-37.757999,144.755823,3.0,1.0,2,$250_per_week,Rental_residential,June 2012,3023,2012,6,BURNSIDE,250,Other,213041461
479,480,480,480,"20 JONATHAN AVENUE, BURWOOD EAST",-37.850043,145.150946,3.0,1.0,1,$395_pw,Rental_residential,August 2012,3151,2012,8,EAST,395,Other,207031166
480,481,481,481,"20 JONATHAN AVENUE, BURWOOD EAST",-37.850043,145.150946,3.0,1.0,1,$430_pw,Rental_residential,March 2012,3151,2012,3,EAST,430,Other,207031166
481,482,482,482,"20 JONATHAN AVENUE, BURWOOD EAST",-37.850043,145.150946,3.0,1.0,1,$430_pw,Rental_residential,February 2012,3151,2012,2,EAST,430,Other,207031166
482,483,483,483,"36 WITCHWOOD CRESCENT, BURWOOD EAST",-37.853952,145.147274,3.0,1.0,1,$390_per_week,House,October 2012,3151,2012,10,EAST,390,House,207031166
483,484,484,484,"36 WITCHWOOD CRESCENT, BURWOOD EAST",-37.853952,145.147274,3.0,1.0,1,$390_per_week,House,September 2012,3151,2012,9,EAST,390,House,207031166
484,485,485,485,"36 WITCHWOOD CRESCENT, BURWOOD EAST",-37.853952,145.147274,3.0,1.0,1,$390_per_week,House,July 2012,3151,2012,7,EAST,390,House,207031166
485,486,486,486,"5 HIGHVIEW GROVE, BURWOOD EAST",-37.852819,145.146102,3.0,1.0,1,$430_pw,House,March 2012,3151,2012,3,EAST,430,House,207031166
486,487,487,487,"5 HIGHVIEW GROVE, BURWOOD EAST",-37.852819,145.146102,3.0,1.0,1,$450_pw,House,February 2012,3151,2012,2,EAST,450,House,207031166
487,488,488,488,"97 BURWOOD HIGHWAY, BURWOOD EAST",-37.850939,145.140001,3.0,1.0,2,$385_pw,House,February 2012,3151,2012,2,EAST,385,House,207031166
488,489,489,489,"6 DOROTHY STREET, BURWOOD EAST",-37.854797,145.143176,3.0,1.0,1,$420_per_week,House,February 2012,3151,2012,2,EAST,420,House,207031166
489,490,490,490,"6 DOROTHY STREET, BURWOOD EAST",-37.854797,145.143176,3.0,1.0,1,$450_per_week,House,January 2012,3151,2012,1,EAST,450,House,207031166
490,491,491,491,"25 DOROTHY STREET, BURWOOD EAST",-37.854663,145.145829,3.0,1.0,1,$430_pw,House,March 2012,3151,2012,3,EAST,430,House,207031166
491,492,492,492,"295 BLACKBURN ROAD, BURWOOD EAST",-37.846728,145.153585,4.0,2.0,2,$470_per_week,House,April 2012,3151,2012,4,EAST,470,House,207031166
492,493,493,493,"295 BLACKBURN ROAD, BURWOOD EAST",-37.846728,145.153585,4.0,2.0,2,$470,House,March 2012,3151,2012,3,EAST,470,House,207031166
493,494,494,494,"15 MOONA STREET, BURWOOD EAST",-37.852733,145.138887,3.0,1.0,2,$380_pw,House,September 2012,3151,2012,9,EAST,380,House,207031166
494,495,495,495,"15 MOONA STREET, BURWOOD EAST",-37.852733,145.138887,3.0,1.0,2,$500_pw,House,January 2012,3151,2012,1,EAST,500,House,207031166
495,496,496,496,"16 HIGHVIEW GROVE, BURWOOD EAST",-37.853441,145.145522,3.0,1.0,2,$430_per_week,none,March 2012,3151,2012,3,EAST,430,Other,207031166
496,497,497,497,"295 BLACKBURN RD, BURWOOD EAST",-37.846768,145.153686,4.0,2.0,2,$470_Weekly,House,April 2012,3151,2012,4,EAST,470,House,207031166
497,498,498,498,"295 BLACKBURN RD, BURWOOD EAST",-37.846768,145.153686,4.0,2.0,2,$470_Weekly,House,March 2012,3151,2012,3,EAST,470,House,207031166
498,499,499,499,"14 PIPPIN AVENUE, BURWOOD EAST",-37.851441,145.150126,4.0,2.0,2,$450_pw,House,June 2012,3151,2012,6,EAST,450,House,207031166
499,500,500,500,"14 PIPPIN AVENUE, BURWOOD EAST",-37.851441,145.150126,4.0,2.0,2,$470_Week,House,May 2012,3151,2012,5,EAST,470,House,207031166
500,501,501,501,"48 ROBINLEE AVENUE, BURWOOD EAST",-37.849451,145.158313,3.0,1.0,2,$410,House,September 2012,3151,2012,9,EAST,410,House,207031166
501,502,502,502,"68A ROSLYN STREET, BURWOOD",-37.845154,145.103348,1.0,1.0,1,$240_per_week,none,May 2012,3125,2012,5,BURWOOD,240,Other,207031165
502,503,503,503,"7 UGANDA STREET, BURWOOD",-37.84442,145.109282,4.0,2.0,1,$390_pw,none,July 2012,3125,2012,7,BURWOOD,390,Other,207031165
503,504,504,504,"2/13 CROMWELL STREET, BURWOOD",-37.851928,145.105213,2.0,1.0,2,$410_pw,none,October 2012,3125,2012,10,BURWOOD,410,Other,207031165
504,505,505,505,"80 PARER STREET, BURWOOD",-37.844473,145.104706,3.0,2.0,2,$425_p.w.,none,December 2012,3125,2012,12,BURWOOD,425,Other,207031165
505,506,506,506,"2A RENOWN STREET, BURWOOD",-37.851639,145.122251,3.0,2.0,1,$410_per_week,House,June 2012,3125,2012,6,BURWOOD,410,House,207031165
506,507,507,507,"2A RENOWN STREET, BURWOOD",-37.851639,145.122251,3.0,2.0,1,$410_per_week,House,May 2012,3125,2012,5,BURWOOD,410,House,207031165
507,508,508,508,"17 STEPHENS STREET, BURWOOD",-37.856717,145.108984,2.0,1.0,2,$335_per_week,House,January 2012,3125,2012,1,BURWOOD,335,House,212051319
508,509,509,509,"11 TIMOR CLOSE, BURWOOD",-37.842939,145.106646,3.0,1.0,1,$450_p.w.,House,May 2012,3125,2012,5,BURWOOD,450,House,207031165
509,510,510,510,"68 ROSLYN STREET, BURWOOD",-37.845165,145.103517,3.0,1.0,1,$400_per_week,Available Now,September 2012,3125,2012,9,BURWOOD,400,Other,207031165
510,511,511,511,"19 KILDARE STREET, BURWOOD",-37.844842,145.108572,3.0,2.0,2,$470,House,April 2012,3125,2012,4,BURWOOD,470,House,207031165
511,512,512,512,"10 HUGHES STREET, BURWOOD",-37.852338,145.107937,5.0,1.0,1,$400_pw,House,July 2012,3125,2012,7,BURWOOD,400,House,207031165
512,513,513,513,"10 HUGHES STREET, BURWOOD",-37.852338,145.107937,5.0,1.0,1,$360_pw,House,July 2012,3125,2012,7,BURWOOD,360,House,207031165
513,514,514,514,"17 LEOPOLD STREET, BURWOOD",-37.859097,145.096193,4.0,2.0,2,$380_pw,House,February 2012,3125,2012,2,BURWOOD,380,House,212051319
514,515,515,515,"94 BRIDGE ROAD, BUSHFIELD, BUSHFIELD",-38.322386,142.495382,3.0,1.0,1,$360_Weekly,Rental,June 2012,3281,2012,6,BUSHFIELD,360,Other,217041479
515,516,516,516,"1/94 BRIDGE ROAD, BUSHFIELD, BUSHFIELD",-38.322386,142.495382,1.0,1.0,0,$250_Weekly,Rental,June 2012,3281,2012,6,BUSHFIELD,250,Other,217041479
516,517,517,517,"12 MCKENZIES ROAD, BUSHFIELD",-38.3235191,142.5072509,2.0,1.0,2,$220_Weekly,none,March 2012,3281,2012,3,BUSHFIELD,220,Other,217041479
517,518,518,518,"12 GWINGANNA PLACE, BUXTON",-37.424625,145.713606,2.0,1.0,3,$270_pw,House,February 2012,3711,2012,2,BUXTON,270,House,204011054
518,519,519,519,"21 GWINGANNA PLACE, BUXTON",-37.424309,145.711813,1.0,1.0,0,$210_p.w.,House,November 2012,3711,2012,11,BUXTON,210,House,204011054
519,520,520,520,"91 SEVENTEENTH STREET, CABARITA",-34.199575,142.085294,3.0,2.0,2,$290_pw,House,July 2012,3505,2012,7,CABARITA,290,House,215021396
520,521,521,521,"72 DYAR AVENUE, CABARITA",-34.2121384,142.0901623,3.0,2.0,2,$380_pw,none,October 2012,3505,2012,10,CABARITA,380,Other,215021396
521,522,522,522,"72 DYAR AVENUE, CABARITA",-34.2121384,142.0901623,3.0,2.0,2,$380_pw,none,September 2012,3505,2012,9,CABARITA,380,Other,215021396
522,523,523,523,"LOT 2 DYAR AVENUE, CABARITA, CABARITA",-34.210173,142.092584,4.0,2.0,4,$425_Weekly,Rental,June 2012,3505,2012,6,CABARITA,425,Other,215021396
523,524,524,524,"5B DICKIES ROAD, CABARITA",-34.19621,142.076813,3.0,1.0,1,$180_per_week,House,February 2012,3505,2012,2,CABARITA,180,House,215021396
524,525,525,525,"5B DICKIES ROAD, CABARITA",-34.19621,142.076813,3.0,1.0,1,$180_pw,House,January 2012,3505,2012,1,CABARITA,180,House,215021396
525,526,526,526,"13 OLD PRINCESS HWY, CABBAGE TREE",-37.698887,148.71838,3.0,1.0,0,$130,House,March 2012,3364,2012,3,TREE,130,House,205021085
526,527,527,527,"165 SOLDIERS, CALDERMEADE",-38.24884,145.563191,4.0,2.0,0,$350_pw,none,April 2012,3984,2012,4,CALDERMEADE,350,Other,212011548
527,528,528,528,"2/15 NELSON STREET, CALIFORNIA GULLY",-36.728849,144.260829,2.0,2.0,1,$260_pw,House,September 2012,3556,2012,9,GULLY,260,House,202011019
528,529,529,529,"2/6 GILL AVENUE, CALIFORNIA GULLY",-36.727549,144.266554,2.0,1.0,1,$170_per_week,House,December 2012,3556,2012,12,GULLY,170,House,202011019
529,530,530,530,"2/6 GILL AVENUE, CALIFORNIA GULLY",-36.727549,144.266554,2.0,1.0,1,$170_per_week,House,November 2012,3556,2012,11,GULLY,170,House,202011019
530,531,531,531,"12 HARRIS STREET, CALIFORNIA GULLY",-36.724604,144.271921,4.0,2.0,2,$330_per_week,House,December 2012,3556,2012,12,GULLY,330,House,202011019
531,532,532,532,"12 HARRIS STREET, CALIFORNIA GULLY",-36.724604,144.271921,4.0,2.0,2,$320_per_week,House,February 2012,3556,2012,2,GULLY,320,House,202011019
532,533,533,533,"12 HARRIS STREET, CALIFORNIA GULLY",-36.724604,144.271921,4.0,2.0,2,$320_per_week,House,January 2012,3556,2012,1,GULLY,320,House,202011019
533,534,534,534,"4/38 BROWN STREET, CALIFORNIA GULLY",-36.729904,144.250383,1.0,1.0,1,$160_pw,Rental_residential,July 2012,3556,2012,7,GULLY,160,Other,202011019
534,535,535,535,"4/38 BROWN STREET, CALIFORNIA GULLY",-36.729904,144.250383,1.0,1.0,1,$150_pw,Rental_residential,January 2012,3556,2012,1,GULLY,150,Other,202011019
535,536,536,536,"2/1076 TOORAK ROAD, CAMBERWELL",-37.847968,145.072698,2.0,1.0,1,$470,House,July 2012,3124,2012,7,CAMBERWELL,470,House,207011150
536,537,537,537,"2/175 HIGHFIELD ROAD, CAMBERWELL",-37.840994,145.083361,3.0,2.0,2,$420_per_week,Rental_residential,October 2012,3124,2012,10,CAMBERWELL,420,Other,207011149
537,538,538,538,"2/35 ACHERON AVENUE, CAMBERWELL",-37.842756,145.066291,2.0,1.0,1,$460_pw,Rental_residential,June 2012,3124,2012,6,CAMBERWELL,460,Other,207011149
538,540,540,540,"12 KINGFIELD COURT, CAMBERWELL",-37.837978,145.092054,3.0,1.0,2,$650_per_week,House,August 2012,3124,2012,8,CAMBERWELL,650,House,207011149
539,541,541,541,"20 LODGE ROAD, CAMBERWELL",-37.84601,145.078903,4.0,2.0,2,$530_per_week,House,April 2012,3124,2012,4,CAMBERWELL,530,House,207011149
540,542,542,542,"1/22 ALLAMBEE AVENUE, CAMBERWELL",-37.834967,145.073156,2.0,1.0,1,$400_per_week,Rental_residential,May 2012,3124,2012,5,CAMBERWELL,400,Other,207011149
541,543,543,543,"43 BELLETT STREET, CAMBERWELL",-37.835812,145.066418,3.0,2.0,3,$850_pw,none,May 2012,3124,2012,5,CAMBERWELL,850,Other,207011149
542,544,544,544,"2/140 THROUGH ROAD, CAMBERWELL",-37.838391,145.092368,3.0,2.0,2,$650_per_week,House,January 2012,3124,2012,1,CAMBERWELL,650,House,207011149
543,545,545,545,"58 TRAFALGAR ROAD, CAMBERWELL",-37.8341672,145.0631205,3.0,2.0,2,$595_per_week,none,March 2012,3124,2012,3,CAMBERWELL,595,Other,207011149
544,546,546,546,"3 DONNA BUANG STREET, CAMBERWELL",-37.84434,145.064707,4.0,3.0,2,$750_p.w.,none,August 2012,3124,2012,8,CAMBERWELL,750,Other,207011149
545,547,547,547,"1/911 TOORAK ROAD, CAMBERWELL",-37.845911,145.057483,4.0,3.0,2,$900_p.w.,Townhouse,September 2012,3124,2012,9,CAMBERWELL,900,House,207011149
546,548,548,548,"39 LYNDEN STREET, CAMBERWELL",-37.840895,145.086331,6.0,2.0,2,$690_p.w.,Rental_residential,December 2012,3124,2012,12,CAMBERWELL,690,Other,207011149
547,549,549,549,"15 CULLITON ROAD, CAMBERWELL",-37.841962,145.073804,3.0,1.0,1,$500,Rental_residential,January 2012,3124,2012,1,CAMBERWELL,500,Other,207011149
548,550,550,550,"1/126 WATTLE VALLEY ROAD, CAMBERWELL",-37.837583,145.080986,2.0,1.0,1,$370_per_week,none,March 2012,3124,2012,3,CAMBERWELL,370,Other,207011149
549,551,551,551,"1/126 WATTLE VALLEY ROAD, CAMBERWELL",-37.837583,145.080986,2.0,1.0,1,$380_per_week,none,March 2012,3124,2012,3,CAMBERWELL,380,Other,207011149
550,552,552,552,"3/894-896 TOORAK ROAD, CAMBERWELL",-37.84629822,145.05543518,3.0,2.0,1,$550_p.w.,Rental_residential,November 2012,3124,2012,11,CAMBERWELL,550,Other,207011150
551,553,553,553,"3/17 GARDEN ROAD, CAMBERWELL",-37.843659,145.091424,2.0,1.0,1,$340,Rental_residential,April 2012,3124,2012,4,CAMBERWELL,340,Other,207011149
552,554,554,554,"21 FAIRFIELD AVENUE, CAMBERWELL",-37.841358,145.05791,4.0,2.0,2,$1200_per_week,House,July 2012,3124,2012,7,CAMBERWELL,1200,House,207011149
553,555,555,555,"2/28 ALLAMBEE AVENUE, CAMBERWELL",-37.835228,145.077317,2.0,1.0,1,$370_per_week,Rental_residential,February 2012,3124,2012,2,CAMBERWELL,370,Other,207011149
554,556,556,556,"2/28 ALLAMBEE AVENUE, CAMBERWELL",-37.835228,145.077317,2.0,1.0,1,$370_per_week,Rental_residential,January 2012,3124,2012,1,CAMBERWELL,370,Other,207011149
555,557,557,557,"113/1101 TOORAK ROAD, CAMBERWELL",-37.847719,145.075153,2.0,2.0,1,$440_pw,Rental_residential,November 2012,3124,2012,11,CAMBERWELL,440,Other,207011149
556,558,558,558,"500 FLINDERS STREET, MELBOURNE",-37.820019,144.957827,1.0,1.0,0,$330_pw,Available Now,October 2012,3000,2012,10,MELBOURNE,330,Other,206041505
557,559,559,559,"500 FLINDERS STREET, MELBOURNE",-37.820019,144.957827,1.0,1.0,0,$330_pw,Available Now,January 2012,3000,2012,1,MELBOURNE,330,Other,206041505
558,560,560,560,"1304/33 MACKENZIE STREET, MELBOURNE",-37.8074834,144.9668562,2.0,2.0,1,$530_pw,Available Now,November 2012,3000,2012,11,MELBOURNE,530,Other,206041503
559,561,561,561,"1214/555 FLINDERS STREET, MELBOURNE",-37.8208706,144.9562331,1.0,1.0,0,$330_per_week,Available Now,January 2012,3000,2012,1,MELBOURNE,330,Other,206041505
560,562,562,562,"2703/8 EXPLORATION LANE, MELBOURNE",-37.8092558,144.9683848,2.0,2.0,0,$550_per_week,none,January 2012,3000,2012,1,MELBOURNE,550,Other,206041503
561,563,563,563,"904/422 COLLINS STREET, MELBOURNE",-37.817137,144.96012,1.0,1.0,0,$330_pw,Available Now,August 2012,3000,2012,8,MELBOURNE,330,Other,206041505
562,564,564,564,"904/422 COLLINS STREET, MELBOURNE",-37.817137,144.96012,1.0,1.0,0,$340_pw,Available Now,July 2012,3000,2012,7,MELBOURNE,340,Other,206041505
563,565,565,565,"124/546 FLINDERS STREET, MELBOURNE",-37.820521,144.956143,1.0,1.0,0,$250_per_week,none,September 2012,3000,2012,9,MELBOURNE,250,Other,206041505
564,566,566,566,"124/546 FLINDERS STREET, MELBOURNE",-37.820521,144.956143,1.0,1.0,0,$250_p.w.,none,August 2012,3000,2012,8,MELBOURNE,250,Other,206041505
565,567,567,567,"3305/483 SWANSTON STREET, MELBOURNE",-37.807218,144.962336,2.0,1.0,1,$570_pw,none,December 2012,3000,2012,12,MELBOURNE,570,Other,206041504
566,568,568,568,"3305/483 SWANSTON STREET, MELBOURNE",-37.807218,144.962336,2.0,1.0,1,$610_pw,none,March 2012,3000,2012,3,MELBOURNE,610,Other,206041504
567,569,569,569,"2102/25 THERRY STREET, MELBOURNE",-37.8068232,144.9608822,1.0,1.0,0,$480_pw,none,October 2012,3000,2012,10,MELBOURNE,480,Other,206041504
568,570,570,570,"3507/200 SPENCER STREET, MELBOURNE",-37.816257,144.953288,2.0,2.0,1,$645,none,July 2012,3000,2012,7,MELBOURNE,645,Other,206041505
569,571,571,571,"2404/8 FRANKLIN STREET, MELBOURNE",-37.807318,144.963366,2.0,1.0,0,$540_pw,none,June 2012,3000,2012,6,MELBOURNE,540,Other,206041504
570,572,572,572,"605/455 ELIZABETH STREET, MELBOURNE",-37.808429,144.960206,2.0,1.0,0,$470_per_week,none,October 2012,3000,2012,10,MELBOURNE,470,Other,206041504
571,573,573,573,"605/455 ELIZABETH STREET, MELBOURNE",-37.808429,144.960206,2.0,1.0,0,$470_pw,none,February 2012,3000,2012,2,MELBOURNE,470,Other,206041504
572,574,574,574,"605/455 ELIZABETH STREET, MELBOURNE",-37.808429,144.960206,2.0,1.0,0,$470_pw,none,January 2012,3000,2012,1,MELBOURNE,470,Other,206041504
573,576,576,576,"1011/225 ELIZABETH STREET, MELBOURNE",-37.8131346,144.9624998,1.0,1.0,0,$450_per_week,Available Now,December 2012,3000,2012,12,MELBOURNE,450,Other,206041505
574,577,577,577,"250 ELIZABETH STREET, MELBOURNE",-37.81278992,144.96253967,1.0,1.0,1,$490_per_week,Available Now,September 2012,3000,2012,9,MELBOURNE,490,Other,206041503
575,578,578,578,"250 ELIZABETH STREET, MELBOURNE",-37.81278992,144.96253967,1.0,1.0,1,$510_per_week,Available Now,August 2012,3000,2012,8,MELBOURNE,510,Other,206041503
576,579,579,579,"250 ELIZABETH STREET, MELBOURNE",-37.81278992,144.96253967,1.0,1.0,1,$520,Available Now,August 2012,3000,2012,8,MELBOURNE,520,Other,206041503
577,580,580,580,"250 ELIZABETH STREET, MELBOURNE",-37.81278992,144.96253967,1.0,1.0,1,$520_pw,Available Now,July 2012,3000,2012,7,MELBOURNE,520,Other,206041503
578,581,581,581,"250 ELIZABETH STREET, MELBOURNE",-37.81278992,144.96253967,1.0,1.0,1,$510,Available Now,June 2012,3000,2012,6,MELBOURNE,510,Other,206041503
579,582,582,582,"250 ELIZABETH STREET, MELBOURNE",-37.81278992,144.96253967,1.0,1.0,1,$510_pw,Available Now,May 2012,3000,2012,5,MELBOURNE,510,Other,206041503
580,583,583,583,"200 SPENCER STREET, MELBOURNE",-37.81613541,144.95289612,2.0,2.0,1,$430_pw,none,October 2012,3000,2012,10,MELBOURNE,430,Other,206041505
581,584,584,584,"200 SPENCER STREET, MELBOURNE",-37.81613541,144.95289612,2.0,2.0,1,$550,none,September 2012,3000,2012,9,MELBOURNE,550,Other,206041505
582,585,585,585,"200 SPENCER STREET, MELBOURNE",-37.81613541,144.95289612,2.0,2.0,1,$430_pw,none,January 2012,3000,2012,1,MELBOURNE,430,Other,206041505
583,586,586,586,"200 SPENCER STREET, MELBOURNE",-37.81613541,144.95289612,2.0,2.0,1,$725_pw,none,January 2012,3000,2012,1,MELBOURNE,725,Other,206041505
584,587,587,587,"812/29-31 MARKET STREET, MELBOURNE",-37.818652,144.960479,2.0,2.0,0,$495_pw,Available Now,May 2012,3000,2012,5,MELBOURNE,495,Other,206041505
585,588,588,588,"812/29-31 MARKET STREET, MELBOURNE",-37.818652,144.960479,2.0,2.0,0,$565_pw,Available Now,January 2012,3000,2012,1,MELBOURNE,565,Other,206041505
586,589,589,589,"1706/200 SPENCER STREET, MELBOURNE",-37.816257,144.953288,1.0,1.0,1,$740_pw,none,October 2012,3000,2012,10,MELBOURNE,740,Other,206041505
587,590,590,590,"1706/200 SPENCER STREET, MELBOURNE",-37.816257,144.953288,1.0,1.0,1,$630_pw,none,August 2012,3000,2012,8,MELBOURNE,630,Other,206041505
588,591,591,591,"1706/200 SPENCER STREET, MELBOURNE",-37.816257,144.953288,1.0,1.0,1,$780_pw,none,June 2012,3000,2012,6,MELBOURNE,780,Other,206041505
589,592,592,592,"1706/200 SPENCER STREET, MELBOURNE",-37.816257,144.953288,1.0,1.0,1,$780_pw,none,April 2012,3000,2012,4,MELBOURNE,780,Other,206041505
590,593,593,593,"1706/200 SPENCER STREET, MELBOURNE",-37.816257,144.953288,1.0,1.0,1,$780_pw,none,February 2012,3000,2012,2,MELBOURNE,780,Other,206041505
591,594,594,594,"604/20-22 MCKILLOP STREET, MELBOURNE",-37.81514,144.961811,2.0,1.0,0,$495_pw,none,August 2012,3000,2012,8,MELBOURNE,495,Other,206041505
592,595,595,595,"1712/200 SPENCER STREET, MELBOURNE",-37.8163783,144.9528947,1.0,1.0,1,$550_p.w.,Available Now,September 2012,3000,2012,9,MELBOURNE,550,Other,206041118
593,596,596,596,"1712/200 SPENCER STREET, MELBOURNE",-37.8163783,144.9528947,1.0,1.0,1,$400_per_week,Available Now,February 2012,3000,2012,2,MELBOURNE,400,Other,206041118
594,597,597,597,"2803/483 SWANSTON STREET, MELBOURNE",-37.807218,144.962336,2.0,1.0,0,$570_p.w.,none,November 2012,3000,2012,11,MELBOURNE,570,Other,206041504
595,598,598,598,"2803/483 SWANSTON STREET, MELBOURNE",-37.807218,144.962336,2.0,1.0,0,$570_pw,none,June 2012,3000,2012,6,MELBOURNE,570,Other,206041504
596,599,599,599,"2803/483 SWANSTON STREET, MELBOURNE",-37.807218,144.962336,2.0,1.0,0,$570_pw,none,May 2012,3000,2012,5,MELBOURNE,570,Other,206041504
597,600,600,600,"401/442 ST KILDA ROAD, MELBOURNE",-37.838236,144.975468,2.0,2.0,1,$450_per_week,none,March 2012,3000,2012,3,MELBOURNE,450,Other,206051128
598,601,601,601,"401/442 ST KILDA ROAD, MELBOURNE",-37.838236,144.975468,2.0,2.0,1,$460_per_week,none,March 2012,3000,2012,3,MELBOURNE,460,Other,206051128
599,602,602,602,"303 / 253 FRANKLIN STREET, MELBOURNE",-37.8093919,144.9566185,2.0,1.0,0,$475_pw,none,September 2012,3000,2012,9,MELBOURNE,475,Other,206041504
600,603,603,603,"303 / 253 FRANKLIN STREET, MELBOURNE",-37.8093919,144.9566185,2.0,1.0,0,$475_pw,none,August 2012,3000,2012,8,MELBOURNE,475,Other,206041504
601,604,604,604,"201/455 ELIZABETH STREET, MELBOURNE",-37.808429,144.960206,2.0,1.0,0,$470_per_week,none,October 2012,3000,2012,10,MELBOURNE,470,Other,206041504
602,605,605,605,"CARPARK/200 SPENCER STREET, MELBOURNE",-37.81613541,144.95289612,1.0,1.0,1,$50_per_week,Rental_residential,October 2012,3000,2012,10,MELBOURNE,50,Other,206041505
603,606,606,606,"CARPARK/200 SPENCER STREET, MELBOURNE",-37.81613541,144.95289612,1.0,1.0,1,$50_per_week,Rental_residential,September 2012,3000,2012,9,MELBOURNE,50,Other,206041505
604,607,607,607,"1702/668 BOURKE STREET, MELBOURNE",-37.816602,144.9542,3.0,2.0,2,$720_per_week,Available Now,February 2012,3000,2012,2,MELBOURNE,720,Other,206041505
605,608,608,608,"1702/668 BOURKE STREET, MELBOURNE",-37.816602,144.9542,3.0,2.0,2,$720_per_week,Available Now,January 2012,3000,2012,1,MELBOURNE,720,Other,206041505
606,609,609,609,"1207/268 FLINDERS STREET, MELBOURNE",-37.817606,144.965626,1.0,1.0,0,$300_per_week,none,September 2012,3000,2012,9,MELBOURNE,300,Other,206041503
607,610,610,610,"233 COLLINS STREET, MELBOURNE",-37.815888,144.965983,2.0,1.0,0,$425_pw,Available Now,October 2012,3000,2012,10,MELBOURNE,425,Other,206041503
608,611,611,611,"233 COLLINS STREET, MELBOURNE",-37.815888,144.965983,2.0,1.0,0,$425_pw,Available Now,January 2012,3000,2012,1,MELBOURNE,425,Other,206041503
609,612,612,612,"912/87 FRANKLIN STREET, MELBOURNE",-37.808028,144.961681,1.0,1.0,1,$420,Available Now,December 2012,3000,2012,12,MELBOURNE,420,Other,206041504
610,613,613,613,"1106/555 FLINDERS STREET, MELBOURNE",-37.8208706,144.9562331,1.0,1.0,1,$340_per_week,Available Now,January 2012,3000,2012,1,MELBOURNE,340,Other,206041505
611,614,614,614,"7 LACHLAN ROAD, MELTON SOUTH",-37.708849,144.564662,3.0,1.0,2,$225_per_week,none,February 2012,3338,2012,2,SOUTH,225,Other,213041578
612,615,615,615,"16 BIRDSWING TERRACE, MELTON SOUTH",-37.7172118,144.574386,4.0,2.0,2,$275_pw,House,March 2012,3338,2012,3,SOUTH,275,House,213041578
613,616,616,616,"10 CHAUVEL STREET, MELTON SOUTH",-37.711802,144.578193,3.0,1.0,1,$260,House,January 2012,3338,2012,1,SOUTH,260,House,213041578
614,617,617,617,"3 WENTWORTH ROAD, MELTON SOUTH",-37.713127,144.568503,3.0,1.0,5,$220_per_week,House,November 2012,3338,2012,11,SOUTH,220,House,213041578
615,618,618,618,"3 WENTWORTH ROAD, MELTON SOUTH",-37.713127,144.568503,3.0,1.0,5,$220_per_week,House,March 2012,3338,2012,3,SOUTH,220,House,213041578
616,619,619,619,"3 WENTWORTH ROAD, MELTON SOUTH",-37.713127,144.568503,3.0,1.0,5,$220_per_week,House,February 2012,3338,2012,2,SOUTH,220,House,213041578
617,620,620,620,"21 GRACE STREET, MELTON SOUTH",-37.698381,144.572633,3.0,1.0,1,$230_per_week,House,November 2012,3338,2012,11,SOUTH,230,House,213041578
618,621,621,621,"2 GARFIELD CLOSE, MELTON SOUTH",-37.710931,144.561783,4.0,1.0,2,$290_per_week,House,November 2012,3338,2012,11,SOUTH,290,House,213041578
619,622,622,622,"38 KURRAJONG CRESCENT, MELTON SOUTH",-37.701218,144.569887,3.0,1.0,4,$245_per_week,House,February 2012,3338,2012,2,SOUTH,245,House,213041578
620,623,623,623,"38 KURRAJONG CRESCENT, MELTON SOUTH",-37.701218,144.569887,3.0,1.0,4,$245_pw,House,January 2012,3338,2012,1,SOUTH,245,House,213041578
621,624,624,624,"6 BANKSIA PLACE, MELTON WEST",-37.673631,144.561221,4.0,1.0,1,$240_Weekly,House,July 2012,3337,2012,7,WEST,240,House,213041358
622,625,625,625,"6 BANKSIA PLACE, MELTON WEST",-37.673631,144.561221,4.0,1.0,1,$245_per_week,House,June 2012,3337,2012,6,WEST,245,House,213041358
623,626,626,626,"6 BANKSIA PLACE, MELTON WEST",-37.673631,144.561221,4.0,1.0,1,$255_Weekly,House,May 2012,3337,2012,5,WEST,255,House,213041358
624,627,627,627,"232 BULMANS ROAD, MELTON WEST",-37.674256,144.552142,3.0,1.0,2,$260_pw,House,June 2012,3337,2012,6,WEST,260,House,213041358
625,628,628,628,"1 STATON CRESCENT, MELTON WEST",-37.681347,144.541885,4.0,2.0,4,$290_pw,House,March 2012,3337,2012,3,WEST,290,House,213041358
626,629,629,629,"46 CAITLYN DRIVE, MELTON WEST",-37.661774,144.56418,3.0,2.0,2,$255_per_week,House,May 2012,3337,2012,5,WEST,255,House,213041358
627,630,630,630,"46 CAITLYN DRIVE, MELTON WEST",-37.661774,144.56418,3.0,2.0,2,$255_per_week,House,April 2012,3337,2012,4,WEST,255,House,213041358
628,631,631,631,"6 BITTERN STREET, MELTON",-37.678368,144.574826,4.0,2.0,2,$245_per_week,House,December 2012,3337,2012,12,MELTON,245,House,213041577
629,632,632,632,"18 DOMINIC PARADE, MELTON",-37.67847,144.57895,3.0,1.0,0,$250_per_week,House,January 2012,3337,2012,1,MELTON,250,House,213041577
630,633,633,633,"1 JOAN STREET, MELTON",-37.687138,144.574592,3.0,1.0,4,$260,House,March 2012,3337,2012,3,MELTON,260,House,213041577
631,634,634,634,"149 CENTENARY AVENUE, MELTON",-37.674546,144.581464,3.0,1.0,2,$240_per_week,none,December 2012,3337,2012,12,MELTON,240,Other,213041577
632,635,635,635,"129 CENTENARY AVE, MELTON",-37.6748609,144.5842098,3.0,1.0,2,$250_per_week,House,November 2012,3337,2012,11,MELTON,250,House,213041577
633,636,636,636,"23 MARINA DRIVE, MELTON",-37.677999,144.581977,3.0,1.0,1,$220_per_week,House,February 2012,3337,2012,2,MELTON,220,House,213041577
634,637,637,637,"23 MARINA DRIVE, MELTON",-37.677999,144.581977,3.0,1.0,1,$230_per_week,House,January 2012,3337,2012,1,MELTON,230,House,213041577
635,638,638,638,"13/20-24 PALMERSTON STREET, MELTON",-37.688049,144.584038,3.0,1.0,1,$260_p.w.,none,April 2012,3337,2012,4,MELTON,260,Other,213041577
636,639,639,639,"27 MARINA DRIVE, MELTON",-37.677741,144.582131,3.0,1.0,1,$250_per_week,House,March 2012,3337,2012,3,MELTON,250,House,213041577
637,640,640,640,"39 LAKEWOOD BOULEVARD, MELTON",-37.6908407,144.5896714,3.0,2.0,1,$270_pw,House,February 2012,3337,2012,2,MELTON,270,House,213041577
638,641,641,641,"39 LAKEWOOD BOULEVARD, MELTON",-37.6908407,144.5896714,3.0,2.0,1,$270_Weekly,House,January 2012,3337,2012,1,MELTON,270,House,213041577
639,642,642,642,"39 LAKEWOOD BOULEVARD, MELTON",-37.6908407,144.5896714,3.0,2.0,1,$280_pw,House,January 2012,3337,2012,1,MELTON,280,House,213041577
640,643,643,643,"8 HUDSON PLACE, MELTON",-37.678256,144.584394,3.0,1.0,2,$270_per_week,House,February 2012,3337,2012,2,MELTON,270,House,213041577
641,644,644,644,"8 HUDSON PLACE, MELTON",-37.678256,144.584394,3.0,1.0,2,$280_per_week,House,January 2012,3337,2012,1,MELTON,280,House,213041577
642,645,645,645,"3/51-55 TULLIDGE STREET, MELTON",-37.688524,144.58585,3.0,2.0,2,$270_per_week,Townhouse,September 2012,3337,2012,9,MELTON,270,House,213041577
643,646,646,646,"56 BARRIES ROAD, MELTON",-37.688408,144.575932,3.0,2.0,1,$240_p.w.,House,July 2012,3337,2012,7,MELTON,240,House,213041577
644,647,647,647,"72 GRETEL GROVE, MELTON",-37.690439,144.581677,3.0,2.0,3,$275_pw,House,September 2012,3337,2012,9,MELTON,275,House,213041577
645,648,648,648,"72 GRETEL GR, MELTON",-37.690439,144.581677,3.0,2.0,3,$275_Weekly,House,September 2012,3337,2012,9,MELTON,275,House,213041577
646,649,649,649,"4 OLDERSHAW ROAD, MELTON",-37.680758,144.576772,3.0,1.0,2,$245_per_week,House,August 2012,3337,2012,8,MELTON,245,House,213041577
647,650,650,650,"36 WATSON COURT, MELTON",-37.67737,144.576803,4.0,1.0,1,$260_Weekly,House,January 2012,3337,2012,1,MELTON,260,House,213041577
648,651,651,651,"9 KINKORA ROAD, MELTON",-37.68911,144.570947,3.0,1.0,1,$235_per_week,House,August 2012,3337,2012,8,MELTON,235,House,213041577
649,652,652,652,"22 CASSIA ROAD, MELTON",-37.677653,144.579988,3.0,1.0,2,$220_per_week,Available Now,May 2012,3337,2012,5,MELTON,220,Other,213041577
650,653,653,653,"12 SHEBLER PLACE, MELTON",-37.679641,144.584723,3.0,1.0,2,$265_Weekly,House,February 2012,3337,2012,2,MELTON,265,House,213041577
651,654,654,654,"506 HIGH STREET, MELTON",-37.683826,144.569264,3.0,1.0,1,$240_per_week,House,January 2012,3337,2012,1,MELTON,240,House,213041577
652,655,655,655,"10/20-24 PALMERSTON STREET, MELTON",-37.688049,144.584038,3.0,1.0,1,$255_p.w.,Rental_residential,March 2012,3337,2012,3,MELTON,255,Other,213041577
653,656,656,656,"10/20-24 PALMERSTON STREET, MELTON",-37.688049,144.584038,3.0,1.0,1,$290_pw,Rental_residential,February 2012,3337,2012,2,MELTON,290,Other,213041577
654,657,657,657,"53 BARRIES ROAD, MELTON",-37.689058,144.578577,3.0,1.0,2,$230_Weekly,Rental_residential,January 2012,3337,2012,1,MELTON,230,Other,213041577
655,658,658,658,"18/20-24 PALMERSTON STREET, MELTON",-37.688049,144.584038,3.0,1.0,1,$250_p.w.,Rental_residential,May 2012,3337,2012,5,MELTON,250,Other,213041577
656,659,659,659,"18/20-24 PALMERSTON STREET, MELTON",-37.688049,144.584038,3.0,1.0,1,$260_pw,Rental_residential,February 2012,3337,2012,2,MELTON,260,Other,213041577
657,660,660,660,"12 MILVERTON STREET, MELTON",-37.677651,144.579106,3.0,1.0,3,$260_pw,Available Now,August 2012,3337,2012,8,MELTON,260,Other,213041577
658,661,661,661,"8/26 WINSOME STREET, MENTONE",-37.976157,145.065059,2.0,1.0,2,$295,Available Now,April 2012,3194,2012,4,MENTONE,295,Other,208031190
