,Unnamed: 0,Unnamed: 0.2,Unnamed: 0.1,address,latitude,longitude,nbed,nbath,ncar,price,type,historical_dates,postcode,year,month,suburb,weekly_rent,residence_type,SA2_CODE
0,0,0,0,"208 MAIN ROAD, CHEWTON",-37.080111,144.261809,3.0,1.0,2,$300_pw,House,November 2013,3451,2013,11,CHEWTON,300,House,202021027
1,1,1,1,"171 MAIN ROAD, CHEWTON",-37.081326,144.259245,3.0,1.0,8,$330_pw,House,September 2013,3451,2013,9,CHEWTON,330,House,202021027
2,2,2,2,"173 MAIN ROAD, CHEWTON",-37.080952,144.259378,2.0,1.0,0,$270_pw,House,October 2013,3451,2013,10,CHEWTON,270,House,202021027
3,3,3,3,"173 MAIN ROAD, CHEWTON",-37.080952,144.259378,2.0,1.0,0,$270_pw,House,September 2013,3451,2013,9,CHEWTON,270,House,202021027
4,4,4,4,"4 GEORGE STREET, CHEWTON",-37.082086,144.256513,3.0,1.0,2,$350_pw,House,April 2013,3451,2013,4,CHEWTON,350,House,202021027
5,5,5,5,"2/56 ALBERT ROAD, CHILTERN",-36.14908,146.604709,2.0,1.0,1,$185_pw,House,October 2013,3683,2013,10,CHILTERN,185,House,204031070
6,6,6,6,"8 SKERRY STREET, CHILTERN",-36.151158,146.598197,3.0,2.0,2,$280_Weekly,House,July 2013,3683,2013,7,CHILTERN,280,House,204031070
7,7,7,7,"4 GLENDALE DRIVE, CHIRNSIDE PARK",-37.751383,145.312411,4.0,2.0,2,$350_per_week,Rental_residential,February 2013,3116,2013,2,PARK,350,Other,211051275
8,8,8,8,"12-14 CAMPUS GATE, CHIRNSIDE PARK",-37.755523,145.332948,5.0,2.0,2,$390_pw,House,August 2013,3116,2013,8,PARK,390,House,211051275
9,9,9,9,"12-14 CAMPUS GATE, CHIRNSIDE PARK",-37.755523,145.332948,5.0,2.0,2,$390_per_week,House,June 2013,3116,2013,6,PARK,390,House,211051275
10,10,10,10,"66 ROSEMAN ROAD, CHIRNSIDE PARK",-37.746928,145.33598,3.0,1.0,1,$320_pw,House,December 2013,3116,2013,12,PARK,320,House,211051275
11,11,11,11,"66 ROSEMAN ROAD, CHIRNSIDE PARK",-37.746928,145.33598,3.0,1.0,1,$320_pw,House,April 2013,3116,2013,4,PARK,320,House,211051275
12,12,12,12,"5 EDWARD ROAD, CHIRNSIDE PARK",-37.75641,145.316065,3.0,1.0,1,$295,House,March 2013,3116,2013,3,PARK,295,House,211051275
13,13,13,13,"26 JOANNE AVENUE, CHIRNSIDE PARK",-37.755106,145.306849,3.0,2.0,3,$420_pw,House,December 2013,3116,2013,12,PARK,420,House,211051275
14,14,14,14,"23826 BASS HIGHWAY, CHRISTMAS HILLS",-37.653666,145.3050781,3.0,2.0,0,$260,House,August 2013,3775,2013,8,HILLS,260,House,209031212
15,15,15,15,"5 NICHOLLS ROAD, CHUM CREEK",-37.6389688,145.4977567,3.0,1.0,2,$340_pw,none,August 2013,3777,2013,8,CREEK,340,Other,211051276
16,16,16,16,"8 GUNDAROO DRIVE, CHURCHILL",-38.320903,146.422926,3.0,1.0,1,$190_pw,House,March 2013,3842,2013,3,CHURCHILL,190,House,205041094
17,17,17,17,"15 CURRINGA COURT, CHURCHILL",-38.319109,146.420642,4.0,2.0,2,$300_per_week,none,December 2013,3842,2013,12,CHURCHILL,300,Other,205041094
18,18,18,18,"13 GUNDAROO PLACE, CHURCHILL",-38.320975,146.423926,3.0,1.0,0,$210_p.w.,House,March 2013,3842,2013,3,CHURCHILL,210,House,205041094
19,19,19,19,"5 AMAROO DRIVE, CHURCHILL",-38.323465,146.422057,3.0,1.0,1,$150_pw,none,March 2013,3842,2013,3,CHURCHILL,150,Other,205041094
20,20,20,20,"38 COOLABAH DRIVE, CHURCHILL",-38.303151,146.416263,3.0,1.0,1,$195_per_week,House,January 2013,3842,2013,1,CHURCHILL,195,House,205041094
21,21,21,21,"48 MCDONALD WAY, CHURCHILL",-38.312359,146.412762,3.0,1.0,1,$195_pw,Rental_residential,January 2013,3842,2013,1,CHURCHILL,195,Other,205041094
22,22,22,22,"6320 MIDLAND HIGHWAY, CLARENDON",-37.695823,143.975766,5.0,2.0,2,$300_per_week,House,July 2013,3352,2013,7,CLARENDON,300,House,201021012
23,23,23,23,"108 COURTS ROAD, CLARENDON",-37.718594,143.995601,3.0,2.0,6,$320_per_week,House,February 2013,3352,2013,2,CLARENDON,320,House,201021012
24,24,24,24,"UNIT 1/19 ELDER STREET, CLARINDA",-37.928967,145.103913,2.0,1.0,1,$290_Weekly,Unit,March 2013,3169,2013,3,CLARINDA,290,Apartment,212041309
25,25,25,25,"38 CRAWFORD ROAD, CLARINDA",-37.931652,145.101336,4.0,1.0,3,$370,House,June 2013,3169,2013,6,CLARINDA,370,House,212041309
26,26,26,26,"38 CRAWFORD ROAD, CLARINDA",-37.931652,145.101336,4.0,1.0,3,$370,House,May 2013,3169,2013,5,CLARINDA,370,House,212041309
27,27,27,27,"4/29 THE PARADE, CLARINDA",-37.929939,145.103692,2.0,1.0,1,$280_Weekly,Rental_residential,February 2013,3169,2013,2,CLARINDA,280,Other,212041309
28,28,28,28,"7 BODLEY STREET, CLARINDA",-37.944388,145.113306,3.0,1.0,1,$380,House,November 2013,3169,2013,11,CLARINDA,380,House,212041309
29,29,29,29,"54 GLENBROOK AVENUE, CLAYTON NORTH",-37.910982,145.123839,4.0,1.5,2,$430_Weekly,House,September 2013,3168,2013,9,NORTH,430,House,212051567
30,30,30,30,"2/64 WELLINGTON ROAD, CLAYTON NORTH",-37.91636,145.136891,2.0,1.0,1,$280_Weekly,none,April 2013,3168,2013,4,NORTH,280,Other,212051567
31,31,31,31,"59 MARSHALL AVENUE, CLAYTON NORTH",-37.91192,145.126379,3.0,1.0,0,$370_Weekly,none,February 2013,3168,2013,2,NORTH,370,Other,212051567
32,32,32,32,"59 MARSHALL AVENUE, CLAYTON NORTH",-37.91192,145.126379,3.0,1.0,0,$370_Weekly,none,March 2013,3168,2013,3,NORTH,370,Other,212051567
33,33,33,33,"3/31 SPRINGS ROAD, CLAYTON SOUTH",-37.930285,145.109556,2.0,1.0,1,$310_per_week,none,March 2013,3169,2013,3,SOUTH,310,Other,212041310
34,34,34,34,"3/31 SPRINGS ROAD, CLAYTON SOUTH",-37.930285,145.109556,2.0,1.0,1,$310_per_week,none,January 2013,3169,2013,1,SOUTH,310,Other,212041310
35,35,35,35,"10 EVERGREEN BOULEVARD, CLAYTON SOUTH",-37.93957,145.137404,3.0,2.0,2,$460,House,January 2013,3169,2013,1,SOUTH,460,House,212041310
36,36,36,36,"A202/59 AUTUMN TERRACE, CLAYTON SOUTH",-37.9391661,145.1385972,1.0,1.0,1,$320_pw,Rental_residential,August 2013,3169,2013,8,SOUTH,320,Other,212041310
37,37,37,37,"5/5 BURNS AVENUE, CLAYTON SOUTH",-37.9368135,145.1345036,2.0,1.0,1,$305_p.w.,Available Now,September 2013,3169,2013,9,SOUTH,305,Other,212041310
38,38,38,38,"UNIT 2/32 TENNYSON AVENUE, CLAYTON SOUTH",-37.936636,145.129962,2.0,1.0,1,$310_Weekly,Unit,November 2013,3169,2013,11,SOUTH,310,Apartment,212041310
39,39,39,39,"UNIT 2/32 TENNYSON AVENUE, CLAYTON SOUTH",-37.936636,145.129962,2.0,1.0,1,$310_Weekly,Unit,October 2013,3169,2013,10,SOUTH,310,Apartment,212041310
40,40,40,40,"1/60 OAKES AVENUE, CLAYTON SOUTH",-37.93713,145.136159,3.0,2.0,2,$290_pw,Townhouse,August 2013,3169,2013,8,SOUTH,290,House,212041310
41,41,41,41,"4/10 PANORAMA STREET, CLAYTON",-37.918065,145.130143,3.0,1.0,1,$380_pw,Townhouse,February 2013,3168,2013,2,CLAYTON,380,House,212051568
42,42,42,42,"6/58 KANOOKA GROVE, CLAYTON",-37.92192,145.125966,2.0,1.0,1,$355_p.w.,Townhouse,September 2013,3168,2013,9,CLAYTON,355,House,212051568
43,43,43,43,"30/2 GREENFIELD DRIVE, CLAYTON",-37.923181,145.128623,2.0,1.0,1,$380,Unit,October 2013,3168,2013,10,CLAYTON,380,Apartment,212051568
44,44,44,44,"1/34 WELLINGTON ROAD, CLAYTON",-37.915779,145.133915,1.0,1.0,1,$255,Unit,September 2013,3168,2013,9,CLAYTON,255,Apartment,212051567
45,45,45,45,"UNIT 3/10 DENNIS STREET, CLAYTON",-37.9181978,145.1365816,2.0,1.0,1,$300_Weekly,Unit,August 2013,3168,2013,8,CLAYTON,300,Apartment,212051567
46,46,46,46,"UNIT 3/10 DENNIS STREET, CLAYTON",-37.9181978,145.1365816,2.0,1.0,1,$300_Weekly,Unit,July 2013,3168,2013,7,CLAYTON,300,Apartment,212051567
47,47,47,47,"1/14 BETTINA STREET, CLAYTON",-37.91898,145.136706,2.0,1.0,1,$320_per_week,Unit,March 2013,3168,2013,3,CLAYTON,320,Apartment,212051567
48,48,48,48,"UNIT 1/5-7 THOMAS STREET, CLAYTON",-37.926088,145.12026,2.0,1.0,1,$330_Weekly,Unit,December 2013,3168,2013,12,CLAYTON,330,Apartment,212051568
49,49,49,49,"UNIT 1/5-7 THOMAS STREET, CLAYTON",-37.926088,145.12026,2.0,1.0,1,$330_Weekly,Unit,November 2013,3168,2013,11,CLAYTON,330,Apartment,212051568
50,50,50,50,"UNIT 1/5-7 THOMAS STREET, CLAYTON",-37.926088,145.12026,2.0,1.0,1,$340_Weekly,Unit,November 2013,3168,2013,11,CLAYTON,340,Apartment,212051568
51,51,51,51,"1/31 GLENBROOK AVENUE, CLAYTON",-37.909275,145.123752,3.0,1.0,2,$350_per_week,House,April 2013,3168,2013,4,CLAYTON,350,House,212051567
52,52,52,52,"6/13-15 ARNOTT STREET, CLAYTON",-37.917233,145.134413,3.0,1.0,1,$420_pw,Townhouse,July 2013,3168,2013,7,CLAYTON,420,House,212051567
53,53,53,53,"182 CLAYTON ROAD, CLAYTON",-37.915531,145.121942,5.0,2.0,1,$395,House,August 2013,3168,2013,8,CLAYTON,395,House,212051568
54,54,54,54,"3/17 FRANCIS STREET, CLAYTON",-37.924666,145.123304,2.0,1.0,1,$350_p.w.,Unit,August 2013,3168,2013,8,CLAYTON,350,Apartment,212051568
55,55,55,55,"16 WELLINGTON ROAD, CLAYTON",-37.915481,145.130845,1.0,2.0,0,$550_pw,House,February 2013,3168,2013,2,CLAYTON,550,House,212051567
56,56,56,56,"35 RENVER ROAD, CLAYTON",-37.919951,145.142791,3.0,1.0,1,$365_per_week,House,January 2013,3168,2013,1,CLAYTON,365,House,212051567
57,57,57,57,"25 STOCKDALE AVENUE, CLAYTON",-37.90903,145.125797,3.0,1.0,2,$330_Weekly,House,April 2013,3168,2013,4,CLAYTON,330,House,212051567
58,58,58,58,"UNIT 3/11 YARRAM CRESCENT, CLAYTON",-37.926088,145.115029,2.0,1.0,1,$325_Weekly,Townhouse,December 2013,3168,2013,12,CLAYTON,325,House,212051568
59,59,59,59,"UNIT 3/11 YARRAM CRESCENT, CLAYTON",-37.926088,145.115029,2.0,1.0,1,$325_pw,Townhouse,April 2013,3168,2013,4,CLAYTON,325,House,212051568
60,60,60,60,"126 MORIAH STREET, CLAYTON",-37.927922,145.129585,4.0,2.0,2,$550,House,April 2013,3168,2013,4,CLAYTON,550,House,212051568
61,61,61,61,"126 MORIAH STREET, CLAYTON",-37.927922,145.129585,4.0,2.0,2,$574,House,April 2013,3168,2013,4,CLAYTON,574,House,212051568
62,62,62,62,"1/5 BROWNS ROAD, CLAYTON",-37.917169,145.128252,6.0,3.0,0,$150_per_week,none,January 2013,3168,2013,1,CLAYTON,150,Other,212051568
63,63,63,63,"126 MORIAH ST, CLAYTON",-37.927922,145.129585,4.0,2.0,2,$595_Weekly,House,March 2013,3168,2013,3,CLAYTON,595,House,212051568
64,64,64,64,"9/34 WELLINGTON ROAD, CLAYTON",-37.915995,145.133951,1.0,1.0,1,$215,none,January 2013,3168,2013,1,CLAYTON,215,Other,212051567
65,65,65,65,"13/9-11 BROWNS ROAD, CLAYTON",-37.918418,145.127927,2.0,1.0,1,$260_pw,House,January 2013,3168,2013,1,CLAYTON,260,House,212051568
66,66,66,66,"9 SHADY MEWS, CLAYTON",-37.922424,145.12782,2.0,1.0,2,$370_p.w.,Rental_residential,April 2013,3168,2013,4,CLAYTON,370,Other,212051568
67,67,67,67,"24 PRINCE CHARLES STREET, CLAYTON",-37.923408,145.114968,4.0,1.0,1,$410_pw,House,March 2013,3168,2013,3,CLAYTON,410,House,212051568
68,68,68,68,"24 PRINCE CHARLES STREET, CLAYTON",-37.923408,145.114968,4.0,1.0,1,$425_pw,House,February 2013,3168,2013,2,CLAYTON,425,House,212051568
69,69,69,69,"42 STOCKDALE AVENUE, CLAYTON",-37.910502,145.126035,4.0,2.0,1,$300_Weekly,House,June 2013,3168,2013,6,CLAYTON,300,House,212051567
70,70,70,70,"4 / 63 CARINISH ROAD, CLAYTON",-37.920334,145.115395,2.0,1.0,1,$330_Weekly,Unit,February 2013,3168,2013,2,CLAYTON,330,Apartment,212051568
71,71,71,71,"1/31 GLENBROOK AVE, CLAYTON",-37.909189,145.123384,3.0,1.0,2,$350_per_week,House,June 2013,3168,2013,6,CLAYTON,350,House,212051567
72,72,72,72,"10/10 ARNOTT STREET, CLAYTON",-37.9169379,145.1348441,2.0,1.0,1,$341_pw,Rental_residential,August 2013,3168,2013,8,CLAYTON,341,Other,212051567
73,73,73,73,"10/10 ARNOTT STREET, CLAYTON",-37.9169379,145.1348441,2.0,1.0,1,$340_pw,Rental_residential,July 2013,3168,2013,7,CLAYTON,340,Other,212051567
74,74,74,74,"220/1457 NORTH ROAD, CLAYTON",-37.913578,145.124129,1.0,1.0,0,$230_per_week,Rental_residential,December 2013,3168,2013,12,CLAYTON,230,Other,212051567
75,75,75,75,"23 MCBEAN STREET, CLAYTON",-37.923718,145.111716,2.0,1.0,2,$380_per_week,Townhouse,March 2013,3168,2013,3,CLAYTON,380,House,212051568
76,76,76,76,"1/1440 NORTH ROAD, CLAYTON",-37.913904,145.118858,3.0,1.0,1,$481_pw,Townhouse,July 2013,3168,2013,7,CLAYTON,481,House,212051568
77,77,77,77,"1/1440 NORTH ROAD, CLAYTON",-37.913904,145.118858,3.0,1.0,1,$481_pw,Townhouse,June 2013,3168,2013,6,CLAYTON,481,House,212051568
78,78,78,78,"59 MARSHALL AVENUE, CLAYTON",-37.91192,145.126379,4.0,1.0,4,$395_Weekly,House,April 2013,3168,2013,4,CLAYTON,395,House,212051567
79,79,79,79,"59 MARSHALL AVENUE, CLAYTON",-37.91192,145.126379,4.0,1.0,4,$395_Weekly,House,January 2013,3168,2013,1,CLAYTON,395,House,212051567
80,80,80,80,"9 BURTON AVENUE, CLAYTON",-37.926327,145.115883,4.0,3.0,1,$340_pw,Townhouse,August 2013,3168,2013,8,CLAYTON,340,House,212051568
81,81,81,81,"9 BURTON AVENUE, CLAYTON",-37.926327,145.115883,4.0,3.0,1,$340_Weekly,Townhouse,May 2013,3168,2013,5,CLAYTON,340,House,212051568
82,82,82,82,"9 BURTON AVENUE, CLAYTON",-37.926327,145.115883,4.0,3.0,1,$350_p.w.,Townhouse,April 2013,3168,2013,4,CLAYTON,350,House,212051568
83,83,83,83,"31 BEDDOE AVENUE, CLAYTON",-37.90991,145.12789,3.0,1.0,4,$325_Weekly,House,July 2013,3168,2013,7,CLAYTON,325,House,212051567
84,84,84,84,"31 BEDDOE AVENUE, CLAYTON",-37.90991,145.12789,3.0,1.0,4,$370_Weekly,House,April 2013,3168,2013,4,CLAYTON,370,House,212051567
85,85,85,85,"2/14 PRINCE CHARLES STREET, CLAYTON",-37.922618,145.114988,3.0,2.0,2,$490_per_week,Townhouse,November 2013,3168,2013,11,CLAYTON,490,House,212051568
86,86,86,86,"2/14 PRINCE CHARLES STREET, CLAYTON",-37.922618,145.114988,3.0,2.0,2,$490_per_week,Townhouse,October 2013,3168,2013,10,CLAYTON,490,House,212051568
87,87,87,87,"2/184 CLAYTON ROAD, CLAYTON",-37.915695,145.122032,4.0,2.0,2,$550_Weekly,House,September 2013,3168,2013,9,CLAYTON,550,House,212051568
88,88,88,88,"2/43 PANORAMA STREET, CLAYTON",-37.922076,145.128874,4.0,2.0,1,$515_Weekly,Townhouse,April 2013,3168,2013,4,CLAYTON,515,House,212051568
89,89,89,89,"2/43 PANORAMA STREET, CLAYTON",-37.922076,145.128874,4.0,2.0,1,$515_Weekly,Townhouse,February 2013,3168,2013,2,CLAYTON,515,House,212051568
90,90,90,90,"2/43 PANORAMA STREET, CLAYTON",-37.922076,145.128874,4.0,2.0,1,$515_Weekly,Townhouse,January 2013,3168,2013,1,CLAYTON,515,House,212051568
91,91,91,91,"23 BAYVIEW AVENUE, CLAYTON",-37.906772,145.126106,4.0,2.0,1,$560_Weekly,House,December 2013,3168,2013,12,CLAYTON,560,House,212051567
92,92,92,92,"23 BAYVIEW AVENUE, CLAYTON",-37.906772,145.126106,4.0,2.0,1,$560_Weekly,House,February 2013,3168,2013,2,CLAYTON,560,House,212051567
93,93,93,93,"1/17 BEDDOE AVENUE, CLAYTON",-37.90863,145.128127,3.0,2.0,1,$510_Weekly,Townhouse,December 2013,3168,2013,12,CLAYTON,510,House,212051567
94,94,94,94,"1/12 MADELEINE ROAD, CLAYTON",-37.915266,145.120158,3.0,1.0,1,$435_per_week,Available Now,June 2013,3168,2013,6,CLAYTON,435,Other,212051568
95,95,95,95,"1/12 MADELEINE ROAD, CLAYTON",-37.915266,145.120158,3.0,1.0,1,$435_per_week,Available Now,March 2013,3168,2013,3,CLAYTON,435,Other,212051568
96,96,96,96,"10 VICTOR ROAD, CLEMATIS",-37.929733,145.419864,5.0,2.0,0,$410_per_week,none,May 2013,3782,2013,5,CLEMATIS,410,Other,212011289
97,97,97,97,"6 VICTOR ROAD, CLEMATIS",-37.929987,145.420214,2.0,1.0,1,$300_Weekly,none,August 2013,3782,2013,8,CLEMATIS,300,Other,212011289
98,98,98,98,"13 PARADISE AVENUE, CLEMATIS",-37.934453,145.420268,4.0,2.0,0,$340_per_week,House,December 2013,3782,2013,12,CLEMATIS,340,House,212011289
99,99,99,99,"260A BELLBIRD ROAD, CLIFTON CREEK",-37.721096,147.703205,3.0,1.0,0,$255_Weekly,House,May 2013,3875,2013,5,CREEK,255,House,205021082
100,100,100,100,"6/21 WALKER STREET, CLIFTON HILL",-37.788514,145.001566,3.0,1.0,1,$490_pw,none,January 2013,3068,2013,1,HILL,490,Other,206071145
101,101,101,101,"2/262 ALEXANDRA PARADE EAST, CLIFTON HILL",-37.7949421,144.9976199,1.0,1.0,1,$340_per_week,none,July 2013,3068,2013,7,HILL,340,Other,206071145
102,102,102,102,"2/262 ALEXANDRA PARADE EAST, CLIFTON HILL",-37.7949421,144.9976199,1.0,1.0,1,$380_per_week,none,May 2013,3068,2013,5,HILL,380,Other,206071145
103,103,103,103,"29 FENWICK STREET, CLIFTON HILL",-37.789226,144.999862,2.0,1.0,0,$460_per_week,none,August 2013,3068,2013,8,HILL,460,Other,206071145
104,104,104,104,"650 SMITH STREET, CLIFTON HILL",-37.79212,144.985634,3.0,2.0,1,$760_per_week,Rental_residential,May 2013,3068,2013,5,HILL,760,Other,206071145
105,105,105,105,"650 SMITH STREET, CLIFTON HILL",-37.79212,144.985634,3.0,2.0,1,$795_per_week,Rental_residential,April 2013,3068,2013,4,HILL,795,Other,206071145
106,106,106,106,"650 SMITH STREET, CLIFTON HILL",-37.79212,144.985634,3.0,2.0,1,$890_per_week,Rental_residential,March 2013,3068,2013,3,HILL,890,Other,206071145
107,107,107,107,"650 SMITH STREET, CLIFTON HILL",-37.79212,144.985634,3.0,2.0,1,$890_per_week,Rental_residential,February 2013,3068,2013,2,HILL,890,Other,206071145
108,108,108,108,"18/14 THE ESPLANADE, CLIFTON HILL",-37.788057,145.005844,1.0,1.0,1,$280_pw,Rental_residential,December 2013,3068,2013,12,HILL,280,Other,206071145
109,109,109,109,"18/14 THE ESPLANADE, CLIFTON HILL",-37.788057,145.005844,1.0,1.0,1,$280_pw,Rental_residential,November 2013,3068,2013,11,HILL,280,Other,206071145
110,110,110,110,"205 SPENSLEY STREET, CLIFTON HILL",-37.786573,145.004419,2.0,1.0,1,$490_pw,House,August 2013,3068,2013,8,HILL,490,House,206071145
111,111,111,111,"5/200 NOONE STREET, CLIFTON HILL",-37.793351,144.98911,2.0,2.0,1,$600_pw,none,March 2013,3068,2013,3,HILL,600,Other,206071145
112,112,112,112,"18 OGRADY STREET, CLIFTON HILL",-37.787047,144.998269,2.0,2.0,1,$570,Rental_residential,June 2013,3068,2013,6,HILL,570,Other,206071145
113,113,113,113,"30A COUNCIL STREET, CLIFTON HILL",-37.792295,144.986832,4.0,2.0,0,$950_pw,House,January 2013,3068,2013,1,HILL,950,House,206071145
114,114,114,114,"11 DALLY STREET, CLIFTON HILL",-37.792519,144.999611,2.0,1.0,0,$500_per_week,none,May 2013,3068,2013,5,HILL,500,Other,206071145
115,115,115,115,"11 DALLY STREET, CLIFTON HILL",-37.792519,144.999611,2.0,1.0,0,$500_per_week,none,April 2013,3068,2013,4,HILL,500,Other,206071145
116,116,116,116,"4/37 YAMBLA STREET, CLIFTON HILL",-37.7914456,145.0009828,2.0,1.0,2,$350_per_week,Rental_residential,December 2013,3068,2013,12,HILL,350,Other,206071145
117,117,117,117,"4/37 YAMBLA STREET, CLIFTON HILL",-37.7914456,145.0009828,2.0,1.0,2,$380_per_week,Rental_residential,November 2013,3068,2013,11,HILL,380,Other,206071145
118,118,118,118,"53 DWYER STREET, CLIFTON HILL",-37.785982,145.001994,2.0,1.0,0,$545_pw,none,February 2013,3068,2013,2,HILL,545,Other,206071145
119,119,119,119,"10/9 SOUTH TERRACE, CLIFTON HILL",-37.79235,144.99226,1.0,1.0,1,$300_p.w.,Flat,November 2013,3068,2013,11,HILL,300,Apartment,206071145
120,120,120,120,"7/2 ANDERSON STREET, CLIFTON HILL",-37.793144,144.993094,2.0,1.0,1,$300_pw,Flat,February 2013,3068,2013,2,HILL,300,Apartment,206071145
121,121,121,121,"171 RAMSDEN STREET, CLIFTON HILL",-37.7914025,145.0020013,3.0,1.0,1,$550_pw,House,June 2013,3068,2013,6,HILL,550,House,206071145
122,122,122,122,"16 COUNCIL STREET, CLIFTON HILL",-37.792331,144.986235,2.0,2.0,0,$595_Weekly,none,September 2013,3068,2013,9,HILL,595,Other,206071145
123,123,123,123,"16 COUNCIL STREET, CLIFTON HILL",-37.792331,144.986235,2.0,2.0,0,$560_pw,none,August 2013,3068,2013,8,HILL,560,Other,206071145
124,124,124,124,"22 GROOM STREET, CLIFTON HILL",-37.793529,144.997952,2.0,2.0,1,$420_per_week,Rental_residential,November 2013,3068,2013,11,HILL,420,Other,206071145
125,125,125,125,"8/10 SOUTH TERRACE, CLIFTON HILL",-37.792577,144.992383,2.0,1.0,1,$430_pw,Townhouse,March 2013,3068,2013,3,HILL,430,House,206071145
126,126,126,126,"10 ANDERSON ST, CLIFTON HILL",-37.792765,144.993104,2.0,1.0,1,$500_p.w.,Rental_residential,November 2013,3068,2013,11,HILL,500,Other,206071145
127,127,127,127,"10 ANDERSON STREET, CLIFTON HILL",-37.792946,144.993254,2.0,1.0,1,$500_pw,Available Now,November 2013,3068,2013,11,HILL,500,Other,206071145
128,128,128,128,"57 DALLY STREET, CLIFTON HILL",-37.792276,144.997986,2.0,1.0,1,$555_pw,none,May 2013,3068,2013,5,HILL,555,Other,206071145
129,129,129,129,"30 WRIGHT STREET, CLIFTON HILL",-37.78906,145.00174,2.0,1.0,1,$540_pw,Rental_residential,September 2013,3068,2013,9,HILL,540,Other,206071145
130,130,130,130,"8 RUTLAND STREET, CLIFTON HILL",-37.794571,144.99622,2.0,1.0,0,$435_pw,none,May 2013,3068,2013,5,HILL,435,Other,206071145
131,131,131,131,"8 RUTLAND STREET, CLIFTON HILL",-37.794571,144.99622,2.0,1.0,0,$435_pw,none,April 2013,3068,2013,4,HILL,435,Other,206071145
132,132,132,132,"6/77 FIELD STREET, CLIFTON HILL",-37.7923464,145.0022251,3.0,2.0,1,$700_per_week,Rental_residential,March 2013,3068,2013,3,HILL,700,Other,206071145
133,133,133,133,"3/268 ALEXANDRA PARADE EAST, CLIFTON HILL",-37.7951063,144.9997451,1.0,1.0,1,$350_pw,none,January 2013,3068,2013,1,HILL,350,Other,206071145
134,134,134,134,"4 COOLABAH WAY, CLIFTON SPRINGS",-38.148568,144.576425,4.0,2.0,3,$300_per_week,none,July 2013,3222,2013,7,SPRINGS,300,Other,203031048
135,135,135,135,"2/7 CONDY STREET, CLIFTON SPRINGS",-38.167936,144.56906,2.0,2.0,2,$260_per_week,Available Now,March 2013,3222,2013,3,SPRINGS,260,Other,203031048
136,136,136,136,"360 CLONBINANE ROAD, CLONBINANE",-37.32236,145.078481,4.0,2.0,2,$300_pw,none,October 2013,3658,2013,10,CLONBINANE,300,Other,209041224
137,137,137,137,"6 HANNAH STREET, CLUNES",-37.295479,143.78396,2.0,1.0,0,$220,Rental_residential,July 2013,3370,2013,7,CLUNES,220,Other,201021010
138,138,138,138,"27A BECKWITH STREET, CLUNES",-37.299866,143.781619,3.0,1.0,1,$250_pw,House,June 2013,3370,2013,6,CLUNES,250,House,201021010
139,139,139,139,"10 ALBERT STREET, CLUNES",-37.287198,143.78807,3.0,2.0,1,$215,House,April 2013,3370,2013,4,CLUNES,215,House,201021010
140,140,140,140,"7 SUBURBAN STREET, CLUNES",-37.294901,143.77939,3.0,1.0,2,$250_Weekly,House,July 2013,3370,2013,7,CLUNES,250,House,201021010
141,141,141,141,"46 LESLIE STREET, CLUNES",-37.296568,143.793823,3.0,1.0,1,$230_per_week,House,January 2013,3370,2013,1,CLUNES,230,House,201021010
142,142,142,142,"76 FRASER STREET, CLUNES",-37.297688,143.788508,4.0,1.0,1,$250,House,January 2013,3370,2013,1,CLUNES,250,House,201021010
143,143,143,143,"15 SUBURBAN STREET, CLUNES",-37.29528,143.778701,3.0,1.0,3,$300,House,September 2013,3370,2013,9,CLUNES,300,House,201021010
144,144,144,144,"12 BALLARTO ROAD, CLYDE",-38.13434,145.329343,4.0,2.0,4,$505_per_week,House,April 2013,3978,2013,4,CLYDE,505,House,212031303
145,145,145,145,"189 LOCARNO ROAD, CLYDESDALE",-37.180468,144.082754,3.0,1.0,0,$315_per_week,none,March 2013,3461,2013,3,CLYDESDALE,315,Other,201021011
146,146,146,146,"2/86 CURDIE STREET, COBDEN",-38.327394,143.071066,2.0,1.0,1,$185_per_week,House,October 2013,3266,2013,10,COBDEN,185,House,217031475
147,147,147,147,"2/86 CURDIE STREET, COBDEN",-38.327394,143.071066,2.0,1.0,1,$185_per_week,House,September 2013,3266,2013,9,COBDEN,185,House,217031475
148,148,148,148,"74 WALKER STREET, COBDEN",-38.32536,143.080733,2.0,1.0,1,$195_per_week,House,October 2013,3266,2013,10,COBDEN,195,House,217031475
149,149,149,149,"55 WALKER STREET, COBDEN",-38.328331,143.079519,2.0,1.0,1,$200_per_week,Rental_residential,October 2013,3266,2013,10,COBDEN,200,Other,217031475
150,150,150,150,"1/84 PARROTT STREET, COBDEN",-38.328608,143.068643,3.0,1.0,1,$210_per_week,House,November 2013,3266,2013,11,COBDEN,210,House,217031475
151,151,151,151,"1/84 PARROTT STREET, COBDEN",-38.328608,143.068643,3.0,1.0,1,$210_per_week,House,October 2013,3266,2013,10,COBDEN,210,House,217031475
152,152,152,152,"1/84 PARROTT STREET, COBDEN",-38.328608,143.068643,3.0,1.0,1,$200_per_week,House,January 2013,3266,2013,1,COBDEN,200,House,217031475
153,153,153,153,"397 STONEYFORD ROAD, COBDEN",-38.332701,143.126845,3.0,1.0,1,$240_per_week,none,November 2013,3266,2013,11,COBDEN,240,Other,217031475
154,154,154,154,"1/9 LAWSON DRIVE, COBRAM",-35.929376,145.655264,2.0,1.0,1,$250,Townhouse,September 2013,3644,2013,9,COBRAM,250,House,216021411
155,155,155,155,"674 COBDEN-TERANG ROAD, COBRICO",-38.3003,143.019079,4.0,2.0,3,$280_per_week,House,October 2013,3266,2013,10,COBRICO,280,House,217031475
156,156,156,156,"674 COBDEN-TERANG ROAD, COBRICO",-38.3003,143.019079,4.0,2.0,3,$280_per_week,House,February 2013,3266,2013,2,COBRICO,280,House,217031475
157,157,157,157,"2A MANLY COURT, COBURG NORTH",-37.720577,144.970207,3.0,2.0,1,$425_pw,Rental_residential,January 2013,3058,2013,1,NORTH,425,Other,210031236
158,158,158,158,"2A MANLY COURT, COBURG NORTH",-37.720577,144.970207,3.0,2.0,1,$430_pw,Rental_residential,January 2013,3058,2013,1,NORTH,430,Other,210031236
159,159,159,159,"6/25A ARTHUR STREET, COBURG NORTH",-37.723824,144.9823,2.0,1.0,1,$270_pw,Rental_residential,March 2013,3058,2013,3,NORTH,270,Other,210031236
160,160,160,160,"21 BOYD CRESCENT, COBURG NORTH",-37.733193,144.979128,4.0,2.0,1,$380_pw,House,July 2013,3058,2013,7,NORTH,380,House,210031236
161,161,161,161,"11 RED BOX STREET, COBURG NORTH",-37.7279113,144.9824989,4.0,3.0,2,$550_Weekly,House,October 2013,3058,2013,10,NORTH,550,House,210031236
162,162,162,162,"2 BELGRAVE STREET, COBURG",-37.742793,144.974864,3.0,1.0,1,$470_pw,none,March 2013,3058,2013,3,COBURG,470,Other,206011497
163,163,163,163,"2/64 VICTORIA STREET, COBURG",-37.742205,144.958461,2.0,1.0,1,$290_per_week,none,August 2013,3058,2013,8,COBURG,290,Other,206011498
164,164,164,164,"41 LINSEY STREET, COBURG",-37.741145,144.952948,3.0,1.0,1,$360_pw,Rental_residential,November 2013,3058,2013,11,COBURG,360,Other,206011498
165,165,165,165,"104A/1 MANNA GUM COURT, COBURG",-37.737353,144.976093,1.0,1.0,1,$330_per_week,Rental_residential,February 2013,3058,2013,2,COBURG,330,Other,206011497
166,166,166,166,"13/110-116 MOORE STREET, COBURG",-37.755321,144.977002,3.0,1.0,1,$450_per_week,Townhouse,September 2013,3058,2013,9,COBURG,450,House,206011497
167,167,167,167,"13/110-116 MOORE STREET, COBURG",-37.755321,144.977002,3.0,1.0,1,$450_per_week,Townhouse,August 2013,3058,2013,8,COBURG,450,House,206011497
168,168,168,168,"1/39 SAUNDERS STREET, COBURG",-37.750597,144.950743,2.0,1.0,1,$300_per_week,Unit,November 2013,3058,2013,11,COBURG,300,Apartment,206011498
169,169,169,169,"3/95 HARDING STREET, COBURG",-37.745848,144.975359,2.0,1.0,1,$330_pw,none,October 2013,3058,2013,10,COBURG,330,Other,206011497
170,170,170,170,"101B/41-43 STOCKADE AVENUE, COBURG",-37.7370199,144.9707254,3.0,1.0,2,$390_per_week,none,October 2013,3058,2013,10,COBURG,390,Other,206011497
171,171,171,171,"30 VICTORIA STREET, COBURG",-37.7429133,144.9637724,2.0,1.0,1,$350_per_week,none,October 2013,3058,2013,10,COBURG,350,Other,206011497
172,172,172,172,"8/144 NICHOLSON STREET, COBURG",-37.745665,144.978198,2.0,1.0,1,$340_pw,none,September 2013,3058,2013,9,COBURG,340,Other,206011497
173,173,173,173,"6/1 THE GROVE, COBURG",-37.750961,144.965767,2.0,1.0,1,$340_pw,Townhouse,February 2013,3058,2013,2,COBURG,340,House,206011497
174,174,174,174,"53 NICHOLSON STREET, COBURG",-37.753605,144.975761,2.0,1.0,1,$360_per_week,none,August 2013,3058,2013,8,COBURG,360,Other,206011497
175,175,175,175,"49 SOUDAN STREET, COBURG",-37.739114,144.951791,3.0,1.0,1,$470_pw,none,December 2013,3058,2013,12,COBURG,470,Other,206011498
176,176,176,176,"3/5 INDUSTRY LANE, COBURG",-37.74493,144.96469,2.0,1.0,1,$370_pw,Rental_residential,April 2013,3058,2013,4,COBURG,370,Other,206011497
177,177,177,177,"4/9 ROSS STREET, COBURG",-37.738825,144.965837,2.0,1.0,1,$330_pw,Rental_residential,May 2013,3058,2013,5,COBURG,330,Other,206011497
178,178,178,178,"4/9 ROSS STREET, COBURG",-37.738825,144.965837,2.0,1.0,1,$330_pw,Rental_residential,April 2013,3058,2013,4,COBURG,330,Other,206011497
179,179,179,179,"4/9 ROSS STREET, COBURG",-37.738825,144.965837,2.0,1.0,1,$335_pw,Rental_residential,April 2013,3058,2013,4,COBURG,335,Other,206011497
180,180,180,180,"2/17-18 CHAMP STREET, COBURG",-37.735876,144.967325,2.0,1.0,2,$340,Rental_residential,August 2013,3058,2013,8,COBURG,340,Other,206011497
181,181,181,181,"2/17-18 CHAMP STREET, COBURG",-37.735876,144.967325,2.0,1.0,2,$340,Rental_residential,July 2013,3058,2013,7,COBURG,340,Other,206011497
182,182,182,182,"2/17-18 CHAMP STREET, COBURG",-37.735876,144.967325,2.0,1.0,2,$330_per_week,Rental_residential,June 2013,3058,2013,6,COBURG,330,Other,206011497
183,183,183,183,"2/17-18 CHAMP STREET, COBURG",-37.735876,144.967325,2.0,1.0,2,$330_per_week,Rental_residential,May 2013,3058,2013,5,COBURG,330,Other,206011497
184,184,184,184,"2/17-18 CHAMP STREET, COBURG",-37.735876,144.967325,2.0,1.0,2,$340_p.w.,Rental_residential,April 2013,3058,2013,4,COBURG,340,Other,206011497
185,185,185,185,"2/17-18 CHAMP STREET, COBURG",-37.735876,144.967325,2.0,1.0,2,$340_per_week,Rental_residential,March 2013,3058,2013,3,COBURG,340,Other,206011497
186,186,186,186,"114 SHAFTSBURY STREET, COBURG",-37.745519,144.955825,3.0,2.0,1,$525_per_week,none,June 2013,3058,2013,6,COBURG,525,Other,206011498
187,187,187,187,"114 SHAFTSBURY STREET, COBURG",-37.745519,144.955825,3.0,2.0,1,$540_per_week,none,April 2013,3058,2013,4,COBURG,540,Other,206011498
188,188,188,188,"114 SHAFTSBURY STREET, COBURG",-37.745519,144.955825,3.0,2.0,1,$540_per_week,none,March 2013,3058,2013,3,COBURG,540,Other,206011498
189,189,189,189,"3/20 HUDSON STREET, COBURG",-37.743232,144.962514,3.0,2.0,2,$510_per_week,Townhouse,July 2013,3058,2013,7,COBURG,510,House,206011498
190,190,190,190,"42 JAMIESON STREET, COBURG",-37.744647,144.951898,2.0,1.0,1,$370_pw,House,November 2013,3058,2013,11,COBURG,370,House,206011498
191,191,191,191,"41/14 BELL STREET, COBURG",-37.74239,144.977185,2.0,1.0,1,$375_per_week,none,November 2013,3058,2013,11,COBURG,375,Other,206011497
192,192,192,192,"41/14 BELL STREET, COBURG",-37.74239,144.977185,2.0,1.0,1,$375_per_week,none,October 2013,3058,2013,10,COBURG,375,Other,206011497
193,193,193,193,"1/5 DARLINGTON GROVE, COBURG",-37.75034,144.97297,3.0,1.0,1,$450_per_week,Townhouse,January 2013,3058,2013,1,COBURG,450,House,206011497
194,194,194,194,"2B PORTLAND STREET, COBURG",-37.744494,144.950483,2.0,1.0,1,$450_per_week,Townhouse,March 2013,3058,2013,3,COBURG,450,House,206011498
195,195,195,195,"11/1 MANNA GUM COURT, COBURG",-37.736609,144.975974,3.0,2.0,2,$480_pw,Available Now,May 2013,3058,2013,5,COBURG,480,Other,206011497
196,196,196,196,"20/1 MANNA GUM COURT, COBURG",-37.737353,144.976093,3.0,2.0,2,$500_Weekly,none,April 2013,3058,2013,4,COBURG,500,Other,206011497
197,197,197,197,"20/1 MANNA GUM COURT, COBURG",-37.737353,144.976093,3.0,2.0,2,$500_pw,none,March 2013,3058,2013,3,COBURG,500,Other,206011497
198,198,198,198,"8 BUSH STREET, COBURG",-37.719784,144.966684,2.0,1.0,1,$330_per_week,House,December 2013,3058,2013,12,COBURG,330,House,210031236
199,199,199,199,"69A MORELAND ROAD, COBURG",-37.756399,144.97422,3.0,1.0,1,$380_pw,none,February 2013,3058,2013,2,COBURG,380,Other,206011497
200,200,200,200,"116 SHAFTSBURY STREET, COBURG",-37.745402,144.95584,3.0,1.0,1,$400_pw,House,May 2013,3058,2013,5,COBURG,400,House,206011498
201,201,201,201,"116 SHAFTSBURY STREET, COBURG",-37.745402,144.95584,3.0,1.0,1,$400_pw,House,April 2013,3058,2013,4,COBURG,400,House,206011498
202,202,202,202,"3/12 DONNE STREET, COBURG",-37.752416,144.949071,2.0,1.0,1,$340_pw,Unit,May 2013,3058,2013,5,COBURG,340,Apartment,206011498
203,203,203,203,"1/30 LOCH STREET, COBURG",-37.7467727,144.9622047,2.0,2.0,1,$495_pw,Townhouse,April 2013,3058,2013,4,COBURG,495,House,206011498
204,204,204,204,"REAR/112 BELL STREET, COBURG",-37.741066,144.965639,3.0,1.0,0,$350_pw,House,January 2013,3058,2013,1,COBURG,350,House,206011497
205,205,205,205,"412A SYDNEY ROAD, COBURG",-37.7437239,144.9663029,2.0,1.0,0,$350_pw,Unit,August 2013,3058,2013,8,COBURG,350,Apartment,206011497
206,206,206,206,"43 BELGRAVE STREET, COBURG",-37.745555,144.974835,3.0,1.0,2,$400_per_week,House,January 2013,3058,2013,1,COBURG,400,House,206011497
207,207,207,207,"7B MOORE STREET, COBURG",-37.753555,144.965677,2.0,1.0,1,$400_per_week,House,December 2013,3058,2013,12,COBURG,400,House,206011497
208,208,208,208,"332/12-20 NICHOLSON STREET, COBURG",-37.75544,144.975529,2.0,1.0,1,$380_pw,Rental_residential,November 2013,3058,2013,11,COBURG,380,Other,206011497
209,209,209,209,"37 AUTUMN STREET, COBURG",-37.733057,144.950234,3.0,1.0,2,$420_per_week,House,October 2013,3058,2013,10,COBURG,420,House,206011498
210,210,210,210,"23A MURRAY STREET, COBURG",-37.738829,144.958816,3.0,1.0,1,$440,none,March 2013,3058,2013,3,COBURG,440,Other,206011498
211,211,211,211,"23A MURRAY STREET, COBURG",-37.738829,144.958816,3.0,1.0,1,$440_per_week,none,February 2013,3058,2013,2,COBURG,440,Other,206011498
212,212,212,212,"7 FISCHER STREET, COBURG",-37.735594,144.953568,3.0,1.0,1,$480_per_week,House,February 2013,3058,2013,2,COBURG,480,House,206011498
213,213,213,213,"1/1 INDUSTRY LANE, COBURG",-37.7369442,144.9699153,1.0,1.0,1,$350_per_week,none,November 2013,3058,2013,11,COBURG,350,Other,206011497
214,214,214,214,"1/1 INDUSTRY LANE, COBURG",-37.7369442,144.9699153,1.0,1.0,1,$360_per_week,none,October 2013,3058,2013,10,COBURG,360,Other,206011497
215,215,215,215,"2/278 REYNARD STREET, COBURG",-37.746591,144.94691,3.0,1.0,3,$470_per_week,Rental_residential,June 2013,3058,2013,6,COBURG,470,Other,206011498
216,216,216,216,"767 SYDNEY ROAD, COBURG",-37.732851,144.964529,2.0,1.0,1,$360_-_$390_per_week,none,November 2013,3058,2013,11,COBURG,390,Other,210031236
217,217,217,217,"3/618 SYDNEY ROAD, COBURG",-37.735994,144.966585,3.0,1.0,1,$340_per_week,none,October 2013,3058,2013,10,COBURG,340,Other,206011497
218,218,218,218,"3/22 CHAMBERS STREET, COBURG",-37.747267,144.96884,2.0,1.0,1,$320_pw,none,July 2013,3058,2013,7,COBURG,320,Other,206011497
219,219,219,219,"1 DARE STREET, COBURG",-37.749962,144.96728,3.0,3.0,2,$340_pw,none,September 2013,3058,2013,9,COBURG,340,Other,206011497
220,220,220,220,"49 MOLESWORTH STREET, COBURG",-37.733897,144.959068,3.0,2.0,2,$480_p.w.,Townhouse,December 2013,3058,2013,12,COBURG,480,House,206011498
221,221,221,221,"18/2 ALICE STREET, COBURG",-37.743803,144.957178,2.0,1.0,1,$280_Weekly,none,September 2013,3058,2013,9,COBURG,280,Other,206011498
222,222,222,222,"25 CLIFTON GROVE, COBURG",-37.737821,144.958503,3.0,1.0,1,$470_p.w.,none,October 2013,3058,2013,10,COBURG,470,Other,206011498
223,223,223,223,"2 BELGRAVE AVENUE, COCKATOO",-37.92732,145.495818,4.0,2.0,6,$370_pw,Rental_residential,April 2013,3781,2013,4,COCKATOO,370,Other,212011289
224,224,224,224,"22 GLEN ROAD, COCKATOO",-37.937274,145.486381,2.0,1.0,0,$330_per_week,House,September 2013,3781,2013,9,COCKATOO,330,House,212011289
225,225,225,225,"22 GLEN ROAD, COCKATOO",-37.937274,145.486381,2.0,1.0,0,$330_per_week,House,August 2013,3781,2013,8,COCKATOO,330,House,212011289
226,226,226,226,"55 FIRST AVENUE, COCKATOO",-37.941172,145.486123,3.0,1.0,3,$330_pw,Rental_residential,January 2013,3781,2013,1,COCKATOO,330,Other,212011289
227,227,227,227,"290 PATERNOSTER ROAD, COCKATOO",-37.960651,145.495412,3.0,1.0,2,$800,House,October 2013,3781,2013,10,COCKATOO,800,House,212011289
228,228,228,228,"290 PATERNOSTER ROAD, COCKATOO",-37.960651,145.495412,3.0,1.0,2,$800_pw,House,July 2013,3781,2013,7,COCKATOO,800,House,212011289
229,229,229,229,"290 PATERNOSTER ROAD, COCKATOO",-37.960651,145.495412,3.0,1.0,2,$800_per_week,House,June 2013,3781,2013,6,COCKATOO,800,House,212011289
230,230,230,230,"22 HAYLOCK AVENUE, COCKATOO",-37.950023,145.499464,3.0,1.0,2,$325_pw,House,March 2013,3781,2013,3,COCKATOO,325,House,212011289
231,231,231,231,"66 WOORI YALLOCK ROAD, COCKATOO",-37.928419,145.492924,3.0,2.0,2,$340,Rental_residential,December 2013,3781,2013,12,COCKATOO,340,Other,212011289
232,232,232,232,"49 MIDDLE PARK DRIVE, COCOROC",-37.9683356,144.5630823,4.0,2.0,2,$370_per_week,House,October 2013,3030,2013,10,COCOROC,370,House,213051368
233,233,233,233,"30 SIGNATURE BLVD, COCOROC",-37.9683356,144.5630823,3.0,3.0,2,$400_per_week,House,October 2013,3030,2013,10,COCOROC,400,House,213051368
234,234,234,234,"12 NORTH SHORE DRIVE, COCOROC",-37.889069,144.638553,4.0,2.0,2,$450_Weekly,House,November 2013,3030,2013,11,COCOROC,450,House,213051468
235,235,235,235,"10/110 SANCTUARY LAKES BOULEVARD, COCOROC",-37.9683356,144.5630823,3.0,2.0,2,$390,Townhouse,November 2013,3030,2013,11,COCOROC,390,House,213051368
236,236,236,236,"10/110 SANCTUARY LAKES BOULEVARD, COCOROC",-37.9683356,144.5630823,3.0,2.0,2,$400_per_week,Townhouse,September 2013,3030,2013,9,COCOROC,400,House,213051368
237,237,237,237,"30 THE ESPLANADE, COCOROC",-37.9683356,144.5630823,4.0,2.0,2,$320_per_week,House,October 2013,3030,2013,10,COCOROC,320,House,213051368
238,238,238,238,"3 COOKS MEWS, COCOROC",-37.9683356,144.5630823,4.0,2.0,2,$525_per_week,House,October 2013,3030,2013,10,COCOROC,525,House,213051368
239,239,239,239,"13 MORNING CL, COCOROC",-37.9683356,144.5630823,4.0,2.0,2,$400_per_week,House,October 2013,3030,2013,10,COCOROC,400,House,213051368
240,240,240,240,"13 MORNING CL, COCOROC",-37.9683356,144.5630823,4.0,2.0,2,$430_per_week,House,July 2013,3030,2013,7,COCOROC,430,House,213051368
241,241,241,241,"47 MIDDLE PARK DRIVE, COCOROC",-37.9683356,144.5630823,4.0,2.0,2,$380_per_week,House,October 2013,3030,2013,10,COCOROC,380,House,213051368
242,242,242,242,"39 RIVERGLADES, COCOROC",-37.9683356,144.5630823,4.0,2.0,2,$459_per_week,House,October 2013,3030,2013,10,COCOROC,459,House,213051368
243,243,243,243,"5 MIDDLE PARK DRIVE, COCOROC",-37.9683356,144.5630823,4.0,3.0,2,$750_per_week,House,September 2013,3030,2013,9,COCOROC,750,House,213051368
244,244,244,244,"70 SANCTUARY LAKES SOUTH BOULEVARD, COCOROC",-37.9683356,144.5630823,3.0,2.0,2,$430_per_week,House,September 2013,3030,2013,9,COCOROC,430,House,213051368
245,245,245,245,"62 LAKESIDE DRIVE, COCOROC",-37.9683356,144.5630823,4.0,3.0,1,$490_per_week,House,September 2013,3030,2013,9,COCOROC,490,House,213051368
246,246,246,246,"15 SIGNATURE BLVD, COCOROC",-37.9683356,144.5630823,3.0,2.0,2,$360_per_week,Townhouse,August 2013,3030,2013,8,COCOROC,360,House,213051368
247,247,247,247,"33 MIDDLE PARK DRIVE, COCOROC",-37.9683356,144.5630823,4.0,2.0,2,$400_per_week,House,August 2013,3030,2013,8,COCOROC,400,House,213051368
248,248,248,248,"53 COASTAL PROMENADE, COCOROC",-37.9683356,144.5630823,5.0,3.0,2,$540_per_week,House,August 2013,3030,2013,8,COCOROC,540,House,213051368
249,249,249,249,"6 SKYWARD DRIVE, COCOROC",-37.9683356,144.5630823,4.0,3.0,2,$500_per_week,House,August 2013,3030,2013,8,COCOROC,500,House,213051368
250,250,250,250,"6 SKYWARD DRIVE, COCOROC",-37.9683356,144.5630823,4.0,3.0,2,$465_per_week,House,May 2013,3030,2013,5,COCOROC,465,House,213051368
251,251,251,251,"3 BLUECHIP COURT, COCOROC",-37.9683356,144.5630823,4.0,2.0,2,$500_Weekly,House,August 2013,3030,2013,8,COCOROC,500,House,213051368
252,252,252,252,"12 SUNSEEKER CHASE, COCOROC",-37.9683356,144.5630823,3.0,2.0,1,$395_per_week,House,August 2013,3030,2013,8,COCOROC,395,House,213051368
253,253,253,253,"VILLA 25/1 GREG NORMAN DRIVE, COCOROC",-37.9683356,144.5630823,3.0,2.0,2,$350_per_week,House,July 2013,3030,2013,7,COCOROC,350,House,213051368
254,254,254,254,"33 MONT CLAIR STREET, COCOROC",-37.9683356,144.5630823,3.0,2.0,2,$365_per_week,House,July 2013,3030,2013,7,COCOROC,365,House,213051368
255,255,255,255,"12 SKYWARD DRIVE, COCOROC",-37.9683356,144.5630823,3.0,2.0,1,$350_per_week,House,June 2013,3030,2013,6,COCOROC,350,House,213051368
256,256,256,256,"2 / 32 SANDLEWOOD LANE, COCOROC",-37.9683356,144.5630823,3.0,2.0,2,$380_per_week,Villa,June 2013,3030,2013,6,COCOROC,380,House,213051368
257,257,257,257,"44 / 1 GREG NORMAN DRIVE, COCOROC",-37.9683356,144.5630823,3.0,2.0,2,$350_per_week,House,May 2013,3030,2013,5,COCOROC,350,House,213051368
258,258,258,258,"20 EAGLEVIEW PLACE, COCOROC",-37.9683356,144.5630823,5.0,2.0,2,$595_per_week,House,April 2013,3030,2013,4,COCOROC,595,House,213051368
259,259,259,259,"20 EAGLEVIEW PLACE, COCOROC",-37.9683356,144.5630823,5.0,2.0,2,$595_per_week,House,May 2013,3030,2013,5,COCOROC,595,House,213051368
260,260,260,260,"77 GRIFFINS ROAD, COGHILLS CREEK",-37.38039,143.738068,3.0,2.0,4,$400_pw,none,September 2013,3364,2013,9,CREEK,400,Other,201021010
261,261,261,261,"71 KING EDWARD STREET, COHUNA",-35.806037,144.217059,2.0,1.0,1,$140_pw,House,December 2013,3568,2013,12,COHUNA,140,House,215031401
262,262,262,262,"151 KING GEORGE STREET, COHUNA",-35.802147,144.215476,3.0,1.0,1,$170_pw,House,August 2013,3568,2013,8,COHUNA,170,House,215031401
263,263,263,263,"61 ROGERS ROAD, COIMADAI",-37.603882,144.515621,3.0,2.0,2,$310_Weekly,House,June 2013,3340,2013,6,COIMADAI,310,House,213041353
264,264,264,264,"7 ROSS STREET, COLAC EAST",-38.333639,143.568326,3.0,1.0,1,$280_pw,House,December 2013,3250,2013,12,EAST,280,House,217031472
265,265,265,265,"34 MURRAY STREET, COLAC EAST",-38.339894,143.590167,3.0,1.0,1,$200_pw,House,June 2013,3250,2013,6,EAST,200,House,217031472
266,266,266,266,"34 MURRAY STREET, COLAC EAST",-38.339894,143.590167,3.0,1.0,1,$200_pw,House,February 2013,3250,2013,2,EAST,200,House,217031472
267,267,267,267,"6295 PRINCES HIGHWAY, COLAC EAST",-38.326758,143.624725,3.0,1.0,2,$170_pw,House,June 2013,3250,2013,6,EAST,170,House,217031473
268,268,268,268,"74 FOREST STREET, COLAC EAST",-38.341675,143.606591,3.0,1.0,1,$250_pw,House,February 2013,3250,2013,2,EAST,250,House,217031472
269,269,269,269,"5A MARKS STREET, COLAC",-38.338987,143.575414,1.0,1.0,1,$160_pw,none,November 2013,3250,2013,11,COLAC,160,Other,217031472
270,270,270,270,"13 LEAH STREET, COLAC",-38.343636,143.60051,3.0,1.0,2,$325_per_week,House,October 2013,3250,2013,10,COLAC,325,House,217031472
271,271,271,271,"6 CHURCH STREET, COLBINABBIN",-36.591828,144.79356,3.0,1.0,0,$180_per_week,House,September 2013,3559,2013,9,COLBINABBIN,180,House,216011410
272,272,272,272,"18 CHEVIOT AVENUE, COLDSTREAM",-37.728222,145.384468,3.0,1.0,1,$335_Weekly,House,October 2013,3770,2013,10,COLDSTREAM,335,House,211051278
273,273,273,273,"18 CHEVIOT AVENUE, COLDSTREAM",-37.728222,145.384468,3.0,1.0,1,$335_p.w.,House,August 2013,3770,2013,8,COLDSTREAM,335,House,211051278
274,274,274,274,"18 CHEVIOT AVE, COLDSTREAM",-37.72822,145.38466,3.0,1.0,1,$335_per_week,none,October 2013,3770,2013,10,COLDSTREAM,335,Other,211051278
275,275,275,275,"18 CHEVIOT AVE, COLDSTREAM",-37.72822,145.38466,3.0,1.0,1,$335_per_week,none,July 2013,3770,2013,7,COLDSTREAM,335,Other,211051278
276,276,276,276,"39B KILLARA ROAD, COLDSTREAM",-37.7234335,145.4013246,2.0,1.0,2,$350_pw,House,September 2013,3770,2013,9,COLDSTREAM,350,House,211051278
277,277,277,277,"39B KILLARA ROAD, COLDSTREAM",-37.7234335,145.4013246,2.0,1.0,2,$350_per_week,House,February 2013,3770,2013,2,COLDSTREAM,350,House,211051278
278,278,278,278,"21 KILLARA ROAD, COLDSTREAM",-37.722431,145.390804,4.0,1.0,2,$440_per_week,Rental_residential,June 2013,3770,2013,6,COLDSTREAM,440,Other,211051278
279,279,279,279,"18A CHEVIOT AVE, COLDSTREAM",-37.72822,145.38466,2.0,2.0,1,$310_per_week,House,May 2013,3770,2013,5,COLDSTREAM,310,House,211051278
280,280,280,280,"26 SOUTH GATEWAY, COLDSTREAM",-37.730695,145.380738,4.0,1.0,1,$400_per_week,House,November 2013,3770,2013,11,COLDSTREAM,400,House,211051278
281,281,281,281,"26 SOUTH GATEWAY, COLDSTREAM",-37.730695,145.380738,4.0,1.0,1,$400_per_week,House,February 2013,3770,2013,2,COLDSTREAM,400,House,211051278
282,282,282,282,"73 MCCONOCHIE STREET, COLERAINE",-37.602055,141.691438,4.0,1.0,0,$170_pw,none,November 2013,3315,2013,11,COLERAINE,170,Other,217011423
283,283,283,283,"7 MCCONOCHIE STREET, COLERAINE",-37.603035,141.699576,2.0,1.0,0,$140_Weekly,none,December 2013,3315,2013,12,COLERAINE,140,Other,217011423
284,284,284,284,"5/1 PEEL STREET, COLLINGWOOD",-37.805274,144.983734,1.0,1.0,1,$385_per_week,Rental_residential,February 2013,3066,2013,2,COLLINGWOOD,385,Other,206071141
285,285,285,285,"305/10 STANLEY STREET, COLLINGWOOD",-37.80182,144.984563,3.0,1.0,1,$620_p.w.,Rental_residential,August 2013,3066,2013,8,COLLINGWOOD,620,Other,206071141
286,286,286,286,"305/10 STANLEY STREET, COLLINGWOOD",-37.80182,144.984563,3.0,1.0,1,$630_p.w.,Rental_residential,June 2013,3066,2013,6,COLLINGWOOD,630,Other,206071141
287,287,287,287,"506/45 VICTORIA PARADE, COLLINGWOOD",-37.808694,144.984082,1.0,1.0,0,$260_per_week,Rental_residential,December 2013,3066,2013,12,COLLINGWOOD,260,Other,206071141
288,288,288,288,"2.04/46 CAMBRIDGE STREET, COLLINGWOOD",-37.807575,144.985292,1.0,1.0,0,$320_pw,none,September 2013,3066,2013,9,COLLINGWOOD,320,Other,206071141
289,289,289,289,"2.04/46 CAMBRIDGE STREET, COLLINGWOOD",-37.807575,144.985292,1.0,1.0,0,$320_pw,none,August 2013,3066,2013,8,COLLINGWOOD,320,Other,206071141
290,290,290,290,"18/34 SMITH STREET, COLLINGWOOD",-37.807413,144.983606,1.0,1.0,1,$390_pw,Rental_residential,November 2013,3066,2013,11,COLLINGWOOD,390,Other,206071141
291,291,291,291,"5/15-17 BENDIGO STREET, COLLINGWOOD",-37.796087,144.992632,1.0,1.0,1,$260_pw,Rental_residential,January 2013,3066,2013,1,COLLINGWOOD,260,Other,206071141
292,292,292,292,"14/34 SMITH STREET, COLLINGWOOD",-37.8072953,144.9828207,1.0,1.0,1,$400_pw,Rental_residential,June 2013,3066,2013,6,COLLINGWOOD,400,Other,206071142
293,293,293,293,"11/99 OXFORD STREET, COLLINGWOOD",-37.80365372,144.98460388,1.0,1.0,1,$415_per_week,Unit,August 2013,3066,2013,8,COLLINGWOOD,415,Apartment,206071141
294,294,294,294,"80 KEELE STREET, COLLINGWOOD",-37.797126,144.988926,3.0,2.0,1,$720_pw,House,February 2013,3066,2013,2,COLLINGWOOD,720,House,206071141
295,295,295,295,"151 JOHNSTON STREET, COLLINGWOOD",-37.799711,144.990002,3.0,1.0,1,$640_pw,Townhouse,November 2013,3066,2013,11,COLLINGWOOD,640,House,206071141
296,296,296,296,"151 JOHNSTON STREET, COLLINGWOOD",-37.799711,144.990002,3.0,1.0,1,$650_pw,Townhouse,October 2013,3066,2013,10,COLLINGWOOD,650,House,206071141
297,297,297,297,"24/115 OXFORD STREET, COLLINGWOOD",-37.802621,144.984866,2.0,1.0,1,$600_per_week,none,June 2013,3066,2013,6,COLLINGWOOD,600,Other,206071141
298,298,298,298,"24/115 OXFORD STREET, COLLINGWOOD",-37.802621,144.984866,2.0,1.0,1,$650_per_week,none,June 2013,3066,2013,6,COLLINGWOOD,650,Other,206071141
299,299,299,299,"2/17 ALEXANDER STREET, COLLINGWOOD",-37.795758,144.991069,1.0,1.0,1,$250_per_week,none,January 2013,3066,2013,1,COLLINGWOOD,250,Other,206071141
300,300,300,300,"15/15-25 OXFORD STREET, COLLINGWOOD",-37.8076309,144.9840188,2.0,1.0,2,$475_pw,none,November 2013,3066,2013,11,COLLINGWOOD,475,Other,206071141
301,301,301,301,"274 SMITH STREET, COLLINGWOOD",-37.8010276,144.9839259,3.0,2.0,1,$850_p.w.,none,March 2013,3066,2013,3,COLLINGWOOD,850,Other,206071141
302,302,302,302,"117/3 HODDLE STREET, COLLINGWOOD",-37.8089283,144.9913524,2.0,1.0,2,$450_per_week,none,August 2013,3066,2013,8,COLLINGWOOD,450,Other,206071141
303,303,303,303,"108/10 STANLEY STREET, COLLINGWOOD",-37.80182,144.984563,2.0,2.0,1,$550_p.w.,none,December 2013,3066,2013,12,COLLINGWOOD,550,Other,206071141
304,304,304,304,"301/45 VICTORIA PARADE, COLLINGWOOD",-37.8087039,144.9841198,1.0,1.0,1,$375_pw,Rental_residential,February 2013,3066,2013,2,COLLINGWOOD,375,Other,206071141
305,305,305,305,"15/99 OXFORD STREET, COLLINGWOOD",-37.80752,144.983944,1.0,1.0,1,$395_per_week,Unit,June 2013,3066,2013,6,COLLINGWOOD,395,Apartment,206071141
306,306,306,306,"327/3 HODDLE STREET, COLLINGWOOD",-37.808908,144.991122,2.0,2.0,2,$550_per_week,Unit,November 2013,3066,2013,11,COLLINGWOOD,550,Apartment,206071141
307,307,307,307,"162 KEELE STREET, COLLINGWOOD",-37.79749,144.992525,2.0,1.0,0,$520_pw,House,May 2013,3066,2013,5,COLLINGWOOD,520,House,206071141
308,308,308,308,"9/78 OXFORD STREET, COLLINGWOOD",-37.807815,144.983906,1.0,1.0,1,$420_per_week,Available Now,July 2013,3066,2013,7,COLLINGWOOD,420,Other,206071141
309,309,309,309,"2/9-11 OTTER STREET, COLLINGWOOD",-37.800996,144.985087,2.0,1.0,1,$395_per_week,Rental_residential,July 2013,3066,2013,7,COLLINGWOOD,395,Other,206071141
310,310,310,310,"2/9-11 OTTER STREET, COLLINGWOOD",-37.800996,144.985087,2.0,1.0,1,$400_per_week,Rental_residential,June 2013,3066,2013,6,COLLINGWOOD,400,Other,206071141
311,311,311,311,"105/40 STANLEY STREET, COLLINGWOOD",-37.8021801,144.9853655,2.0,1.0,1,$480_per_week,Rental_residential,December 2013,3066,2013,12,COLLINGWOOD,480,Other,206071141
312,312,312,312,"235 KNIGHTS ROAD, CONGUPNA",-36.323892,145.458638,3.0,1.0,1,$250_pw,none,November 2013,3633,2013,11,CONGUPNA,250,Other,216031418
313,313,313,313,"46 VERNEY NORTH ROAD, CONGUPNA",-36.315988,145.415988,4.0,2.0,4,$480_pw,House,July 2013,3633,2013,7,CONGUPNA,480,House,216031418
314,314,314,314,"46 VERNEY NORTH ROAD, CONGUPNA",-36.315988,145.415988,4.0,2.0,4,$480_pw,House,May 2013,3633,2013,5,CONGUPNA,480,House,216031418
315,315,315,315,"165 FARRELL ROAD, CONGUPNA",-36.311099,145.451797,4.0,1.0,2,$310_pw,House,February 2013,3633,2013,2,CONGUPNA,310,House,216031418
316,316,316,316,"5 ABIGAIL COURT, CONNEWARRE",-38.193424,144.457807,3.0,2.0,2,$340_pw,House,November 2013,3228,2013,11,CONNEWARRE,340,House,203021044
317,317,317,317,"9 PLOUGHMAN PLACE, CONNEWARRE",-38.2367307,144.3686664,4.0,1.0,2,$400_Weekly,House,December 2013,3228,2013,12,CONNEWARRE,400,House,203031489
318,318,318,318,"9 PLOUGHMAN PLACE, CONNEWARRE",-38.2367307,144.3686664,4.0,1.0,2,$400_Weekly,House,November 2013,3228,2013,11,CONNEWARRE,400,House,203031489
319,319,319,319,"9 PLOUGHMAN PLACE, CONNEWARRE",-38.2367307,144.3686664,4.0,1.0,2,$400_Weekly,House,October 2013,3228,2013,10,CONNEWARRE,400,House,203031489
320,320,320,320,"13 AMBROSIA DRIVE, CONNEWARRE",-38.3040878,144.3139277,4.0,2.0,2,$380_pw,none,December 2013,3228,2013,12,CONNEWARRE,380,Other,203031053
321,321,321,321,"5 PLOUGHMAN PLACE, CONNEWARRE",-38.2367307,144.3686664,4.0,2.0,2,$380_p.w.,House,December 2013,3228,2013,12,CONNEWARRE,380,House,203031489
322,322,322,322,"29 PROMINENCE BOULEVARD, CONNEWARRE",-38.3040878,144.3139277,4.0,2.0,2,$380_pw,none,November 2013,3228,2013,11,CONNEWARRE,380,Other,203031053
323,323,323,323,"24 SOUTHWINDS ROAD, CONNEWARRE",-38.2358046,144.3680031,4.0,2.0,2,$380_per_week,House,November 2013,3228,2013,11,CONNEWARRE,380,House,203031489
324,324,324,324,"6 SETTLER'S PLACE, CONNEWARRE",-38.3040878,144.3139277,4.0,2.0,2,$400_per_week,House,November 2013,3228,2013,11,CONNEWARRE,400,House,203031053
325,325,325,325,"31 SALTBREEZE BOULEVARD, CONNEWARRE",-38.2358534,144.3745854,4.0,2.0,2,$395_per_week,House,November 2013,3228,2013,11,CONNEWARRE,395,House,203031489
326,326,326,326,"31 SALTBREEZE BOULEVARD, CONNEWARRE",-38.2358534,144.3745854,4.0,2.0,2,$380_pw,House,October 2013,3228,2013,10,CONNEWARRE,380,House,203031489
327,327,327,327,"31 SALTBREEZE BOULEVARD, CONNEWARRE",-38.2358534,144.3745854,4.0,2.0,2,$380_pw,House,September 2013,3228,2013,9,CONNEWARRE,380,House,203031489
328,328,328,328,"31 SALTBREEZE BOULEVARD, CONNEWARRE",-38.2358534,144.3745854,4.0,2.0,2,$400_pw,House,September 2013,3228,2013,9,CONNEWARRE,400,House,203031489
329,329,329,329,"31 SALTBREEZE BOULEVARD, CONNEWARRE",-38.2358534,144.3745854,4.0,2.0,2,$410_pw,House,August 2013,3228,2013,8,CONNEWARRE,410,House,203031489
330,330,330,330,"31 SALTBREEZE BOULEVARD, CONNEWARRE",-38.2358534,144.3745854,4.0,2.0,2,$420_pw,House,August 2013,3228,2013,8,CONNEWARRE,420,House,203031489
331,331,331,331,"31 SALTBREEZE BOULEVARD, CONNEWARRE",-38.2358534,144.3745854,4.0,2.0,2,$430_pw,House,July 2013,3228,2013,7,CONNEWARRE,430,House,203031489
332,332,332,332,"13 TYNTYNDER CLOSE, CONNEWARRE",-38.3040878,144.3139277,4.0,2.0,2,$380_per_week,House,October 2013,3228,2013,10,CONNEWARRE,380,House,203031053
333,333,333,333,"14 FRESHWATER DRIVE, CONNEWARRE",-38.2368922,144.3694495,4.0,2.0,2,$385_per_week,none,October 2013,3228,2013,10,CONNEWARRE,385,Other,203031489
334,334,334,334,"5 DAYBREAK AVENUE, CONNEWARRE",-38.2361351,144.3666933,4.0,2.0,2,$365_per_week,none,October 2013,3228,2013,10,CONNEWARRE,365,Other,203031489
335,335,335,335,"17 CAITLIN CHASE, CONNEWARRE",-38.2362662,144.3742753,4.0,2.0,2,$420_pw,none,October 2013,3228,2013,10,CONNEWARRE,420,Other,203031489
336,336,336,336,"26 BRIDGEWATER CIRCUIT, CONNEWARRE",-38.2378574,144.3710805,3.0,2.0,2,$360_p.w.,House,October 2013,3228,2013,10,CONNEWARRE,360,House,203031489
337,337,337,337,"36 WARRALILY BOULEVARD, CONNEWARRE",-38.2382812,144.3748033,4.0,4.0,2,$500_Weekly,House,October 2013,3228,2013,10,CONNEWARRE,500,House,203031489
338,338,338,338,"36 WARRALILY BOULEVARD, CONNEWARRE",-38.2382812,144.3748033,4.0,4.0,2,$500_Weekly,House,September 2013,3228,2013,9,CONNEWARRE,500,House,203031489
339,339,339,339,"16 SILVERCREST WAY, CONNEWARRE",-38.2374337,144.3749677,4.0,2.0,2,$430_per_week,none,October 2013,3228,2013,10,CONNEWARRE,430,Other,203031489
340,340,340,340,"24 LONGFORD CRESCENT, COOLAROO",-37.662608,144.928401,3.0,1.0,2,$300_per_week,House,January 2013,3048,2013,1,COOLAROO,300,House,210051243
341,341,341,341,"21 CHILDERS CRESCENT, COOLAROO",-37.660879,144.928919,3.0,1.0,1,$320_per_week,none,April 2013,3048,2013,4,COOLAROO,320,Other,210051243
342,342,342,342,"75 ALMURTA AVENUE, COOLAROO",-37.659898,144.927728,3.0,1.0,1,$320_per_week,none,October 2013,3048,2013,10,COOLAROO,320,Other,210051243
343,343,343,343,"24 BLIGH ST, COOMA",-36.4117843,145.0682096,3.0,1.0,1,$320_per_week,Residential,December 2013,3616,2013,12,COOMA,320,Other,216031419
346,346,346,346,"CARINYA/COTTA... NITHOLM ROAD, COOMA",-36.4117843,145.0682096,3.0,1.0,0,$210_per_week,Residential,August 2013,3616,2013,8,COOMA,210,Other,216031419
348,348,348,348,"1 EAST CAMP DR, COOMA",-36.4117843,145.0682096,4.0,2.0,2,$420_per_week,Residential,July 2013,3616,2013,7,COOMA,420,Other,216031419
349,349,349,349,"170 KANGAROO DRIVE, COOMOORA",-37.334035,144.200818,2.0,2.0,1,$180_pw,none,November 2013,3461,2013,11,COOMOORA,180,Other,201021011
350,350,350,350,"210 DAYLESFORD-MALMSBERY ROAD, COOMOORA",-37.325691,144.185619,4.0,1.0,0,$360,none,June 2013,3461,2013,6,COOMOORA,360,Other,201021011
351,351,351,351,"210 DAYLESFORD-MALMSBERY ROAD, COOMOORA",-37.325691,144.185619,4.0,1.0,0,$360,none,July 2013,3461,2013,7,COOMOORA,360,Other,201021011
352,352,352,352,"160 KANGAROO DRIVE, COOMOORA",-37.334653,144.19954,3.0,1.0,0,$300_per_week,none,April 2013,3461,2013,4,COOMOORA,300,Other,201021011
353,353,353,353,"231 RYANS ROAD, COONGULLA",-37.8938349,146.7884342,3.0,1.0,2,$230_pw,House,December 2013,3860,2013,12,COONGULLA,230,House,205051101
354,354,354,354,"31 RYANS ROAD, COONGULLA",-37.892595,146.785392,3.0,1.0,2,$220_Weekly,House,February 2013,3860,2013,2,COONGULLA,220,House,205051101
355,355,355,355,"31 RYANS ROAD, COONGULLA",-37.892595,146.785392,3.0,1.0,2,$220,House,January 2013,3860,2013,1,COONGULLA,220,House,205051101
356,356,356,356,"200 GALLUM ROAD, COORIEMUNGLE",-38.549749,143.161485,4.0,1.0,1,$220_p.w.,House,April 2013,3268,2013,4,COORIEMUNGLE,220,House,217031475
357,357,357,357,"635 BUNYIP RIVER ROAD, CORA LYNN",-38.138998,145.623274,3.0,1.0,2,$395_Weekly,none,December 2013,3814,2013,12,LYNN,395,Other,212011547
358,358,358,358,"635 BUNYIP RIVER ROAD, CORA LYNN",-38.138998,145.623274,3.0,1.0,2,$440_pw,none,December 2013,3814,2013,12,LYNN,440,Other,212011547
359,359,359,359,"635 BUNYIP RIVER ROAD, CORA LYNN",-38.138998,145.623274,3.0,1.0,2,$440_pw,none,August 2013,3814,2013,8,LYNN,440,Other,212011547
360,360,360,360,"635 BUNYIP RIVER RD, CORA LYNN",-38.138998,145.623274,3.0,1.0,2,$395_Weekly,House,November 2013,3814,2013,11,LYNN,395,House,212011547
361,361,361,361,"10 HAMELIN CLOSE, CORINELLA",-38.411935,145.43735,3.0,2.0,3,$280_pw,House,June 2013,3984,2013,6,CORINELLA,280,House,205031093
362,362,362,362,"12 GRANAULT PARADE, CORIO",-38.075683,144.365084,3.0,1.0,2,$235_per_week,none,December 2013,3214,2013,12,CORIO,235,Other,203021486
363,363,363,363,"6 VICKERS COURT, CORIO",-38.066614,144.354408,3.0,2.0,2,$310_per_week,House,September 2013,3214,2013,9,CORIO,310,House,203021486
364,364,364,364,"14 CARMARTHEN DRIVE, CORIO",-38.071341,144.356799,3.0,1.0,1,$240_p.w.,House,August 2013,3214,2013,8,CORIO,240,House,203021486
365,365,365,365,"14 CARMARTHEN DRIVE, CORIO",-38.071341,144.356799,3.0,1.0,1,$230_per_week,House,July 2013,3214,2013,7,CORIO,230,House,203021486
366,366,366,366,"42 BUFFALO AVENUE, CORIO",-38.074659,144.366752,3.0,1.0,2,$270,House,November 2013,3214,2013,11,CORIO,270,House,203021486
367,367,367,367,"89 COLORADO DRIVE, CORIO",-38.078145,144.350478,3.0,1.0,1,$245_Weekly,House,November 2013,3214,2013,11,CORIO,245,House,203021486
368,368,368,368,"89 COLORADO DRIVE, CORIO",-38.078145,144.350478,3.0,1.0,1,$245_Weekly,House,October 2013,3214,2013,10,CORIO,245,House,203021486
369,369,369,369,"5 CAITHNESS CRESCENT, CORIO",-38.073268,144.356933,3.0,1.0,3,$285_pw,Rental_residential,December 2013,3214,2013,12,CORIO,285,Other,203021486
370,370,370,370,"5 CAITHNESS CRESCENT, CORIO",-38.073268,144.356933,3.0,1.0,3,$280_pw,Rental_residential,February 2013,3214,2013,2,CORIO,280,Other,203021486
371,371,371,371,"6 ARMALITE COURT, CORIO",-38.069292,144.351343,3.0,1.0,2,$270_p.w.,Rental_residential,April 2013,3214,2013,4,CORIO,270,Other,203021486
372,372,372,372,"3/8-9 FIELDMAN COURT, CORIO",-38.068974,144.350346,2.0,1.0,1,$250_pw,none,October 2013,3214,2013,10,CORIO,250,Other,203021486
373,373,373,373,"4 CHESHIRE STREET, CORIO",-38.073003,144.353327,3.0,1.0,4,$280_per_week,none,April 2013,3214,2013,4,CORIO,280,Other,203021486
374,374,374,374,"79 GELLIBRAND STREET, CORONET BAY",-38.4312979,145.44152,3.0,1.0,1,$220_per_week,House,July 2013,3984,2013,7,BAY,220,House,205031093
375,375,375,375,"4 OCEANAIRES AVENUE, CORONET BAY",-38.434819,145.444068,3.0,1.0,0,$225_pw,House,January 2013,3984,2013,1,BAY,225,House,205031093
376,376,376,376,"31 CUTTY SARK ROAD, CORONET BAY",-38.43893,145.442569,3.0,1.0,1,$240_pw,House,May 2013,3984,2013,5,BAY,240,House,205031093
377,377,377,377,"1922 MIDLAND HIGHWAY, COROP",-36.458016,144.795608,2.0,1.0,2,$150_per_week,House,September 2013,3559,2013,9,COROP,150,House,216011410
378,378,378,378,"523 CORANGAMITE LAKE ROAD, COROROOKE",-38.2890562,143.5225133,3.0,1.0,2,$185_pw,none,August 2013,3254,2013,8,COROROOKE,185,Other,217031473
379,379,379,379,"567 CORANGAMITE LAKE ROAD, COROROOKE",-38.285328,143.521878,3.0,2.0,4,$220_per_week,House,March 2013,3254,2013,3,COROROOKE,220,House,217031473
380,380,380,380,"585 CORANGAMITE LAKE ROAD, COROROOKE",-38.283794,143.521623,3.0,1.0,1,$260_pw,House,December 2013,3254,2013,12,COROROOKE,260,House,217031473
381,381,381,381,"585 CORANGAMITE LAKE ROAD, COROROOKE",-38.283794,143.521623,3.0,1.0,1,$260_pw,House,January 2013,3254,2013,1,COROROOKE,260,House,217031473
382,382,382,382,"1420 HEIDELBERG-KINGLAKE ROAD, COTTLES BRIDGE",-37.613713,145.235858,3.0,2.0,0,$400_per_week,House,January 2013,3099,2013,1,BRIDGE,400,House,209031212
383,383,383,383,"655 COTTLES BRIDGE ROAD, COTTLES BRIDGE",-37.571148,145.224337,4.0,1.0,0,$420_per_week,House,January 2013,3099,2013,1,BRIDGE,420,House,209031212
384,384,384,384,"24 ROBERT DRIVE, COWES",-38.454765,145.232476,3.0,2.0,2,$1150_per_week,House,September 2013,3922,2013,9,COWES,1150,House,205031091
385,385,385,385,"24 ROBERT DRIVE, COWES",-38.454765,145.232476,3.0,2.0,2,$1150_per_week,House,March 2013,3922,2013,3,COWES,1150,House,205031091
386,386,386,386,"2 ALBANY ROAD, COWES",-38.460919,145.237549,3.0,1.0,1,$250_Weekly,House,October 2013,3922,2013,10,COWES,250,House,205031091
387,387,387,387,"28 VENTNOR ROAD, COWES",-38.463208,145.203356,3.0,1.0,0,$240_per_week,House,June 2013,3922,2013,6,COWES,240,House,205031091
388,388,388,388,"39 SETTLEMENT ROAD, COWES",-38.456512,145.254517,3.0,2.0,2,$330_per_week,House,August 2013,3922,2013,8,COWES,330,House,205031091
389,389,389,389,"18 ROBERT DRIVE, COWES",-38.454835,145.231753,3.0,2.0,2,$240_per_week,House,July 2013,3922,2013,7,COWES,240,House,205031091
390,390,390,390,"11 POBBLEBONK PLACE, COWES",-38.4567102,145.2240183,3.0,2.0,2,$380_Weekly,House,October 2013,3922,2013,10,COWES,380,House,205031091
391,391,391,391,"4 GREVILIA CLOSE, COWES",-38.461693,145.241374,3.0,2.0,2,$340_per_week,House,October 2013,3922,2013,10,COWES,340,House,205031091
392,393,393,393,"4/210 CHURCH STREET, COWES",-38.4522322,145.2241362,2.0,1.0,1,$220_per_week,House,March 2013,3922,2013,3,COWES,220,House,205031091
393,394,394,394,"4/210 CHURCH ST, COWES",-38.4522322,145.2241362,2.0,1.0,1,$220_Weekly,House,March 2013,3922,2013,3,COWES,220,House,205031091
394,395,395,395,"2 GREVILIA CLOSE, COWES",-38.461625,145.241525,3.0,2.0,2,$265_per_week,House,March 2013,3922,2013,3,COWES,265,House,205031091
395,396,396,396,"2 GREVILIA CL, COWES",-38.461625,145.241525,3.0,2.0,2,$265_Weekly,House,March 2013,3922,2013,3,COWES,265,House,205031091
396,397,397,397,"4/35 CHAPEL STREET, COWES",-38.450944,145.24391,2.0,1.0,1,$210_per_week,Rental_residential,February 2013,3922,2013,2,COWES,210,Other,205031091
397,398,398,398,"32 MCHAFFIE DRIVE, COWES",-38.453612,145.224815,2.0,1.0,6,$230_per_week,House,June 2013,3922,2013,6,COWES,230,House,205031091
398,399,399,399,"1/4 GRANDVIEW GROVE, COWES",-38.45692444,145.23738098,3.0,2.0,1,$240_pw,none,October 2013,3922,2013,10,COWES,240,Other,205031091
399,400,400,400,"41-43 MAIN ROAD, COWWARR",-38.014385,146.695867,4.0,1.0,2,$230_per_week,House,June 2013,3857,2013,6,COWWARR,230,House,205051102
400,401,401,401,"41-43 MAIN ROAD, COWWARR",-38.014385,146.695867,4.0,1.0,2,$230_per_week,House,May 2013,3857,2013,5,COWWARR,230,House,205051102
401,402,402,402,"41-43 MAIN ROAD, COWWARR",-38.014385,146.695867,4.0,1.0,2,$250_per_week,House,April 2013,3857,2013,4,COWWARR,250,House,205051102
402,403,403,403,"2813 TRARALGON-MAFFRA ROAD, COWWARR",-38.0146325,146.7008645,3.0,1.0,2,$300_per_week,none,July 2013,3857,2013,7,COWWARR,300,Other,205051102
403,404,404,404,"41 MAIN STREET, COWWARR",-38.014546,146.695924,3.0,1.0,1,$230_Weekly,House,August 2013,3857,2013,8,COWWARR,230,House,205051102
404,405,405,405,"41 MAIN STREET, COWWARR",-38.014546,146.695924,3.0,1.0,1,$230_Weekly,House,June 2013,3857,2013,6,COWWARR,230,House,205051102
405,406,406,406,"2813 TRARALGON MAFFRA ROAD, COWWARR",-38.014632,146.700864,3.0,1.0,2,$300_per_week,none,February 2013,3857,2013,2,COWWARR,300,Other,205051102
407,408,408,408,"63 THORESBY CIRCLE, CRAIGIE",-37.1039158,143.7758537,3.0,2.0,2,$310,none,May 2013,3465,2013,5,CRAIGIE,310,Other,201031017
408,409,409,409,"22 STOCKTON STREET, CRAIGIEBURN",-37.605254,144.941661,3.0,1.0,1,$290_per_week,Rental_residential,October 2013,3064,2013,10,CRAIGIEBURN,290,Other,210051443
409,410,410,410,"64 CORRINGA WAY, CRAIGIEBURN",-37.585886,144.91407,3.0,2.0,2,$320_pw,Available Now,December 2013,3064,2013,12,CRAIGIEBURN,320,Other,210051543
410,411,411,411,"64 CORRINGA WAY, CRAIGIEBURN",-37.585886,144.91407,3.0,2.0,2,$320_per_week,Available Now,May 2013,3064,2013,5,CRAIGIEBURN,320,Other,210051543
411,412,412,412,"64 CORRINGA WAY, CRAIGIEBURN",-37.585886,144.91407,3.0,2.0,2,$320_pw,Available Now,April 2013,3064,2013,4,CRAIGIEBURN,320,Other,210051543
412,413,413,413,"64 CORRINGA WAY, CRAIGIEBURN",-37.585886,144.91407,3.0,2.0,2,$320_Weekly,Available Now,March 2013,3064,2013,3,CRAIGIEBURN,320,Other,210051543
413,414,414,414,"2 WOODLANDS COURT, CRAIGIEBURN",-37.592569,144.929748,3.0,1.0,2,$320_p.w.,none,September 2013,3064,2013,9,CRAIGIEBURN,320,Other,210051441
414,415,415,415,"40 GREVILLEA STREET, CRAIGIEBURN",-37.582832,144.908599,4.0,2.0,2,$360_per_week,House,August 2013,3064,2013,8,CRAIGIEBURN,360,House,210051543
415,416,416,416,"80A ROYAL TERRACE, CRAIGIEBURN",-37.5721964,144.9272265,3.0,2.0,1,$335_per_week,Rental_residential,October 2013,3064,2013,10,CRAIGIEBURN,335,Other,210051442
416,417,417,417,"39 DAYMAR CIRCUIT, CRAIGIEBURN",-37.5847994,144.9099262,3.0,3.0,2,$330_per_week,none,June 2013,3064,2013,6,CRAIGIEBURN,330,Other,210051543
417,418,418,418,"22 FOLGER ROAD, CRAIGIEBURN",-37.5845781,144.9083648,2.0,1.0,4,$280_pw,none,March 2013,3064,2013,3,CRAIGIEBURN,280,Other,210051543
418,419,419,419,"3 EGTON COURT, CRAIGIEBURN",-37.59984,144.932267,3.0,2.0,2,$300_per_week,Rental_residential,July 2013,3064,2013,7,CRAIGIEBURN,300,Other,210051443
419,420,420,420,"3 EGTON COURT, CRAIGIEBURN",-37.59984,144.932267,3.0,2.0,2,$300_per_week,Rental_residential,January 2013,3064,2013,1,CRAIGIEBURN,300,Other,210051443
420,421,421,421,"274 WATERVIEW BOULEVARD, CRAIGIEBURN",-37.582363,144.907861,4.0,2.0,2,$375_pw,House,January 2013,3064,2013,1,CRAIGIEBURN,375,House,210051543
421,422,422,422,"12 HUMBER STREET, CRAIGIEBURN",-37.5714937,144.9168606,4.0,2.0,2,$360_p.w.,House,May 2013,3064,2013,5,CRAIGIEBURN,360,House,210051442
422,423,423,423,"39 CARLISLE STREET, CRAIGIEBURN",-37.601518,144.937935,3.0,2.0,2,$320_pw,House,July 2013,3064,2013,7,CRAIGIEBURN,320,House,210051443
423,424,424,424,"39 CARLISLE STREET, CRAIGIEBURN",-37.601518,144.937935,3.0,2.0,2,$320_Weekly,House,June 2013,3064,2013,6,CRAIGIEBURN,320,House,210051443
424,425,425,425,"6 LARKWOOD LANE, CRAIGIEBURN",-37.607651,144.919158,3.0,1.0,1,$320_Weekly,House,March 2013,3064,2013,3,CRAIGIEBURN,320,House,210051443
425,426,426,426,"24/60 CRADLE MOUNTAIN DRIVE, CRAIGIEBURN",-37.5739808,144.9235038,3.0,2.0,2,$335_per_week,Townhouse,April 2013,3064,2013,4,CRAIGIEBURN,335,House,210051442
426,427,427,427,"23 HANSON ROAD, CRAIGIEBURN",-37.596284,144.937412,4.0,2.0,2,$365_pw,House,July 2013,3064,2013,7,CRAIGIEBURN,365,House,210051441
427,428,428,428,"23 HANSON ROAD, CRAIGIEBURN",-37.596284,144.937412,4.0,2.0,2,$365_per_week,House,June 2013,3064,2013,6,CRAIGIEBURN,365,House,210051441
428,429,429,429,"54 GILLINGHAM CRESCENT, CRAIGIEBURN",-37.604385,144.931673,3.0,1.0,1,$285_pw,House,December 2013,3064,2013,12,CRAIGIEBURN,285,House,210051443
429,430,430,430,"46 HIGHBURY CIRCUIT, CRAIGIEBURN",-37.582291,144.925788,3.0,2.0,2,$330_Weekly,House,September 2013,3064,2013,9,CRAIGIEBURN,330,House,210051442
430,431,431,431,"46 HIGHBURY CIRCUIT, CRAIGIEBURN",-37.582291,144.925788,3.0,2.0,2,$330_per_week,House,August 2013,3064,2013,8,CRAIGIEBURN,330,House,210051442
431,432,432,432,"46 HIGHBURY CIRCUIT, CRAIGIEBURN",-37.582291,144.925788,3.0,2.0,2,$340_per_week,House,April 2013,3064,2013,4,CRAIGIEBURN,340,House,210051442
432,433,433,433,"14 WATFORD CRESCENT, CRAIGIEBURN",-37.593896,144.921463,3.0,1.0,3,$300_pw,House,April 2013,3064,2013,4,CRAIGIEBURN,300,House,210051441
433,434,434,434,"15 CORNWELL CRESCENT, CRANBOURNE EAST",-38.097277,145.297087,4.0,2.0,2,$340_pw,House,March 2013,3977,2013,3,EAST,340,House,212031557
434,435,435,435,"22 DAN MORGAN DRIVE, CRANBOURNE EAST",-38.099713,145.318784,4.0,2.0,2,$400_pw,House,May 2013,3977,2013,5,EAST,400,House,212031557
435,436,436,436,"86 MOUNTAINVIEW BOULEVARD, CRANBOURNE NORTH",-38.081956,145.322394,4.0,2.0,2,$370_Weekly,House,October 2013,3977,2013,10,NORTH,370,House,212031559
436,437,437,437,"86 MOUNTAINVIEW BOULEVARD, CRANBOURNE NORTH",-38.081956,145.322394,4.0,2.0,2,$370_pw,House,March 2013,3977,2013,3,NORTH,370,House,212031559
437,438,438,438,"16 KINDRED AVENUE, CRANBOURNE NORTH",-38.072941,145.317208,3.0,2.0,2,$390_per_week,House,September 2013,3977,2013,9,NORTH,390,House,212031559
438,439,439,439,"46 BRENTWOOD DRIVE, CRANBOURNE NORTH",-38.080288,145.286315,3.0,2.0,2,$320_per_week,House,February 2013,3977,2013,2,NORTH,320,House,212031560
439,440,440,440,"37 HUON PARK ROAD, CRANBOURNE NORTH",-38.074541,145.275972,4.0,2.0,4,$300_per_week,House,August 2013,3977,2013,8,NORTH,300,House,212031560
440,441,441,441,"63 ENDEAVOUR DRIVE, CRANBOURNE NORTH",-38.079759,145.265624,3.0,1.0,2,$295_per_week,House,January 2013,3977,2013,1,NORTH,295,House,212031560
441,442,442,442,"30 KINDRED AVENUE, CRANBOURNE NORTH",-38.0724911,145.3173022,3.0,2.0,2,$365_per_week,House,November 2013,3977,2013,11,NORTH,365,House,212031559
442,443,443,443,"30 KINDRED AVENUE, CRANBOURNE NORTH",-38.0724911,145.3173022,3.0,2.0,2,$380_per_week,House,November 2013,3977,2013,11,NORTH,380,House,212031559
443,444,444,444,"30 KINDRED AVENUE, CRANBOURNE NORTH",-38.0724911,145.3173022,3.0,2.0,2,$390_per_week,House,February 2013,3977,2013,2,NORTH,390,House,212031559
444,445,445,445,"30 KINDRED AVENUE, CRANBOURNE NORTH",-38.0724911,145.3173022,3.0,2.0,2,$390_per_week,House,January 2013,3977,2013,1,NORTH,390,House,212031559
445,446,446,446,"134 BROWNS ROAD, CRANBOURNE SOUTH",-38.151027,145.251109,5.0,2.0,1,$455_per_week,House,August 2013,3977,2013,8,SOUTH,455,House,212031303
446,447,447,447,"134 BROWNS ROAD, CRANBOURNE SOUTH",-38.151027,145.251109,5.0,2.0,1,$455_pw,House,July 2013,3977,2013,7,SOUTH,455,House,212031303
447,448,448,448,"134 BROWNS ROAD, CRANBOURNE SOUTH",-38.151027,145.251109,5.0,2.0,1,$470_per_week,House,June 2013,3977,2013,6,SOUTH,470,House,212031303
448,449,449,449,"134 BROWNS ROAD, CRANBOURNE SOUTH",-38.151027,145.251109,5.0,2.0,1,$470_per_week,House,May 2013,3977,2013,5,SOUTH,470,House,212031303
449,450,450,450,"134 BROWNS ROAD, CRANBOURNE SOUTH",-38.151027,145.251109,5.0,2.0,1,$495_per_week,House,February 2013,3977,2013,2,SOUTH,495,House,212031303
450,451,451,451,"195 PEARCEDALE ROAD, CRANBOURNE SOUTH",-38.167914,145.241448,3.0,2.0,2,$600_Weekly,House,August 2013,3977,2013,8,SOUTH,600,House,212031303
451,452,452,452,"195 PEARCEDALE ROAD, CRANBOURNE SOUTH",-38.167914,145.241448,3.0,2.0,2,$600_Weekly,House,July 2013,3977,2013,7,SOUTH,600,House,212031303
452,453,453,453,"7 BAYLEY PLACE, CRANBOURNE WEST",-38.0960867,145.2678755,3.0,2.0,2,$365,House,July 2013,3977,2013,7,WEST,365,House,212031304
453,454,454,454,"7 BAYLEY PLACE, CRANBOURNE WEST",-38.0960867,145.2678755,3.0,2.0,2,$370_per_week,House,July 2013,3977,2013,7,WEST,370,House,212031304
454,455,455,455,"221 MONAHANS ROAD, CRANBOURNE WEST",-38.092549,145.268333,4.0,2.0,2,$340_per_week,House,January 2013,3977,2013,1,WEST,340,House,212031304
455,456,456,456,"11 CHARLOTTE PLACE, CRANBOURNE WEST",-38.10608,145.259639,4.0,2.0,2,$330_per_week,House,February 2013,3977,2013,2,WEST,330,House,212031304
456,457,457,457,"11 CHARLOTTE PLACE, CRANBOURNE WEST",-38.10608,145.259639,4.0,2.0,2,$330_per_week,House,January 2013,3977,2013,1,WEST,330,House,212031304
457,458,458,458,"19 MARNIE DRIVE, CRANBOURNE WEST",-38.102863,145.25812,3.0,1.0,0,$295_pw,Rental_residential,December 2013,3977,2013,12,WEST,295,Other,212031304
458,459,459,459,"19 MARNIE DRIVE, CRANBOURNE WEST",-38.102863,145.25812,3.0,1.0,0,$295_per_week,Rental_residential,November 2013,3977,2013,11,WEST,295,Other,212031304
459,460,460,460,"5 BLAINROE CRESCENT, CRANBOURNE",-38.121289,145.252817,4.0,2.0,2,$360_per_week,House,May 2013,3977,2013,5,CRANBOURNE,360,House,212031300
460,461,461,461,"3 HARRY STREET, CRANBOURNE",-38.10985,145.276055,3.0,1.0,1,$280_p.w.,Rental_residential,January 2013,3977,2013,1,CRANBOURNE,280,Other,212031300
461,462,462,462,"39 BELLBRAE CRESCENT, CRANBOURNE",-38.092001,145.260427,3.0,2.0,2,$325_Weekly,House,June 2013,3977,2013,6,CRANBOURNE,325,House,212031304
462,463,463,463,"19 RIMFIRE CRESCENT, CRANBOURNE",-38.113599,145.276866,3.0,1.0,2,$250_p.w.,House,March 2013,3977,2013,3,CRANBOURNE,250,House,212031300
463,464,464,464,"19 JILLIAN STREET, CRANBOURNE",-38.107651,145.274156,3.0,1.0,1,$300_per_week,Rental_residential,November 2013,3977,2013,11,CRANBOURNE,300,Other,212031300
464,465,465,465,"302 CASEY FIELDS BOULEVARD, CRANBOURNE",-38.1162918,145.3070398,3.0,2.0,2,$350_Weekly,House,December 2013,3977,2013,12,CRANBOURNE,350,House,212031558
465,466,466,466,"302 CASEY FIELDS BOULEVARD, CRANBOURNE",-38.1162918,145.3070398,3.0,2.0,2,$350_Weekly,House,July 2013,3977,2013,7,CRANBOURNE,350,House,212031558
466,467,467,467,"302 CASEY FIELDS BOULEVARD, CRANBOURNE",-38.1162918,145.3070398,3.0,2.0,2,$360_Weekly,House,June 2013,3977,2013,6,CRANBOURNE,360,House,212031558
467,468,468,468,"10 HELMSDALE COURT, CRANBOURNE",-38.094009,145.26451,3.0,1.0,2,$350_Weekly,House,December 2013,3977,2013,12,CRANBOURNE,350,House,212031304
468,469,469,469,"3 PIPETRACK CIRCUIT, CRANBOURNE",-38.107546,145.299711,4.0,2.0,2,$380_Weekly,House,October 2013,3977,2013,10,CRANBOURNE,380,House,212031557
469,470,470,470,"3 PIPETRACK CIRCUIT, CRANBOURNE",-38.107546,145.299711,4.0,2.0,2,$380_Weekly,House,September 2013,3977,2013,9,CRANBOURNE,380,House,212031557
470,471,471,471,"3 PIPETRACK CIRCUIT, CRANBOURNE",-38.107546,145.299711,4.0,2.0,2,$380_Weekly,House,August 2013,3977,2013,8,CRANBOURNE,380,House,212031557
471,472,472,472,"3 PIPETRACK CIRCUIT, CRANBOURNE",-38.107546,145.299711,4.0,2.0,2,$380_Weekly,House,June 2013,3977,2013,6,CRANBOURNE,380,House,212031557
472,473,473,473,"3 STONEHAVEN AVENUE, CRANBOURNE",-38.120729,145.251845,3.0,2.0,2,$395_per_week,House,January 2013,3977,2013,1,CRANBOURNE,395,House,212031300
473,474,474,474,"4 MCLAREN AVENUE, CRANBOURNE",-38.108197,145.279884,3.0,1.0,4,$300_Weekly,House,January 2013,3977,2013,1,CRANBOURNE,300,House,212031300
474,475,475,475,"19 CHALLENGER CIRCUIT, CRANBOURNE",-38.1083474,145.2844247,3.0,2.0,1,$350_Weekly,House,June 2013,3977,2013,6,CRANBOURNE,350,House,212031300
475,476,476,476,"21 TAYLOR STREET, CRANBOURNE",-38.109016,145.272645,3.0,1.0,1,$300_Weekly,House,July 2013,3977,2013,7,CRANBOURNE,300,House,212031300
476,477,477,477,"73 COURTENAY AVENUE, CRANBOURNE",-38.078379,145.281636,3.0,1.0,1,$300_pw,House,October 2013,3977,2013,10,CRANBOURNE,300,House,212031560
477,478,478,478,"73 COURTENAY AVENUE, CRANBOURNE",-38.078379,145.281636,3.0,1.0,1,$300_Weekly,House,August 2013,3977,2013,8,CRANBOURNE,300,House,212031560
478,479,479,479,"73 COURTENAY AVENUE, CRANBOURNE",-38.078379,145.281636,3.0,1.0,1,$300_Weekly,House,July 2013,3977,2013,7,CRANBOURNE,300,House,212031560
479,480,480,480,"73 COURTENAY AVENUE, CRANBOURNE",-38.078379,145.281636,3.0,1.0,1,$290_Weekly,House,April 2013,3977,2013,4,CRANBOURNE,290,House,212031560
480,481,481,481,"40 CUNNINGHAM CHASE, BURNSIDE HEIGHTS",-37.735431,144.761693,3.0,2.0,2,$330_Weekly,none,November 2013,3023,2013,11,HEIGHTS,330,Other,213041462
481,482,482,482,"60 WILLS TERRACE, BURNSIDE HEIGHTS",-37.7304327,144.7568557,4.0,2.0,2,$370_pw,House,July 2013,3023,2013,7,HEIGHTS,370,House,213041462
482,483,483,483,"1/7 KATRINA DRIVE, BURNSIDE HEIGHTS",-37.729215,144.757724,3.0,2.0,1,$320,none,April 2013,3023,2013,4,HEIGHTS,320,Other,213041462
483,484,484,484,"1/7 KATRINA DRIVE, BURNSIDE HEIGHTS",-37.729215,144.757724,3.0,2.0,1,$320,none,February 2013,3023,2013,2,HEIGHTS,320,Other,213041462
484,485,485,485,"13 FLORIDA COURT, BURNSIDE HEIGHTS",-37.7360365,144.7495748,3.0,2.0,2,$330_pw,House,May 2013,3023,2013,5,HEIGHTS,330,House,213041462
485,486,486,486,"42 CUNNINGHAM CHASE, BURNSIDE HEIGHTS",-37.735425,144.761561,3.0,2.0,2,$350_pw,Townhouse,March 2013,3023,2013,3,HEIGHTS,350,House,213041462
486,487,487,487,"181 TENTERFIELD DRIVE, BURNSIDE HEIGHTS",-37.735373,144.749425,3.0,2.0,2,$340_per_week,none,August 2013,3023,2013,8,HEIGHTS,340,Other,213041462
487,488,488,488,"11 WILLS TERRACE, BURNSIDE HEIGHTS",-37.732153,144.757773,3.0,2.0,2,$385_p.w.,House,December 2013,3023,2013,12,HEIGHTS,385,House,213041462
488,489,489,489,"11 WILLS TERRACE, BURNSIDE HEIGHTS",-37.732153,144.757773,3.0,2.0,2,$360_per_week,House,April 2013,3023,2013,4,HEIGHTS,360,House,213041462
489,490,490,490,"55 MANNY PAUL CIRCUIT, BURNSIDE HEIGHTS",-37.727677,144.757531,4.0,2.0,2,$375_p.w.,House,October 2013,3023,2013,10,HEIGHTS,375,House,213041462
490,491,491,491,"55 MANNY PAUL CIRCUIT, BURNSIDE HEIGHTS",-37.727677,144.757531,4.0,2.0,2,$375_pw,House,September 2013,3023,2013,9,HEIGHTS,375,House,213041462
491,492,492,492,"55 MANNY PAUL CCT, BURNSIDE HEIGHTS",-37.727677,144.757531,4.0,2.0,2,$375_p.w.,House,September 2013,3023,2013,9,HEIGHTS,375,House,213041462
492,493,493,493,"46 MIMOSA WAY, BURNSIDE HEIGHTS",-37.73678504,144.75042793,4.0,2.0,2,$350_per_week,House,December 2013,3023,2013,12,HEIGHTS,350,House,213041462
493,494,494,494,"39 GIVERNY CLOSE, BURNSIDE HEIGHTS",-37.725305,144.751652,4.0,2.0,2,$375_Weekly,House,November 2013,3023,2013,11,HEIGHTS,375,House,213041462
494,495,495,495,"11 REGENT CLOSE, BURNSIDE HEIGHTS",-37.7255447,144.7513136,4.0,2.0,2,$360_pw,House,March 2013,3023,2013,3,HEIGHTS,360,House,213041462
495,496,496,496,"27 BELLVILLE CLOSE, BURNSIDE HEIGHTS",-37.7264289,144.7530183,3.0,2.0,2,$330_per_week,House,September 2013,3023,2013,9,HEIGHTS,330,House,213041462
496,497,497,497,"37 BATMAN STREET, BURNSIDE HEIGHTS",-37.733364,144.762185,4.0,3.0,2,$395_per_week,House,May 2013,3023,2013,5,HEIGHTS,395,House,213041462
497,498,498,498,"13 GIVERNY CLOSE, BURNSIDE HEIGHTS",-37.724697,144.750784,4.0,2.0,2,$380_pw,none,June 2013,3023,2013,6,HEIGHTS,380,Other,213041462
498,499,499,499,"13 GIVERNY CLOSE, BURNSIDE HEIGHTS",-37.724697,144.750784,4.0,2.0,2,$360_per_week,none,April 2013,3023,2013,4,HEIGHTS,360,Other,213041462
499,500,500,500,"7 BURKE ROAD, BURNSIDE HEIGHTS",-37.733581,144.758083,4.0,2.0,2,$430_per_week,Rental_residential,August 2013,3023,2013,8,HEIGHTS,430,Other,213041462
500,501,501,501,"26 FREELANDS DRIVE, BURNSIDE HEIGHTS",-37.73771,144.752627,4.0,2.0,2,$360,House,May 2013,3023,2013,5,HEIGHTS,360,House,213041462
501,502,502,502,"15 WYLIE CIRCUIT, BURNSIDE HEIGHTS",-37.73201578,144.75406918,4.0,2.0,2,$390_per_week,House,December 2013,3023,2013,12,HEIGHTS,390,House,213041462
502,503,503,503,"1 CHIFLEY CIRCUIT, BURNSIDE HEIGHTS",-37.726732,144.761692,4.0,3.0,2,$390_per_week,Rental_residential,April 2013,3023,2013,4,HEIGHTS,390,Other,213041462
503,504,504,504,"1 CHIFLEY CIRCUIT, BURNSIDE HEIGHTS",-37.726732,144.761692,4.0,3.0,2,$390_per_week,Rental_residential,March 2013,3023,2013,3,HEIGHTS,390,Other,213041462
504,505,505,505,"10 GIVERNY CLOSE, BURNSIDE HEIGHTS",-37.724725,144.75135,3.0,2.0,2,$330_pw,House,May 2013,3023,2013,5,HEIGHTS,330,House,213041462
505,506,506,506,"10 GIVERNY CLOSE, BURNSIDE HEIGHTS",-37.724725,144.75135,3.0,2.0,2,$330_pw,House,April 2013,3023,2013,4,HEIGHTS,330,House,213041462
506,507,507,507,"35 MIMOSA WAY, BURNSIDE HEIGHTS",-37.737656,144.750383,4.0,2.0,2,$360_per_week,House,August 2013,3023,2013,8,HEIGHTS,360,House,213041462
507,508,508,508,"126 TENTERFIELD DRIVE, BURNSIDE HEIGHTS",-37.735202,144.755828,4.0,2.0,2,$360_per_week,House,November 2013,3023,2013,11,HEIGHTS,360,House,213041462
508,509,509,509,"6 HARWOOD COURT, BURNSIDE HEIGHTS",-37.737006,144.749734,4.0,2.0,2,$349_per_week,House,December 2013,3023,2013,12,HEIGHTS,349,House,213041462
509,510,510,510,"6 HARWOOD COURT, BURNSIDE HEIGHTS",-37.737006,144.749734,4.0,2.0,2,$349_per_week,House,November 2013,3023,2013,11,HEIGHTS,349,House,213041462
510,511,511,511,"6 HARWOOD COURT, BURNSIDE HEIGHTS",-37.737006,144.749734,4.0,2.0,2,$395_per_week,House,September 2013,3023,2013,9,HEIGHTS,395,House,213041462
511,512,512,512,"6 HARWOOD COURT, BURNSIDE HEIGHTS",-37.737006,144.749734,4.0,2.0,2,$385_per_week,House,March 2013,3023,2013,3,HEIGHTS,385,House,213041462
512,513,513,513,"6 GIVERNY CLOSE, BURNSIDE HEIGHTS",-37.724961,144.75131,4.0,2.0,2,$350,House,May 2013,3023,2013,5,HEIGHTS,350,House,213041462
513,514,514,514,"63 BATMAN STREET, BURNSIDE HEIGHTS",-37.734202,144.760009,4.0,2.0,2,$390_per_week,House,June 2013,3023,2013,6,HEIGHTS,390,House,213041462
514,515,515,515,"8 CATANI COURT, BURNSIDE HEIGHTS",-37.72783239,144.7502395,4.0,2.0,2,$390_pw,House,September 2013,3023,2013,9,HEIGHTS,390,House,213041462
515,516,516,516,"8 CATANI COURT, BURNSIDE HEIGHTS",-37.72783239,144.7502395,4.0,2.0,2,$400_pw,House,September 2013,3023,2013,9,HEIGHTS,400,House,213041462
516,517,517,517,"29 BELLEVILLE CLOSE, BURNSIDE HEIGHTS",-37.7264289,144.7530183,4.0,2.0,2,$400_per_week,House,October 2013,3023,2013,10,HEIGHTS,400,House,213041462
517,518,518,518,"53 KATRINA DRIVE, BURNSIDE HEIGHTS",-37.7265029,144.757175,3.0,2.0,2,$395_per_week,House,March 2013,3023,2013,3,HEIGHTS,395,House,213041462
518,519,519,519,"27 BELLEVILLE CLOSE, BURNSIDE HEIGHTS",-37.7264289,144.7530183,3.0,2.0,2,$340_per_week,none,August 2013,3023,2013,8,HEIGHTS,340,Other,213041462
519,520,520,520,"29 MENZIES DRIVE, BURNSIDE HEIGHTS",-37.728059,144.763555,3.0,2.0,2,$350_p.w.,none,November 2013,3023,2013,11,HEIGHTS,350,Other,213041462
520,521,521,521,"1 WENTWORTH LANE, BURNSIDE HEIGHTS",-37.731142,144.7597052,2.0,1.0,1,$320_per_week,House,April 2013,3023,2013,4,HEIGHTS,320,House,213041462
521,522,522,522,"3 LEE PLACE, BURNSIDE HEIGHTS",-37.727432,144.75635,4.0,2.0,2,$370_p.w.,House,January 2013,3023,2013,1,HEIGHTS,370,House,213041462
522,523,523,523,"23 BELLEVILLE CLOSE, BURNSIDE HEIGHTS",-37.7247167,144.75356414,4.0,2.0,2,$390_per_week,House,June 2013,3023,2013,6,HEIGHTS,390,House,213041462
523,524,524,524,"23 BELLEVILLE CLOSE, BURNSIDE HEIGHTS",-37.7247167,144.75356414,4.0,2.0,2,$400_per_week,House,June 2013,3023,2013,6,HEIGHTS,400,House,213041462
524,525,525,525,"13 CATANI COURT, BURNSIDE HEIGHTS",-37.727872,144.751261,4.0,2.0,2,$430_pw,none,June 2013,3023,2013,6,HEIGHTS,430,Other,213041462
525,526,526,526,"13 CATANI COURT, BURNSIDE HEIGHTS",-37.727872,144.751261,4.0,2.0,2,$450_p.w.,none,June 2013,3023,2013,6,HEIGHTS,450,Other,213041462
526,527,527,527,"13 CATANI COURT, BURNSIDE HEIGHTS",-37.727872,144.751261,4.0,2.0,2,$450_pw,none,May 2013,3023,2013,5,HEIGHTS,450,Other,213041462
527,528,528,528,"6 BEECHWOOD GROVE, BURNSIDE HEIGHTS",-37.725549,144.759175,4.0,2.0,4,$450_Weekly,House,December 2013,3023,2013,12,HEIGHTS,450,House,213041462
528,529,529,529,"39 BELLEVILLE CLOSE, BURNSIDE HEIGHTS",-37.72506,144.753699,4.0,2.0,2,$360_per_week,none,May 2013,3023,2013,5,HEIGHTS,360,Other,213041462
529,530,530,530,"6 CHELSEA COURT, BURNSIDE HEIGHTS",-37.72885,144.753278,4.0,2.0,2,$450,House,March 2013,3023,2013,3,HEIGHTS,450,House,213041462
530,531,531,531,"54 FREELANDS DRIVE, BURNSIDE HEIGHTS",-37.739091,144.750893,4.0,2.0,2,$485_per_week,House,November 2013,3023,2013,11,HEIGHTS,485,House,213041462
531,532,532,532,"54 FREELANDS DRIVE, BURNSIDE HEIGHTS",-37.739091,144.750893,4.0,2.0,2,$485_per_week,House,October 2013,3023,2013,10,HEIGHTS,485,House,213041462
532,533,533,533,"3 WILKINS CRESCENT, BURNSIDE HEIGHTS",-37.730337,144.754785,4.0,2.0,2,$380_per_week,House,February 2013,3023,2013,2,HEIGHTS,380,House,213041462
533,534,534,534,"5 YELLOWGUM STREET, BURNSIDE HEIGHTS",-37.730507,144.755087,4.0,2.0,2,$420_per_week,none,May 2013,3023,2013,5,HEIGHTS,420,Other,213041462
534,535,535,535,"4 PEARTREE GROVE, BURNSIDE HEIGHTS",-37.734988,144.760793,4.0,2.0,2,$400_pw,House,April 2013,3023,2013,4,HEIGHTS,400,House,213041462
535,536,536,536,"7 HARWOOD COURT, BURNSIDE HEIGHTS",-37.737339,144.74939,3.0,2.0,2,$340_p.w.,House,May 2013,3023,2013,5,HEIGHTS,340,House,213041462
536,537,537,537,"12 HARWOOD COURT, BURNSIDE HEIGHTS",-37.736934,144.749293,3.0,2.0,2,$330_per_week,House,January 2013,3023,2013,1,HEIGHTS,330,House,213041462
537,538,538,538,"155 TENTERFIELD DRIVE, BURNSIDE HEIGHTS",-37.7352514,144.7511745,4.0,2.0,2,$420_per_week,none,October 2013,3023,2013,10,HEIGHTS,420,Other,213041462
538,539,539,539,"70 CUNNINGHAM CHASE, BURNSIDE HEIGHTS",-37.735367,144.75974,3.0,2.0,2,$375_per_week,none,May 2013,3023,2013,5,HEIGHTS,375,Other,213041462
539,540,540,540,"70 CUNNINGHAM CHASE, BURNSIDE HEIGHTS",-37.735367,144.75974,3.0,2.0,2,$390_per_week,none,May 2013,3023,2013,5,HEIGHTS,390,Other,213041462
540,541,541,541,"1 SAVIOUR ROAD, BURNSIDE HEIGHTS",-37.7263099,144.7571593,3.0,2.0,1,$395_p.w.,Townhouse,March 2013,3023,2013,3,HEIGHTS,395,House,213041462
541,542,542,542,"1 SAVIOUR ROAD, BURNSIDE HEIGHTS",-37.7263099,144.7571593,3.0,2.0,1,$395_per_week,Townhouse,February 2013,3023,2013,2,HEIGHTS,395,House,213041462
542,543,543,543,"18 WILKINS CRESCENT, BURNSIDE HEIGHTS",-37.731115,144.754174,3.0,2.0,1,$340_per_week,House,October 2013,3023,2013,10,HEIGHTS,340,House,213041462
543,544,544,544,"3 GREEN COURT, BURNSIDE HEIGHTS",-37.725729,144.753451,3.0,2.0,2,$350_Weekly,House,January 2013,3023,2013,1,HEIGHTS,350,House,213041462
544,545,545,545,"38 CUNNINGHAM CHASE, BURNSIDE HEIGHTS",-37.735439,144.761778,3.0,2.0,2,$350_per_week,House,February 2013,3023,2013,2,HEIGHTS,350,House,213041462
545,546,546,546,"38 CUNNINGHAM CHASE, BURNSIDE HEIGHTS",-37.735439,144.761778,3.0,2.0,2,$350_p.w.,House,January 2013,3023,2013,1,HEIGHTS,350,House,213041462
546,547,547,547,"18 BARTON ROAD, BURNSIDE HEIGHTS",-37.7263346,144.7576299,3.0,2.0,2,$420_per_week,House,December 2013,3023,2013,12,HEIGHTS,420,House,213041462
547,548,548,548,"16 LAWSON PLACE, BURNSIDE HEIGHTS",-37.73188463,144.7612325,3.0,2.0,2,$370_pw,House,July 2013,3023,2013,7,HEIGHTS,370,House,213041462
548,549,549,549,"21 CHIFLEY CIRCUIT, BURNSIDE HEIGHTS",-37.725867,144.763837,4.0,2.0,2,$390_pw,House,April 2013,3023,2013,4,HEIGHTS,390,House,213041462
549,550,550,550,"21 CHIFLEY CIRCUIT, BURNSIDE HEIGHTS",-37.725867,144.763837,4.0,2.0,2,$400_p.w.,House,March 2013,3023,2013,3,HEIGHTS,400,House,213041462
550,551,551,551,"15 CUNNINGHAM CHASE, BURNSIDE HEIGHTS",-37.734395,144.762709,3.0,2.0,2,$340_Weekly,House,October 2013,3023,2013,10,HEIGHTS,340,House,213041462
551,552,552,552,"104 TENTERFIELD DRIVE, BURNSIDE HEIGHTS",-37.735313,144.757924,4.0,2.0,2,$335_pw,House,May 2013,3023,2013,5,HEIGHTS,335,House,213041462
552,553,553,553,"4 LEICHHARDT AVENUE, BURNSIDE HEIGHTS",-37.733221,144.752045,3.0,2.0,2,$420_per_week,House,September 2013,3023,2013,9,HEIGHTS,420,House,213041462
553,554,554,554,"16 PERKINS GROVE, BURNSIDE",-37.754606,144.751083,3.0,2.0,2,$360_per_week,House,January 2013,3023,2013,1,BURNSIDE,360,House,213041461
554,555,555,555,"20 FYDLER AVENUE, BURNSIDE",-37.745066,144.747206,4.0,2.0,1,$330_per_week,House,July 2013,3023,2013,7,BURNSIDE,330,House,213041461
555,556,556,556,"20 FYDLER AVENUE, BURNSIDE",-37.745066,144.747206,4.0,2.0,1,$340_per_week,House,June 2013,3023,2013,6,BURNSIDE,340,House,213041461
556,557,557,557,"34 FYDLER AVENUE, BURNSIDE",-37.744412,144.747655,3.0,1.0,1,$360_per_week,House,August 2013,3023,2013,8,BURNSIDE,360,House,213041461
557,558,558,558,"4 PERKINS GROVE, BURNSIDE",-37.754572,144.749987,3.0,1.0,2,$310_per_week,House,September 2013,3023,2013,9,BURNSIDE,310,House,213041461
558,559,559,559,"4 PERKINS GROVE, BURNSIDE",-37.754572,144.749987,3.0,1.0,2,$300_per_week,House,September 2013,3023,2013,9,BURNSIDE,300,House,213041461
559,560,560,560,"3 GOULD PLACE, BURNSIDE",-37.751245,144.749376,3.0,1.0,1,$350_per_week,none,November 2013,3023,2013,11,BURNSIDE,350,Other,213041461
560,561,561,561,"3 GOULD PLACE, BURNSIDE",-37.751245,144.749376,3.0,1.0,1,$325_per_week,none,January 2013,3023,2013,1,BURNSIDE,325,Other,213041461
561,562,562,562,"5 WOOD GROVE, BURNSIDE",-37.753015,144.750316,3.0,1.0,3,$360_per_week,House,May 2013,3023,2013,5,BURNSIDE,360,House,213041461
562,563,563,563,"20 MOCKRIDGE AVENUE, BURNSIDE",-37.748992,144.744905,4.0,2.0,2,$350,House,February 2013,3023,2013,2,BURNSIDE,350,House,213041461
563,564,564,564,"17 STRICKLAND CRESCENT, BURNSIDE",-37.748297,144.74737,5.0,2.0,2,$380_per_week,House,June 2013,3023,2013,6,BURNSIDE,380,House,213041461
564,566,566,566,"2/30 HAWTHORN ROAD, BURWOOD EAST",-37.845777,145.155087,2.0,1.0,2,$375_pw,Rental_residential,December 2013,3151,2013,12,EAST,375,Other,207031166
565,567,567,567,"2/30 HAWTHORN ROAD, BURWOOD EAST",-37.845777,145.155087,2.0,1.0,2,$355_pw,Rental_residential,November 2013,3151,2013,11,EAST,355,Other,207031166
566,568,568,568,"394 BLACKBURN ROAD, BURWOOD EAST",-37.858416,145.150713,3.0,1.0,2,$345_p.w.,House,January 2013,3151,2013,1,EAST,345,House,207031166
567,569,569,569,"5 STATESMAN AVENUE, BURWOOD EAST",-37.850343,145.149631,3.0,1.0,1,$375_Weekly,House,June 2013,3151,2013,6,EAST,375,House,207031166
568,570,570,570,"38 BANBURY STREET, BURWOOD EAST",-37.856276,145.153301,4.0,2.0,2,$370_per_week,House,December 2013,3151,2013,12,EAST,370,House,207031166
569,571,571,571,"5 HIGHVIEW GROVE, BURWOOD EAST",-37.852819,145.146102,3.0,1.0,1,$420_Weekly,House,July 2013,3151,2013,7,EAST,420,House,207031166
570,572,572,572,"5 HIGHVIEW GROVE, BURWOOD EAST",-37.852819,145.146102,3.0,1.0,1,$440_pw,House,June 2013,3151,2013,6,EAST,440,House,207031166
571,573,573,573,"97 BURWOOD HIGHWAY, BURWOOD EAST",-37.850939,145.140001,3.0,1.0,2,$365_pw,House,May 2013,3151,2013,5,EAST,365,House,207031166
572,574,574,574,"15 TELOPEA PLACE, BURWOOD EAST",-37.846336,145.154481,3.0,2.0,2,$480_per_week,House,October 2013,3151,2013,10,EAST,480,House,207031166
573,575,575,575,"24 HAWTHORN ROAD, BURWOOD EAST",-37.84636688,145.16114807,6.0,2.0,2,$380_per_week,House,October 2013,3151,2013,10,EAST,380,House,207031166
574,576,576,576,"25 DOROTHY STREET, BURWOOD EAST",-37.854663,145.145829,3.0,1.0,1,$395_pw,House,June 2013,3151,2013,6,EAST,395,House,207031166
575,577,577,577,"5 HILLTOP CRESCENT, BURWOOD EAST",-37.852978,145.136226,3.0,1.0,1,$405_p.w.,House,April 2013,3151,2013,4,EAST,405,House,207031166
576,578,578,578,"5 HILLTOP CRESCENT, BURWOOD EAST",-37.852978,145.136226,3.0,1.0,1,$380_p.w.,House,January 2013,3151,2013,1,EAST,380,House,207031166
577,579,579,579,"1 CLYDEN COURT, BURWOOD EAST",-37.85263,145.147255,4.0,2.0,1,$520_pw,House,May 2013,3151,2013,5,EAST,520,House,207031166
578,580,580,580,"4 MALLAWA COURT, BURWOOD EAST",-37.858204,145.142978,3.0,1.0,1,$370_per_week,Rental_residential,July 2013,3151,2013,7,EAST,370,Other,207031166
579,581,581,581,"68A ROSLYN STREET, BURWOOD",-37.845154,145.103348,1.0,1.0,1,$250,none,June 2013,3125,2013,6,BURWOOD,250,Other,207031165
580,582,582,582,"68A ROSLYN STREET, BURWOOD",-37.845154,145.103348,1.0,1.0,1,$251_per_week,none,June 2013,3125,2013,6,BURWOOD,251,Other,207031165
581,583,583,583,"2/6 LA FRANK STREET, BURWOOD",-37.852503,145.127205,2.0,2.0,1,$430_pw,none,April 2013,3125,2013,4,BURWOOD,430,Other,207031165
582,584,584,584,"42/390 BURWOOD HIGHWAY, BURWOOD",-37.852279,145.130904,1.0,1.0,0,$205_per_week,Rental_residential,November 2013,3125,2013,11,BURWOOD,205,Other,207031165
583,585,585,585,"7 UGANDA STREET, BURWOOD",-37.84442,145.109282,4.0,2.0,1,$400_pw,none,August 2013,3125,2013,8,BURWOOD,400,Other,207031165
584,586,586,586,"58 ROSLYN STREET, BURWOOD",-37.845828,145.103217,4.0,1.0,2,$460_pw,none,January 2013,3125,2013,1,BURWOOD,460,Other,207031165
585,587,587,587,"1 ANDREWS STREET, BURWOOD",-37.850761,145.127473,4.0,1.0,2,$420_per_week,House,April 2013,3125,2013,4,BURWOOD,420,House,207031165
586,588,588,588,"1 ANDREWS STREET, BURWOOD",-37.850761,145.127473,4.0,1.0,2,$430_per_week,House,March 2013,3125,2013,3,BURWOOD,430,House,207031165
587,589,589,589,"6 CROPLEY COURT, BURWOOD",-37.847035,145.110279,3.0,1.0,1,$480_per_week,none,January 2013,3125,2013,1,BURWOOD,480,Other,207031165
588,590,590,590,"4 MAIDEN COURT, BURWOOD",-37.8577,145.109172,4.0,2.0,2,$730,none,October 2013,3125,2013,10,BURWOOD,730,Other,212051319
589,591,591,591,"1/2 FINCH STREET, BURWOOD",-37.851738,145.12391,3.0,2.0,2,$500_per_week,Townhouse,October 2013,3125,2013,10,BURWOOD,500,House,207031165
590,594,594,594,"2/365 BURWOOD HIGHWAY, BURWOOD",-37.851292,145.128462,4.0,2.0,2,$500_pw,Townhouse,February 2013,3125,2013,2,BURWOOD,500,House,207031165
591,595,595,595,"2/365 BURWOOD HIGHWAY, BURWOOD",-37.851292,145.128462,4.0,2.0,2,$500_pw,Townhouse,January 2013,3125,2013,1,BURWOOD,500,House,207031165
592,596,596,596,"5 SUNHILL AVENUE, BURWOOD",-37.856035,145.124937,3.0,1.0,1,$370_p.w.,House,January 2013,3125,2013,1,BURWOOD,370,House,207031165
593,597,597,597,"32 KILDARE STREET, BURWOOD",-37.844398,145.109015,4.0,1.0,1,$430_per_week,House,January 2013,3125,2013,1,BURWOOD,430,House,207031165
594,598,598,598,"2A RENOWN STREET, BURWOOD",-37.851639,145.122251,3.0,2.0,1,$445_pw,House,October 2013,3125,2013,10,BURWOOD,445,House,207031165
595,599,599,599,"17 CROMWELL ST, BURWOOD",-37.85218,145.105285,3.0,1.0,2,$450_Weekly,House,January 2013,3125,2013,1,BURWOOD,450,House,207031165
596,600,600,600,"55/390 BURWOOD HIGHWAY, BURWOOD",-37.852279,145.130904,1.0,1.0,0,$220_per_week,Rental_residential,September 2013,3125,2013,9,BURWOOD,220,Other,207031165
597,601,601,601,"15 CUMMING STREET, BURWOOD",-37.851446,145.11354,3.0,1.0,2,$410_pw,House,January 2013,3125,2013,1,BURWOOD,410,House,207031165
598,602,602,602,"2/14 WORRALL STREET, BURWOOD",-37.848597,145.13041,3.0,2.0,1,$440_per_week,none,May 2013,3125,2013,5,BURWOOD,440,Other,207031165
599,603,603,603,"2/14 WORRALL STREET, BURWOOD",-37.848597,145.13041,3.0,2.0,1,$460_per_week,none,April 2013,3125,2013,4,BURWOOD,460,Other,207031165
600,604,604,604,"17 LEOPOLD STREET, BURWOOD",-37.859097,145.096193,4.0,2.0,2,$775_pw,House,December 2013,3125,2013,12,BURWOOD,775,House,212051319
601,605,605,605,"17 LEOPOLD STREET, BURWOOD",-37.859097,145.096193,4.0,2.0,2,$370_pw,House,January 2013,3125,2013,1,BURWOOD,370,House,212051319
602,606,606,606,"208/224 BURWOOD HIGHWAY, BURWOOD",-37.8501171,145.1144686,2.0,2.0,0,$400_per_week,none,December 2013,3125,2013,12,BURWOOD,400,Other,207031165
603,607,607,607,"94 BRIDGE ROAD, BUSHFIELD",-38.322386,142.495382,3.0,1.0,1,$210_Weekly,Rental_residential,October 2013,3281,2013,10,BUSHFIELD,210,Other,217041479
604,608,608,608,"94 BRIDGE ROAD, BUSHFIELD",-38.322386,142.495382,3.0,1.0,1,$300_Weekly,Rental_residential,May 2013,3281,2013,5,BUSHFIELD,300,Other,217041479
605,609,609,609,"1/94 BRIDGE ROAD, BUSHFIELD",-38.322386,142.495382,1.0,1.0,0,$210_p.w.,House,October 2013,3281,2013,10,BUSHFIELD,210,House,217041479
606,610,610,610,"50 BRIDGE ROAD, BUSHFIELD",-38.322919,142.499847,5.0,2.0,3,$520_Weekly,Rental,March 2013,3281,2013,3,BUSHFIELD,520,Other,217041479
607,611,611,611,"50 BRIDGE ROAD, BUSHFIELD",-38.322919,142.499847,5.0,2.0,3,$495_p.w.,Rental,February 2013,3281,2013,2,BUSHFIELD,495,Other,217041479
608,612,612,612,"50 BRIDGE RD, BUSHFIELD",-38.322919,142.499847,5.0,3.0,3,$495_Weekly,none,February 2013,3281,2013,2,BUSHFIELD,495,Other,217041479
610,614,614,614,"53 SOUTH CATHEDRAL LANE, BUXTON",-37.387967,145.717803,1.0,1.0,1,$510_Wk,Cottage,March 2013,3711,2013,3,BUXTON,510,House,204011054
611,615,615,615,"19 MAREEBA AVENUE, BUXTON",-37.423476,145.704617,3.0,1.0,2,$280_Weekly,none,December 2013,3711,2013,12,BUXTON,280,Other,204011054
612,616,616,616,"19 MAREEBA AVE, BUXTON",-37.423476,145.704617,3.0,1.0,2,$280_Weekly,House,December 2013,3711,2013,12,BUXTON,280,House,204011054
613,617,617,617,"21 GWINGANNA PLACE, BUXTON",-37.424309,145.711813,1.0,1.0,0,$210_pw,House,September 2013,3711,2013,9,BUXTON,210,House,204011054
614,618,618,618,"21 GWINGANNA PLACE, BUXTON",-37.424309,145.711813,1.0,1.0,0,$210_Weekly,House,March 2013,3711,2013,3,BUXTON,210,House,204011054
615,619,619,619,"21 GWINGANNA PLACE, BUXTON",-37.424309,145.711813,1.0,1.0,0,$210_p.w.,House,January 2013,3711,2013,1,BUXTON,210,House,204011054
616,620,620,620,"16 WILLIAMS LANE, BUXTON",-37.423302,145.708957,5.0,1.0,0,$350_pw,House,December 2013,3711,2013,12,BUXTON,350,House,204011054
617,621,621,621,"16 WILLIAMS LANE, BUXTON",-37.423302,145.708957,5.0,1.0,0,$380_pw,House,January 2013,3711,2013,1,BUXTON,380,House,204011054
618,622,622,622,"184 SEVENTEENTH STREET, CABARITA",-34.203859,142.0914409,5.0,3.0,2,$600_Week,House,September 2013,3505,2013,9,CABARITA,600,House,215021396
619,623,623,623,"36 DYAR AVENUE, CABARITA",-34.2113883,142.0910871,4.0,2.0,2,$410_Week,Rental,October 2013,3505,2013,10,CABARITA,410,Other,215021396
620,624,624,624,"36 DYAR AVENUE, CABARITA",-34.2113883,142.0910871,4.0,2.0,2,$410_Week,Rental,September 2013,3505,2013,9,CABARITA,410,Other,215021396
621,625,625,625,"113 DYAR AVENUE, CABARITA",-34.2143733,142.0874535,3.0,2.0,2,$320_pw,House,August 2013,3505,2013,8,CABARITA,320,House,215021396
622,626,626,626,"LOT 1 SEVENTEENTH STREET, CABARITA",-34.207533,142.095798,4.0,2.0,2,$465_per_week,House,July 2013,3505,2013,7,CABARITA,465,House,215021396
623,627,627,627,"5 MALIBU DRIVE, CABARITA",-34.197567,142.086052,3.0,2.0,2,$300_pw,none,January 2013,3505,2013,1,CABARITA,300,Other,215021396
624,628,628,628,"9 EDEN VALLEY ROAD, CAIRNLEA",-37.760843,144.792726,3.0,2.0,2,$340_per_week,Townhouse,June 2013,3023,2013,6,CAIRNLEA,340,House,213011329
625,629,629,629,"244 STATION ROAD, CAIRNLEA",-37.750411,144.778732,4.0,2.0,1,$335_per_week,House,November 2013,3023,2013,11,CAIRNLEA,335,House,213011329
626,630,630,630,"4 PLAYHOUSE AVENUE, CAIRNLEA",-37.754627,144.79174,3.0,2.0,2,$390_per_week,House,October 2013,3023,2013,10,CAIRNLEA,390,House,213011329
627,631,631,631,"32 HOMEBUSH ROAD, CAIRNLEA",-37.750021,144.783099,3.0,2.0,2,$360_per_week,House,October 2013,3023,2013,10,CAIRNLEA,360,House,213011329
628,632,632,632,"14 NOBEL BANKS DRIVE, CAIRNLEA",-37.756253,144.788407,3.0,2.0,2,$350_per_week,House,May 2013,3023,2013,5,CAIRNLEA,350,House,213011329
629,633,633,633,"2/6 GILL AVENUE, CALIFORNIA GULLY",-36.727549,144.266554,2.0,1.0,1,$170_per_week,House,April 2013,3556,2013,4,GULLY,170,House,202011019
630,634,634,634,"2/6 GILL AVENUE, CALIFORNIA GULLY",-36.727549,144.266554,2.0,1.0,1,$170_per_week,House,March 2013,3556,2013,3,GULLY,170,House,202011019
631,635,635,635,"4/348 EAGLEHAWK ROAD, CALIFORNIA GULLY",-36.7282335,144.258592,2.0,1.0,1,$195_pw,Rental_residential,January 2013,3556,2013,1,GULLY,195,Other,202011019
632,636,636,636,"96 NELSON STREET, CALIFORNIA GULLY",-36.7254756,144.2710199,3.0,1.0,1,$260,Rental_residential,November 2013,3556,2013,11,GULLY,260,Other,202011019
633,637,637,637,"96 NELSON STREET, CALIFORNIA GULLY",-36.7254756,144.2710199,3.0,1.0,1,$270_pw,Rental_residential,July 2013,3556,2013,7,GULLY,270,Other,202011019
634,638,638,638,"25 FACTORY ROAD, CALLIGNEE",-38.331201,146.576027,3.0,2.0,2,$390_per_week,House,July 2013,3844,2013,7,CALLIGNEE,390,House,205041094
635,639,639,639,"25 FACTORY ROAD FULLY FURNISHED ROAD, CALLIGNEE",-38.3375648,146.5830184,3.0,2.0,3,$490,none,July 2013,3844,2013,7,CALLIGNEE,490,Other,205041094
636,640,640,640,"265 BOGGY CREEK RD, CALULU",-37.763864,147.497495,3.0,1.0,2,$310_per_week,House,December 2013,3875,2013,12,CALULU,310,House,205021082
637,641,641,641,"265 BOGGY CREEK RD, CALULU",-37.763864,147.497495,3.0,1.0,2,$310_p.w.,House,November 2013,3875,2013,11,CALULU,310,House,205021082
638,642,642,642,"265 BOGGY CREEK ROAD, CALULU",-37.763864,147.497495,3.0,1.0,2,$310_pw,none,November 2013,3875,2013,11,CALULU,310,Other,205021082
639,643,643,643,"1/249 HIGHFIELD ROAD, CAMBERWELL",-37.84785355,145.08215115,2.0,1.0,2,$410_per_week,none,December 2013,3124,2013,12,CAMBERWELL,410,Other,207011149
640,644,644,644,"252 HIGHFIELD ROAD, CAMBERWELL",-37.848314,145.082571,3.0,2.0,3,$700_per_week,House,August 2013,3124,2013,8,CAMBERWELL,700,House,207011149
641,645,645,645,"2/35 ACHERON AVENUE, CAMBERWELL",-37.842756,145.066291,2.0,1.0,1,$460_pw,Rental_residential,December 2013,3124,2013,12,CAMBERWELL,460,Other,207011149
642,646,646,646,"12 KINGFIELD COURT, CAMBERWELL",-37.837978,145.092054,3.0,1.0,2,$600_pw,House,November 2013,3124,2013,11,CAMBERWELL,600,House,207011149
643,647,647,647,"12 KINGFIELD COURT, CAMBERWELL",-37.837978,145.092054,3.0,1.0,2,$600_per_week,House,March 2013,3124,2013,3,CAMBERWELL,600,House,207011149
644,648,648,648,"12 KINGFIELD COURT, CAMBERWELL",-37.837978,145.092054,3.0,1.0,2,$695,House,February 2013,3124,2013,2,CAMBERWELL,695,House,207011149
645,649,649,649,"20 LODGE ROAD, CAMBERWELL",-37.84601,145.078903,4.0,2.0,2,$540_per_week,House,December 2013,3124,2013,12,CAMBERWELL,540,House,207011149
646,650,650,650,"2/138 WARRIGAL ROAD, CAMBERWELL",-37.840126,145.096884,4.0,2.0,2,$630_per_week,Townhouse,October 2013,3124,2013,10,CAMBERWELL,630,House,207011149
647,651,651,651,"2/138 WARRIGAL ROAD, CAMBERWELL",-37.840126,145.096884,4.0,2.0,2,$750_per_week,Townhouse,February 2013,3124,2013,2,CAMBERWELL,750,House,207011149
648,652,652,652,"1/31 HIGH ROAD, CAMBERWELL",-37.842785,145.057707,3.0,2.0,2,$550_per_week,House,March 2013,3124,2013,3,CAMBERWELL,550,House,207011149
649,655,655,655,"3 DONNA BUANG STREET, CAMBERWELL",-37.84434,145.064707,4.0,3.0,2,$770_p.w.,none,September 2013,3124,2013,9,CAMBERWELL,770,Other,207011149
650,656,656,656,"3/6 SMITH ROAD, CAMBERWELL",-37.845619,145.069718,3.0,1.0,2,$410,Villa,March 2013,3124,2013,3,CAMBERWELL,410,House,207011149
651,657,657,657,"1/911 TOORAK ROAD, CAMBERWELL",-37.845911,145.057483,4.0,3.0,2,$900,Townhouse,September 2013,3124,2013,9,CAMBERWELL,900,House,207011149
652,658,658,658,"1/126 WATTLE VALLEY ROAD, CAMBERWELL",-37.837583,145.080986,2.0,1.0,1,$370_per_week,none,July 2013,3124,2013,7,CAMBERWELL,370,Other,207011149
653,659,659,659,"3/894-896 TOORAK ROAD, CAMBERWELL",-37.84629822,145.05543518,3.0,2.0,1,$550_p.w.,Rental_residential,November 2013,3124,2013,11,CAMBERWELL,550,Other,207011150
654,662,662,662,"2/28 ALLAMBEE AVENUE, CAMBERWELL",-37.835228,145.077317,2.0,1.0,1,$380_per_week,Rental_residential,March 2013,3124,2013,3,CAMBERWELL,380,Other,207011149
655,663,663,663,"2/588 RIVERSDALE ROAD, CAMBERWELL",-37.8320711,145.062233,3.0,2.0,2,$595_pw,Townhouse,September 2013,3124,2013,9,CAMBERWELL,595,House,207011149
656,664,664,664,"2/588 RIVERSDALE ROAD, CAMBERWELL",-37.8320711,145.062233,3.0,2.0,2,$595_pw,Townhouse,August 2013,3124,2013,8,CAMBERWELL,595,House,207011149
657,665,665,665,"6/18 GLENCAIRN AVENUE, CAMBERWELL",-37.846807,145.081541,2.0,1.0,1,$350_pw,none,May 2013,3124,2013,5,CAMBERWELL,350,Other,207011149
658,666,666,666,"6/18 GLENCAIRN AVENUE, CAMBERWELL",-37.846807,145.081541,2.0,1.0,1,$350_pw,none,April 2013,3124,2013,4,CAMBERWELL,350,Other,207011149
659,667,667,667,"1 BETHELA STREET, CAMBERWELL",-37.846692,145.08925,2.0,1.0,2,$470,Rental_residential,March 2013,3124,2013,3,CAMBERWELL,470,Other,207011149
660,668,668,668,"500 FLINDERS STREET, MELBOURNE",-37.820019,144.957827,1.0,1.0,0,$330_pw,Available Now,March 2013,3000,2013,3,MELBOURNE,330,Other,206041505
