,address,latitude,longitude,nbed,nbath,ncar,price,type,historical_dates,postcode,year,month,suburb,weekly_rent,SA2_CODE
24,"1/85 MAIN ROAD, CHEWTON",-37.088043,144.204874,1.0,1.0,1,$200_pw,House,July 2016,3451,2016,7,CHEWTON,200,204031075
32,"UNIT 2/85 MAIN ROAD, CHEWTON",-37.088043,144.204874,1.0,1.0,0,$200_per_week,House,October 2016,3451,2016,10,CHEWTON,200,206041505
49,"28 ARCHERS ROAD, CHEWTON",-37.0933124,144.258522,3.0,1.0,2,$400,House,December 2016,3451,2016,12,CHEWTON,400,208031191
70,"49 ADELAIDE STREET, CHEWTON",-37.086142,144.253413,3.0,2.0,2,$350_pw,House,February 2016,3451,2016,2,CHEWTON,350,201031014
78,"14 PITMAN STREET, CHEWTON",-37.083013,144.266589,4.0,1.0,1,$335_pw,House,February 2016,3451,2016,2,CHEWTON,335,206031115
108,"101 MAIN ROAD, CHEWTON",-37.079631,144.252468,3.0,1.0,0,$270,House,June 2016,3451,2016,6,CHEWTON,270,214021383
124,"16 STEELE STREET, CHEWTON",-37.0797293,144.248306,3.0,2.0,2,$330_pw,House,October 2016,3451,2016,10,CHEWTON,330,205031093
130,"195 MAIN ROAD, CHEWTON",-37.0803456,144.2619809,3.0,1.0,2,$330_pw,House,March 2016,3451,2016,3,CHEWTON,330,217031475
138,"114 GOLDEN POINT ROAD, CHEWTON",-37.071999,144.2744735,3.0,1.0,2,$250_pw,House,February 2016,3451,2016,2,CHEWTON,250,205011076
140,"114 FRYERS ROAD, CHEWTON",-37.094488,144.2554,2.0,1.0,3,$260_pw,House,May 2016,3451,2016,5,CHEWTON,260,209041223
141,"114 FRYERS ROAD, CHEWTON",-37.094488,144.2554,2.0,1.0,3,$260_pw,House,February 2016,3451,2016,2,CHEWTON,260,209041223
144,"6 BAKER STREET, CHEWTON",-37.081637,144.26061,2.0,1.0,0,$260_per_week,House,December 2016,3451,2016,12,CHEWTON,260,204031075
145,"6 BAKER STREET, CHEWTON",-37.081637,144.26061,2.0,1.0,0,$260_per_week,House,August 2016,3451,2016,8,CHEWTON,260,205051102
149,"3A EUREKA STREET, CHEWTON",-37.077977,144.246961,3.0,1.0,0,$270_pw,House,December 2016,3451,2016,12,CHEWTON,270,209041223
152,"57 ARCHERS ROAD, CHEWTON",-37.094426,144.259118,3.0,1.0,2,$400_per_week,House,November 2016,3451,2016,11,CHEWTON,400,204031070
154,"LOT/31 HOOPERS ROAD, CHEWTON",-37.0967347,144.2657472,2.0,1.0,2,$350_pw,House,June 2016,3451,2016,6,CHEWTON,350,217041477
156,"173 MAIN ROAD, CHEWTON",-37.080952,144.259378,2.0,1.0,0,$270_per_week,House,May 2016,3451,2016,5,CHEWTON,270,212031300
164,"732A PYRENEES HIGHWAY, CHEWTON",-37.08367,144.272154,2.0,1.0,1,$205_pw,House,April 2016,3451,2016,4,CHEWTON,205,202021031
166,"4 GEORGE STREET, CHEWTON",-37.082086,144.256513,3.0,1.0,2,$360_pw,House,April 2016,3451,2016,4,CHEWTON,360,206071139
170,"278 GOLDEN POINT ROAD, CHEWTON",-37.059297,144.274696,2.0,1.0,0,$375_pw,House,April 2016,3451,2016,4,CHEWTON,375,212041317
171,"197 MAIN ROAD, CHEWTON",-37.0803515,144.2618795,1.0,1.0,0,$250_pw,House,March 2016,3451,2016,3,CHEWTON,250,206041504
172,"197 MAIN ROAD, CHEWTON",-37.0803515,144.2618795,1.0,1.0,0,$290_pw,House,February 2016,3451,2016,2,CHEWTON,290,206041504
174,"7 MANCHESTER STREET, CHEWTON",-37.0775879,144.2506022,5.0,2.0,2,$400_pw,House,February 2016,3451,2016,2,CHEWTON,400,202021027
260,"1 HIGH STREET, CHILTERN",-36.1505744,146.5991617,3.0,2.0,2,$240,House,October 2016,3683,2016,10,CHILTERN,240,205051104
261,"1 HIGH STREET, CHILTERN",-36.1505744,146.5991617,3.0,2.0,2,$260_pw,House,August 2016,3683,2016,8,CHILTERN,260,202011020
262,"1 HIGH STREET, CHILTERN",-36.1505744,146.5991617,3.0,2.0,2,$260_pw,House,July 2016,3683,2016,7,CHILTERN,260,204031070
275,"10B CONNESS STREET, CHILTERN",-36.151004,146.605192,2.0,1.0,1,$235_per_week,House,August 2016,3683,2016,8,CHILTERN,235,212031308
301,"2/56 ALBERT ROAD, CHILTERN",-36.14908,146.604709,2.0,1.0,1,$185_pw,House,October 2016,3683,2016,10,CHILTERN,185,211051282
302,"2/56 ALBERT ROAD, CHILTERN",-36.14908,146.604709,2.0,1.0,1,$190_pw,House,October 2016,3683,2016,10,CHILTERN,190,202011019
318,"65 MAIN STREET, CHILTERN",-36.149418,146.609623,3.0,2.0,2,$300,House,October 2016,3683,2016,10,CHILTERN,300,212031300
363,"7 SCOTT STREET, CHILTERN",-36.153794,146.592627,2.0,1.0,4,$200_per_week,none,August 2016,3683,2016,8,CHILTERN,200,209041223
368,"5 PARK STREET, CHILTERN",-36.149064,146.608326,3.0,1.0,2,$280,House,August 2016,3683,2016,8,CHILTERN,280,214011376
369,"5 PARK STREET, CHILTERN",-36.149064,146.608326,3.0,1.0,2,$280_p.w.,House,July 2016,3683,2016,7,CHILTERN,280,212031300
379,"13 BURKE STREET, CHILTERN",-36.152878,146.607758,2.0,1.0,1,$250_Weekly,none,July 2016,3683,2016,7,CHILTERN,250,203031049
421,"12-14 CAMPUS GATE, CHIRNSIDE PARK",-37.755523,145.332948,5.0,2.0,2,$390_pw,House,September 2016,3116,2016,9,PARK,390,201031015
454,"1/31 COUNTRY CLUB DRIVE, CHIRNSIDE PARK",-37.756332,145.325246,3.0,1.0,1,$340_pw,House,December 2016,3116,2016,12,PARK,340,204021067
455,"1/31 COUNTRY CLUB DRIVE, CHIRNSIDE PARK",-37.756332,145.325246,3.0,1.0,1,$350_pw,House,November 2016,3116,2016,11,PARK,350,203031489
526,"66 ROSEMAN ROAD, CHIRNSIDE PARK",-37.746928,145.33598,3.0,1.0,1,$320_pw,House,September 2016,3116,2016,9,PARK,320,205011079
554,"25 CLUBPOINT DRIVE, CHIRNSIDE PARK",-37.7526153,145.3270934,3.0,2.0,1,$370_pw,House,June 2016,3116,2016,6,PARK,370,206031115
555,"25 CLUBPOINT DRIVE, CHIRNSIDE PARK",-37.7526153,145.3270934,3.0,2.0,1,$370_pw,House,May 2016,3116,2016,5,PARK,370,206031115
573,"26 JOANNE AVENUE, CHIRNSIDE PARK",-37.755106,145.306849,3.0,2.0,3,$420_pw,House,October 2016,3116,2016,10,PARK,420,206041503
585,"9 ALLY TERRACE, CHIRNSIDE PARK",-37.756061,145.295076,4.0,2.0,2,$550_per_week,House,December 2016,3116,2016,12,PARK,550,214011370
589,"27A HUNTINGDALE DRIVE, CHIRNSIDE PARK",-37.754248,145.3227,3.0,2.0,2,$460_Weekly,House,June 2016,3116,2016,6,PARK,460,212031560
590,"27A HUNTINGDALE DRIVE, CHIRNSIDE PARK",-37.754248,145.3227,3.0,2.0,2,$460,House,June 2016,3116,2016,6,PARK,460,217041478
591,"27A HUNTINGDALE DRIVE, CHIRNSIDE PARK",-37.754248,145.3227,3.0,2.0,2,$460_per_week,House,June 2016,3116,2016,6,PARK,460,211051275
592,"27A HUNTINGDALE DRIVE, CHIRNSIDE PARK",-37.754248,145.3227,3.0,2.0,2,$460_pw,House,June 2016,3116,2016,6,PARK,460,206051130
684,"190 MUIR ROAD, CHRISTMAS HILLS",-37.65713,145.323706,3.0,1.0,0,$400_per_week,House,June 2016,3775,2016,6,HILLS,400,211011254
692,"30 O'SHEAS ROAD, CHRISTMAS HILLS",-37.643953,145.309304,4.0,2.0,1,$600_per_week,none,November 2016,3775,2016,11,HILLS,600,203021487
693,"30 O'SHEAS ROAD, CHRISTMAS HILLS",-37.643953,145.309304,4.0,2.0,1,$600_per_week,none,December 2016,3775,2016,12,HILLS,600,201031013
694,"30 OU0027SHEAS ROAD, CHRISTMAS HILLS",-37.653666,145.3050781,4.0,2.0,1,$600_per_week,House,November 2016,3775,2016,11,HILLS,600,209031212
695,"90 WESTERING ROAD, CHRISTMAS HILLS",-37.677565,145.269523,3.0,1.0,0,$550_per_week,none,August 2016,3775,2016,8,HILLS,550,210021235
696,"1246 ELTHAM - YARRA GLEN ROAD, CHRISTMAS HILLS",-37.651535,145.288365,2.0,1.0,0,$250_per_week,House,June 2016,3775,2016,6,HILLS,250,206041121
697,"1246 ELTHAM - YARRA GLEN ROAD, CHRISTMAS HILLS",-37.651535,145.288365,2.0,1.0,0,$250_per_week,House,May 2016,3775,2016,5,HILLS,250,209031212
726,"4 KARAMOOKA AVENUE, CHUM CREEK",-37.630489,145.496038,3.0,1.0,0,$380_per_week,House,March 2016,3777,2016,3,CREEK,380,207021156
734,"731 CHUM CREEK ROAD, CHUM CREEK",-37.64491085,145.49757232,3.0,2.0,0,$385_per_week,none,December 2016,3777,2016,12,CREEK,385,211041270
735,"7 CENTRE GROVE, CHUM CREEK",-37.646127,145.494799,4.0,2.0,1,$465_pw,House,August 2016,3777,2016,8,CREEK,465,207011152
736,"7 CENTRE GROVE, CHUM CREEK",-37.646127,145.494799,4.0,2.0,1,$465_per_week,House,August 2016,3777,2016,8,CREEK,465,205031091
737,"CONTACT AGENT, CHUM CREEK",-37.6333426,145.4993536,4.0,2.0,3,$450_pw,House,April 2016,3777,2016,4,CREEK,450,211051276
738,"5 KARAMOOKA AVENUE, CHUM CREEK",-37.630029,145.495225,3.0,2.0,2,$390_per_week,House,January 2016,3777,2016,1,CREEK,390,211051276
786,"5 INALA CLOSE, CHURCHILL",-38.323757,146.424585,4.0,1.0,0,$200_pw,none,June 2016,3842,2016,6,CHURCHILL,200,209041223
802,"15 CURRINGA COURT, CHURCHILL",-38.319109,146.420642,4.0,2.0,2,$300_per_week,none,January 2016,3842,2016,1,CHURCHILL,300,209011198
803,"15 CURRINGA COURT, CHURCHILL",-38.319109,146.420642,4.0,2.0,2,$300_pw,none,January 2016,3842,2016,1,CHURCHILL,300,206041121
907,"38 COOLABAH DRIVE, CHURCHILL",-38.303151,146.416263,3.0,1.0,1,$210_per_week,House,December 2016,3842,2016,12,CHURCHILL,210,211051286
940,"27 CHURINGA DRIVE, CHURCHILL",-38.3210366,146.4247311,3.0,1.0,1,$280_per_week,none,May 2016,3842,2016,5,CHURCHILL,280,209011198
961,"204/LOT 1 MILLER STREET, CLARENDON",-35.10989,138.628093,1.0,1.0,0,$175_p.w.,Unit/apmt,May 2016,3352,2016,5,CLARENDON,175,214021382
973,"3/34 INVERNESS STREET, CLARINDA",-37.931864,145.108164,3.0,2.0,1,$515,Unit/apmt,February 2016,3169,2016,2,CLARINDA,515,213011334
974,"3/34 INVERNESS STREET, CLARINDA",-37.931864,145.108164,3.0,2.0,1,$515_pw,Unit/apmt,February 2016,3169,2016,2,CLARINDA,515,205011078
979,"3/34 INVERNESS ST, CLARINDA",-37.931864,145.108164,3.0,2.0,1,$515_Weekly,Townhouse,February 2016,3169,2016,2,CLARINDA,515,205021081
1069,"1 / 55 VINEY STREET, CLARINDA",-37.93875,145.101891,3.0,1.0,3,$350_per_week,Townhouse,May 2016,3169,2016,5,CLARINDA,350,214011370
1143,"3/7 MACK CRESCENT, CLARINDA",-37.943918,145.11252,2.0,1.0,1,$340_p.w.,Unit/apmt,November 2016,3169,2016,11,CLARINDA,340,213051362
1144,"3/7 MACK CRESCENT, CLARINDA",-37.943918,145.11252,2.0,1.0,1,$340_Weekly,Unit/apmt,November 2016,3169,2016,11,CLARINDA,340,211041272
1145,"3/7 MACK CRESCENT, CLARINDA",-37.943918,145.11252,2.0,1.0,1,$340,Unit/apmt,November 2016,3169,2016,11,CLARINDA,340,210051246
1146,"3/7 MACK CRESCENT, CLARINDA",-37.943918,145.11252,2.0,1.0,1,$340_p.w.,Unit/apmt,October 2016,3169,2016,10,CLARINDA,340,210051246
1206,"59 LEONARD CLOSE, CLARINDA",-37.940496,145.106509,5.0,3.0,2,$410_Weekly,Rental_residential,May 2016,3169,2016,5,CLARINDA,410,210031535
1207,"59 LEONARD CLOSE, CLARINDA",-37.940496,145.106509,5.0,3.0,2,$410,Rental_residential,May 2016,3169,2016,5,CLARINDA,410,213021346
1208,"59 LEONARD CLOSE, CLARINDA",-37.940496,145.106509,5.0,3.0,2,$410_per_week,Rental_residential,May 2016,3169,2016,5,CLARINDA,410,211041272
1209,"59 LEONARD CLOSE, CLARINDA",-37.940496,145.106509,5.0,3.0,2,$410_pw,Rental_residential,May 2016,3169,2016,5,CLARINDA,410,211041272
1270,"600 KONAGADERRA ROAD, CLARKEFIELD",-37.515177,144.783865,3.0,1.0,0,$390,House,December 2016,3430,2016,12,CLARKEFIELD,390,206031115
1281,"160 FENTON HILL ROAD, CLARKEFIELD",-37.4935034,144.8108406,3.0,1.0,3,$450_per_week,House,September 2016,3430,2016,9,CLARKEFIELD,450,210021235
1287,"291 BOGGY GATE ROAD, CLARKEFIELD",-37.478953,144.789645,4.0,1.0,0,$600_Weekly,House,April 2016,3430,2016,4,CLARKEFIELD,600,206061135
1289,"291 BOGGY GATE RD, CLARKEFIELD",-37.478953,144.789645,4.0,1.0,0,$600_Weekly,House,April 2016,3430,2016,4,CLARKEFIELD,600,213021346
1290,"1556 &QUOTGROOMS COTTAGE&QUOT LANCEFIELD ROAD, CLARKEFIELD",-37.4893522,144.7564024,2.0,1.0,2,$270_per_week,House,October 2016,3430,2016,10,CLARKEFIELD,270,202021030
1291,"554 HEATHS LANE, CLARKEFIELD",-37.460714,144.804313,3.0,1.0,2,$300_pw,House,August 2016,3430,2016,8,CLARKEFIELD,300,216011408
1325,"28 EVELYN STREET, CLAYTON NORTH",-37.919915,145.131416,3.0,1.0,0,$360_p.w.,House,September 2016,3168,2016,9,NORTH,360,206041121
1331,"4/126 WELLINGTON ROAD, CLAYTON NORTH",-37.9211962,145.1320653,2.0,1.0,1,$299_p.w.,House,November 2016,3168,2016,11,NORTH,299,209031213
1332,"3/36 DENNIS STREET, CLAYTON NORTH",-37.918364,145.138747,4.0,3.0,0,$680_per_week,none,October 2016,3168,2016,10,NORTH,680,217031473
1333,"1/36 DENNIS STREET, CLAYTON NORTH",-37.918364,145.138747,3.0,3.0,0,$640_per_week,none,October 2016,3168,2016,10,NORTH,640,209031213
1334,"2/36 DENNIS STREET, CLAYTON NORTH",-37.918364,145.138747,3.0,3.0,0,$640_per_week,none,October 2016,3168,2016,10,NORTH,640,209031213
1335,"3/23 ROSE STREET, CLAYTON NORTH",-37.922802,145.124847,2.0,1.0,1,$320_p.w.,Unit/apmt,October 2016,3168,2016,10,NORTH,320,209031213
1336,"7 MURDO ROAD, CLAYTON NORTH",-37.917569,145.14094,3.0,1.0,0,$450_per_week,none,September 2016,3168,2016,9,NORTH,450,209031213
1337,"3/22 WRIGHT STREET, CLAYTON NORTH",-37.92221,145.124686,2.0,1.0,1,$330_Weekly,Unit/apmt,April 2016,3168,2016,4,NORTH,330,209031215
1338,"UNIT 3/22 WRIGHT STREET, CLAYTON NORTH",-37.92221,145.124686,2.0,1.0,1,$330_Weekly,none,April 2016,3168,2016,4,NORTH,330,216031415
1339,"42 KOONAWARRA ROAD, CLAYTON NORTH",-37.910193,145.125105,3.0,1.0,1,$470_Weekly,House,February 2016,3168,2016,2,NORTH,470,209021523
1380,"1/19 BURNS AVENUE, CLAYTON SOUTH",-37.936444,145.134354,2.0,1.0,1,$300_Week,none,September 2016,3169,2016,9,SOUTH,300,206051130
1414,"3 JORDAN ST, CLAYTON SOUTH",-37.930814,145.116963,3.0,2.0,2,$370_Weekly,none,December 2016,3169,2016,12,SOUTH,370,206051130
1428,"1/31 SPRINGS ROAD, CLAYTON SOUTH",-37.930285,145.109556,2.0,1.0,1,$340_per_week,none,August 2016,3169,2016,8,SOUTH,340,207021424
1476,"2/38 OAKES AVENUE, CLAYTON SOUTH",-37.93599,145.132932,2.0,1.0,1,$320_p.w.,Unit/apmt,April 2016,3169,2016,4,SOUTH,320,207021425
1477,"2/38 OAKES AVENUE, CLAYTON SOUTH",-37.93599,145.132932,2.0,1.0,1,$320_pw,Unit/apmt,April 2016,3169,2016,4,SOUTH,320,207021425
1478,"2/38 OAKES AVENUE, CLAYTON SOUTH",-37.93599,145.132932,2.0,1.0,1,$320_Weekly,Unit/apmt,April 2016,3169,2016,4,SOUTH,320,207011152
1479,"2/38 OAKES AVENUE, CLAYTON SOUTH",-37.93599,145.132932,2.0,1.0,1,$320,Unit/apmt,April 2016,3169,2016,4,SOUTH,320,213011340
1578,"3 GLENN COURT, CLAYTON SOUTH",-37.955304,145.136471,3.0,1.0,2,$399,House,November 2016,3169,2016,11,SOUTH,399,205021084
1588,"B218/60 AUTUMN TERRACE, CLAYTON SOUTH",-37.9393196,145.1384859,2.0,2.0,1,$370_per_week,none,February 2016,3169,2016,2,SOUTH,370,214021384
1589,"B218/60 AUTUMN TERRACE, CLAYTON SOUTH",-37.9393196,145.1384859,2.0,2.0,1,$370_pw,none,February 2016,3169,2016,2,SOUTH,370,214021384
1590,"B218/60 AUTUMN TERRACE, CLAYTON SOUTH",-37.9393196,145.1384859,2.0,2.0,1,$370,none,February 2016,3169,2016,2,SOUTH,370,214021384
1597,"2/33 BROWNING AVENUE, CLAYTON SOUTH",-37.9389684,145.1327188,3.0,1.0,1,$340_Weekly,none,November 2016,3169,2016,11,SOUTH,340,201021010
1602,"3 GLENN CT, CLAYTON SOUTH",-37.955304,145.136471,3.0,1.0,0,$399,House,November 2016,3169,2016,11,SOUTH,399,210031536
1610,"4/1430 CENTRE ROAD, CLAYTON SOUTH",-37.930149,145.129475,2.0,1.0,1,$395_per_week,Unit/apmt,April 2016,3169,2016,4,SOUTH,395,206041121
1611,"4/1430 CENTRE ROAD, CLAYTON SOUTH",-37.930149,145.129475,2.0,1.0,1,$395_pw,Unit/apmt,March 2016,3169,2016,3,SOUTH,395,209021205
1648,"8/31-33 FIRST STREET, CLAYTON SOUTH",-37.933051,145.134866,2.0,1.0,1,$290,none,November 2016,3169,2016,11,SOUTH,290,203021043
1702,"37 MONASH CRESCENT, CLAYTON SOUTH",-37.944059,145.133323,3.0,1.0,2,$450_Weekly,House,April 2016,3169,2016,4,SOUTH,450,206061135
1730,"2/19 BURNS AVENUE, CLAYTON SOUTH",-37.938025,145.133904,2.0,1.0,1,$300_Week,Unit/apmt,September 2016,3169,2016,9,SOUTH,300,208011170
1744,"6/31-33 FIRST STREET, CLAYTON SOUTH",-37.932937,145.135112,2.0,1.0,1,$270,Unit/apmt,April 2016,3169,2016,4,SOUTH,270,212041310
1755,"2/1430 CENTRE ROAD, CLAYTON SOUTH",-37.930149,145.129475,1.0,1.0,1,$365,Unit/apmt,March 2016,3169,2016,3,SOUTH,365,206061135
1771,"UNIT 6/21 ROSEBANK AVENUE, CLAYTON SOUTH",-37.938946,145.13002,2.0,1.0,1,$345_Weekly,Unit/apmt,November 2016,3169,2016,11,SOUTH,345,205031093
1772,"UNIT 6/21 ROSEBANK AVENUE, CLAYTON SOUTH",-37.938946,145.13002,2.0,1.0,1,$345_Weekly,Unit/apmt,October 2016,3169,2016,10,SOUTH,345,211011446
1773,"UNIT 6/21 ROSEBANK AVENUE, CLAYTON SOUTH",-37.938946,145.13002,2.0,1.0,1,$340_Weekly,Unit/apmt,July 2016,3169,2016,7,SOUTH,340,211011446
1774,"UNIT 6/21 ROSEBANK AVENUE, CLAYTON SOUTH",-37.938946,145.13002,2.0,1.0,1,$330_Weekly,Unit/apmt,February 2016,3169,2016,2,SOUTH,330,212041310
1787,"UNIT 8/27 LANARK STREET, CLAYTON SOUTH",-37.933628,145.115959,2.0,1.0,2,$350_Weekly,Unit/apmt,December 2016,3169,2016,12,SOUTH,350,211011251
1875,"16 MIRANDA CLOSE, CLAYTON SOUTH",-37.946334,145.135753,3.0,1.0,3,$350_Weekly,House,March 2016,3169,2016,3,SOUTH,350,211031265
1998,"30C OAKES AVENUE, CLAYTON SOUTH",-37.935829,145.131729,3.0,2.0,1,$450_per_week,Townhouse,July 2016,3169,2016,7,SOUTH,450,214011375
1999,"30C OAKES AVENUE, CLAYTON SOUTH",-37.935829,145.131729,3.0,2.0,1,$450_pw,Townhouse,July 2016,3169,2016,7,SOUTH,450,214011375
2000,"30C OAKES AVENUE, CLAYTON SOUTH",-37.935829,145.131729,3.0,2.0,1,$450,Townhouse,July 2016,3169,2016,7,SOUTH,450,206061135
2001,"30C OAKES AVENUE, CLAYTON SOUTH",-37.935829,145.131729,3.0,2.0,1,$450_Weekly,Townhouse,July 2016,3169,2016,7,SOUTH,450,212041310
2024,"2/497 CLAYTON ROAD, CLAYTON SOUTH",-37.936333,145.117213,2.0,1.0,1,$330_pw,Unit/apmt,April 2016,3169,2016,4,SOUTH,330,203021039
2025,"2/497 CLAYTON ROAD, CLAYTON SOUTH",-37.936333,145.117213,2.0,1.0,1,$330_per_week,Unit/apmt,March 2016,3169,2016,3,SOUTH,330,206041121
2026,"2/497 CLAYTON ROAD, CLAYTON SOUTH",-37.936333,145.117213,2.0,1.0,1,$330,Unit/apmt,March 2016,3169,2016,3,SOUTH,330,213021346
2067,"B109 / 60 AUTUMN TERRACE, CLAYTON SOUTH",-37.9382824,145.1377198,2.0,2.0,1,$405,Unit/apmt,October 2016,3169,2016,10,SOUTH,405,207011152
2068,"B109 / 60 AUTUMN TERRACE, CLAYTON SOUTH",-37.9382824,145.1377198,2.0,2.0,1,$405_per_week,Unit/apmt,September 2016,3169,2016,9,SOUTH,405,207011152
2069,"B109 / 60 AUTUMN TERRACE, CLAYTON SOUTH",-37.9382824,145.1377198,2.0,2.0,1,$405_pw,Unit/apmt,July 2016,3169,2016,7,SOUTH,405,207011152
2206,"2/55 MAIN ROAD, CLAYTON SOUTH",-37.937472,145.12717,3.0,2.0,2,$440,Unit,December 2016,3169,2016,12,SOUTH,440,206071141
2238,"UNIT 1/21 ROSEBANK AVENUE, CLAYTON SOUTH",-37.938946,145.13002,2.0,1.0,1,$330_Weekly,Unit,January 2016,3169,2016,1,SOUTH,330,204021065
2251,"UNIT 1/21 MERLYN AVENUE, CLAYTON SOUTH",-37.935608,145.117216,2.0,1.0,1,$290_Weekly,Unit,October 2016,3169,2016,10,SOUTH,290,202011021
2316,"5/30 MADELEINE ROAD, CLAYTON",-37.916743,145.120384,2.0,1.0,1,$330_p.w.,Unit/apmt,July 2016,3168,2016,7,CLAYTON,330,206061135
2317,"5/30 MADELEINE ROAD, CLAYTON",-37.916743,145.120384,2.0,1.0,1,$330_pw,Unit/apmt,July 2016,3168,2016,7,CLAYTON,330,204021065
2318,"5/30 MADELEINE ROAD, CLAYTON",-37.916743,145.120384,2.0,1.0,1,$330_Weekly,Unit/apmt,July 2016,3168,2016,7,CLAYTON,330,212051568
2319,"5/30 MADELEINE ROAD, CLAYTON",-37.916743,145.120384,2.0,1.0,1,$330,Unit/apmt,July 2016,3168,2016,7,CLAYTON,330,208021182
2375,"2/24 MYRIONG STREET, CLAYTON",-37.915892,145.125518,4.0,3.0,2,$560_per_week,Townhouse,February 2016,3168,2016,2,CLAYTON,560,201011001
2406,"5/42 EVELYN STREET, CLAYTON",-37.921181,145.131503,3.0,2.0,2,$430_p.w.,Townhouse,January 2016,3168,2016,1,CLAYTON,430,209021205
2407,"5/42 EVELYN STREET, CLAYTON",-37.921181,145.131503,3.0,2.0,2,$430_pw,Townhouse,January 2016,3168,2016,1,CLAYTON,430,209021205
2408,"5/42 EVELYN STREET, CLAYTON",-37.921181,145.131503,3.0,2.0,2,$430_Weekly,Townhouse,January 2016,3168,2016,1,CLAYTON,430,209021205
2409,"5/42 EVELYN STREET, CLAYTON",-37.921181,145.131503,3.0,2.0,2,$430,Townhouse,January 2016,3168,2016,1,CLAYTON,430,213051363
2471,"8/10-12 SEASCAPE STREET, CLAYTON",-37.9171566,145.1290743,3.0,1.0,2,$485_per_week,Townhouse,July 2016,3168,2016,7,CLAYTON,485,214011375
2490,"109/2-8 MURRAY STREET, CLAYTON",-37.918486,145.121732,1.0,1.0,1,$349,Unit/apmt,March 2016,3168,2016,3,CLAYTON,349,214021384
2493,"207/2-8 MURRAY STREET, CLAYTON",-37.918486,145.121732,2.0,1.0,1,$395,Unit/apmt,January 2016,3168,2016,1,CLAYTON,395,212021297
2506,"4/1452 NORTH ROAD, CLAYTON",-37.914125,145.1205265,2.0,1.0,1,$310_pw,Rental_residential,July 2016,3168,2016,7,CLAYTON,310,208031193
2546,"1/37 MARGARET STREET, CLAYTON",-37.916812,145.115443,4.0,3.0,2,$630,Townhouse,November 2016,3168,2016,11,CLAYTON,630,211031452
2609,"APARTMENT 10/4 MANATUNGA STREET, CLAYTON",-37.916239,145.125979,2.0,1.0,1,$310_Weekly,Unit,June 2016,3168,2016,6,CLAYTON,310,213031352
2633,"UNIT 2/91 MORIAH STREET, CLAYTON",-37.9251699,145.1296013,4.0,2.0,3,$600_Weekly,Unit,November 2016,3168,2016,11,CLAYTON,600,206021112
2681,"33 ALICE STREET, CLAYTON",-37.917622,145.115287,4.0,2.0,1,$420_Weekly,House,July 2016,3168,2016,7,CLAYTON,420,206021112
2695,"UNIT 1/47 JAGUAR DRIVE, CLAYTON",-37.926876,145.131638,3.0,1.0,2,$400_Weekly,Unit,November 2016,3168,2016,11,CLAYTON,400,206061135
2696,"UNIT 1/47 JAGUAR DRIVE, CLAYTON",-37.926876,145.131638,3.0,1.0,2,$410_Weekly,Unit,October 2016,3168,2016,10,CLAYTON,410,211031450
2697,"UNIT 1/47 JAGUAR DRIVE, CLAYTON",-37.926876,145.131638,3.0,1.0,2,$395_Weekly,Unit,January 2016,3168,2016,1,CLAYTON,395,211031450
2746,"UNIT 1/5-7 THOMAS STREET, CLAYTON",-37.926088,145.12026,2.0,1.0,1,$400_Weekly,Unit,October 2016,3168,2016,10,CLAYTON,400,213031348
2747,"UNIT 1/5-7 THOMAS STREET, CLAYTON",-37.926088,145.12026,2.0,1.0,1,$400_Weekly,Unit,September 2016,3168,2016,9,CLAYTON,400,213031348
2780,"UNIT 1/450 HAUGHTON ROAD, CLAYTON",-37.928723,145.125148,2.0,1.0,2,$390_Weekly,Unit,April 2016,3168,2016,4,CLAYTON,390,206021112
2798,"1/31 GLENBROOK AVENUE, CLAYTON",-37.909275,145.123752,3.0,1.0,2,$350_pw,House,July 2016,3168,2016,7,CLAYTON,350,206051130
2818,"UNIT 4/81 EVA STREET, CLAYTON",-37.926655,145.11265,2.0,1.0,1,$360_Weekly,Unit,January 2016,3168,2016,1,CLAYTON,360,201021009
2827,"UNIT 6/1927 DANDENONG ROAD, CLAYTON",-37.911756,145.123934,2.0,1.0,1,$330_Weekly,Unit,June 2016,3168,2016,6,CLAYTON,330,206061135
2960,"10 SHADY MEWS, CLAYTON",-37.922472,145.127818,3.0,1.0,1,$410_per_week,Townhouse,August 2016,3168,2016,8,CLAYTON,410,207021159
2977,"1/83 KIONGA STREET, CLAYTON",-37.929193,145.129986,5.0,2.0,1,$515_p.w.,Townhouse,June 2016,3168,2016,6,CLAYTON,515,207021159
2978,"1/83 KIONGA STREET, CLAYTON",-37.929193,145.129986,5.0,2.0,1,$515_pw,Townhouse,June 2016,3168,2016,6,CLAYTON,515,209031214
2979,"1/83 KIONGA STREET, CLAYTON",-37.929193,145.129986,5.0,2.0,1,$515_Weekly,Townhouse,June 2016,3168,2016,6,CLAYTON,515,209031212
2980,"1/83 KIONGA STREET, CLAYTON",-37.929193,145.129986,5.0,2.0,1,$515,Townhouse,June 2016,3168,2016,6,CLAYTON,515,212051568
2981,"1/83 KIONGA STREET, CLAYTON",-37.929193,145.129986,5.0,2.0,1,$540_p.w.,Townhouse,May 2016,3168,2016,5,CLAYTON,540,212051568
2982,"1/83 KIONGA STREET, CLAYTON",-37.929193,145.129986,5.0,2.0,1,$560_p.w.,Townhouse,May 2016,3168,2016,5,CLAYTON,560,207021157
2983,"1/83 KIONGA STREET, CLAYTON",-37.929193,145.129986,5.0,2.0,1,$560_p.w.,Townhouse,January 2016,3168,2016,1,CLAYTON,560,206051512
2984,"1/83 KIONGA STREET, CLAYTON",-37.929193,145.129986,5.0,2.0,1,$560_pw,Townhouse,January 2016,3168,2016,1,CLAYTON,560,206051512
2985,"1/83 KIONGA STREET, CLAYTON",-37.929193,145.129986,5.0,2.0,1,$560_Weekly,Townhouse,January 2016,3168,2016,1,CLAYTON,560,206051512
2986,"1/83 KIONGA STREET, CLAYTON",-37.929193,145.129986,5.0,2.0,1,$560,Townhouse,January 2016,3168,2016,1,CLAYTON,560,217011421
2999,"149A CARINISH ROAD, CLAYTON",-37.924305,145.121032,2.0,1.0,1,$245_p.w.,Unit,September 2016,3168,2016,9,CLAYTON,245,207021159
3000,"149A CARINISH ROAD, CLAYTON",-37.924305,145.121032,2.0,1.0,1,$245_Weekly,Unit,September 2016,3168,2016,9,CLAYTON,245,208021177
3001,"149A CARINISH ROAD, CLAYTON",-37.924305,145.121032,2.0,1.0,1,$245,Unit,September 2016,3168,2016,9,CLAYTON,245,212051568
3002,"149A CARINISH ROAD, CLAYTON",-37.924305,145.121032,2.0,1.0,1,$245_p.w.,Unit,February 2016,3168,2016,2,CLAYTON,245,212051568
3003,"149A CARINISH ROAD, CLAYTON",-37.924305,145.121032,2.0,1.0,1,$245_pw,Unit,February 2016,3168,2016,2,CLAYTON,245,213021341
3004,"149A CARINISH ROAD, CLAYTON",-37.924305,145.121032,2.0,1.0,1,$245_Weekly,Unit,February 2016,3168,2016,2,CLAYTON,245,213031352
3005,"149A CARINISH ROAD, CLAYTON",-37.924305,145.121032,2.0,1.0,1,$245,Unit,February 2016,3168,2016,2,CLAYTON,245,213031348
3006,"149A CARINISH ROAD, CLAYTON",-37.924305,145.121032,2.0,1.0,1,$245_p.w.,Unit,January 2016,3168,2016,1,CLAYTON,245,209041530
3021,"3/23 MADELEINE ROAD, CLAYTON",-37.916104,145.119279,3.0,2.0,1,$420_p.w.,Unit,July 2016,3168,2016,7,CLAYTON,420,206021112
3022,"3/23 MADELEINE ROAD, CLAYTON",-37.916104,145.119279,3.0,2.0,1,$420_pw,Unit,July 2016,3168,2016,7,CLAYTON,420,206021112
3023,"3/23 MADELEINE ROAD, CLAYTON",-37.916104,145.119279,3.0,2.0,1,$420_Weekly,Unit,July 2016,3168,2016,7,CLAYTON,420,206021112
3024,"3/23 MADELEINE ROAD, CLAYTON",-37.916104,145.119279,3.0,2.0,1,$420,Unit,July 2016,3168,2016,7,CLAYTON,420,209041530
3025,"3/23 MADELEINE ROAD, CLAYTON",-37.916104,145.119279,3.0,2.0,1,$420_p.w.,Unit,June 2016,3168,2016,6,CLAYTON,420,209041530
3083,"1/6 ATLANTIC STREET, CLAYTON",-37.918015,145.128456,1.0,1.0,1,$185,House,June 2016,3168,2016,6,CLAYTON,185,211011258
3084,"1/6 ATLANTIC STREET, CLAYTON",-37.918015,145.128456,1.0,1.0,1,$185,House,March 2016,3168,2016,3,CLAYTON,185,211011258
3137,"43 HARLINGTON STREET, CLAYTON",-37.923241,145.110846,3.0,1.0,1,$380_Weekly,House,November 2016,3168,2016,11,CLAYTON,380,216021412
3173,"UNIT 4/1927 DANDENONG ROAD, CLAYTON",-37.911756,145.123934,2.0,1.0,1,$300_Weekly,Unit,January 2016,3168,2016,1,CLAYTON,300,211031450
3206,"APARTMENT 7/78-80 WELLINGTON ROAD, CLAYTON",-37.916524,145.138223,2.0,1.0,1,$310_Weekly,Unit,December 2016,3168,2016,12,CLAYTON,310,201011483
3238,"UNIT 3/191 CARINISH ROAD, CLAYTON",-37.926996,145.1247,2.0,1.0,2,$370_Weekly,Unit,October 2016,3168,2016,10,CLAYTON,370,211031450
3273,"UNIT 1/40 ALICE STREET, CLAYTON",-37.9180741,145.1159047,2.0,1.0,2,$350_Weekly,Unit,November 2016,3168,2016,11,CLAYTON,350,211031450
3274,"UNIT 1/40 ALICE STREET, CLAYTON",-37.9180741,145.1159047,2.0,1.0,2,$340_Weekly,Unit,January 2016,3168,2016,1,CLAYTON,340,212031303
3311,"3/36 DENNIS STREET, CLAYTON",-37.918364,145.138747,4.0,3.0,2,$680_per_week,Townhouse,November 2016,3168,2016,11,CLAYTON,680,216021413
3394,"UNIT 4/6 ARNOTT STREET, CLAYTON",-37.916706,145.135221,1.0,1.0,1,$390_Weekly,Unit,March 2016,3168,2016,3,CLAYTON,390,212051567
3472,"2/5 FLORENCE AVENUE, CLAYTON",-37.906174,145.126774,1.0,1.0,8,$300_pw,Studio,February 2016,3168,2016,2,CLAYTON,300,212051324
3491,"4 ROBINSON STREET, CLAYTON",-37.920006,145.111493,3.0,1.0,1,$400,House,August 2016,3168,2016,8,CLAYTON,400,202011022
3492,"4 ROBINSON STREET, CLAYTON",-37.920006,145.111493,3.0,1.0,1,$400_pw,House,August 2016,3168,2016,8,CLAYTON,400,202011022
3493,"4 ROBINSON STREET, CLAYTON",-37.920006,145.111493,3.0,1.0,1,$400_Weekly,House,August 2016,3168,2016,8,CLAYTON,400,203021044
3501,"2/5 FLORENCE AVE, CLAYTON",-37.906174,145.126774,1.0,1.0,1,$300_per_week,Unit/apmt,February 2016,3168,2016,2,CLAYTON,300,203021040
3506,"4 ROBINSON ST, CLAYTON",-37.919868,145.11152,3.0,1.0,1,$400_Weekly,House,August 2016,3168,2016,8,CLAYTON,400,206051128
3539,"6/10 HILLTOP AVENUE, CLAYTON",-37.905826,145.127234,2.0,1.0,1,$335_per_week,none,May 2016,3168,2016,5,CLAYTON,335,214021591
3551,"3 / 66 KIONGA STREET, CLAYTON",-37.9279178,145.1305868,3.0,2.0,2,$450_Weekly,Townhouse,July 2016,3168,2016,7,CLAYTON,450,207011522
3552,"3 / 66 KIONGA STREET, CLAYTON",-37.9279178,145.1305868,3.0,2.0,2,$450,Townhouse,July 2016,3168,2016,7,CLAYTON,450,201011484
3553,"3 / 66 KIONGA STREET, CLAYTON",-37.9279178,145.1305868,3.0,2.0,2,$450_pw,Townhouse,July 2016,3168,2016,7,CLAYTON,450,209011202
3599,"2/21 DENNIS ST, CLAYTON",-37.917792,145.137315,2.0,2.0,1,$420_Weekly,Unit/apmt,March 2016,3168,2016,3,CLAYTON,420,207011519
3613,"2/21 DENNIS STREET, CLAYTON",-37.917792,145.137315,2.0,2.0,1,$420_Weekly,Unit/apmt,March 2016,3168,2016,3,CLAYTON,420,202011022
3614,"2/21 DENNIS STREET, CLAYTON",-37.917792,145.137315,2.0,2.0,1,$420_per_week,Unit/apmt,March 2016,3168,2016,3,CLAYTON,420,211031450
3615,"2/21 DENNIS STREET, CLAYTON",-37.917792,145.137315,2.0,2.0,1,$420,Unit/apmt,March 2016,3168,2016,3,CLAYTON,420,211031450
3616,"2/21 DENNIS STREET, CLAYTON",-37.917792,145.137315,2.0,2.0,1,$420_per_week,Unit/apmt,February 2016,3168,2016,2,CLAYTON,420,212031303
3650,"2 / 1452-1454 NORTH ROAD, CLAYTON",-37.914125,145.1205265,2.0,1.0,1,$350_pw,none,October 2016,3168,2016,10,CLAYTON,350,205031093
3670,"9/34 WELLINGTON ROAD, CLAYTON",-37.915995,145.133951,1.0,1.0,1,$245,none,May 2016,3168,2016,5,CLAYTON,245,208021180
3686,"13/9-11 BROWNS ROAD, CLAYTON",-37.918418,145.127927,2.0,1.0,1,$280_p.w.,House,July 2016,3168,2016,7,CLAYTON,280,209041529
3687,"13/9-11 BROWNS ROAD, CLAYTON",-37.918418,145.127927,2.0,1.0,1,$280_pw,House,July 2016,3168,2016,7,CLAYTON,280,209041529
3688,"13/9-11 BROWNS ROAD, CLAYTON",-37.918418,145.127927,2.0,1.0,1,$280_Weekly,House,July 2016,3168,2016,7,CLAYTON,280,209041529
3689,"13/9-11 BROWNS ROAD, CLAYTON",-37.918418,145.127927,2.0,1.0,1,$280,House,July 2016,3168,2016,7,CLAYTON,280,209041529
3709,"9 SHADY MEWS, CLAYTON",-37.922424,145.12782,2.0,1.0,2,$380_Weekly,Rental_residential,September 2016,3168,2016,9,CLAYTON,380,205031093
3710,"9 SHADY MEWS, CLAYTON",-37.922424,145.12782,2.0,1.0,2,$380,Rental_residential,September 2016,3168,2016,9,CLAYTON,380,212031303
3711,"9 SHADY MEWS, CLAYTON",-37.922424,145.12782,2.0,1.0,2,$380_pw,Rental_residential,September 2016,3168,2016,9,CLAYTON,380,212031303
3739,"198 CLAYTON ROAD, CLAYTON",-37.917008,145.121634,4.0,1.0,0,$500_per_week,none,June 2016,3168,2016,6,CLAYTON,500,206021112
3791,"42 STOCKDALE AVENUE, CLAYTON",-37.910502,145.126035,4.0,2.0,1,$395_per_week,House,May 2016,3168,2016,5,CLAYTON,395,213011336
3808,"5/2 GREENFIELD DRIVE, CLAYTON",-37.923181,145.128623,2.0,1.0,1,$365_per_week,Unit/apmt,April 2016,3168,2016,4,CLAYTON,365,205031091
3809,"5/2 GREENFIELD DRIVE, CLAYTON",-37.923181,145.128623,2.0,1.0,1,$365_pw,Unit/apmt,April 2016,3168,2016,4,CLAYTON,365,212051568
3810,"5/2 GREENFIELD DRIVE, CLAYTON",-37.923181,145.128623,2.0,1.0,1,$365,Unit/apmt,April 2016,3168,2016,4,CLAYTON,365,206031502
3823,"8/20-22 NEWPORT ROAD, CLAYTON",-37.932574,145.114313,2.0,1.0,2,$360,Rental_residential,November 2016,3168,2016,11,CLAYTON,360,206021500
3824,"8/20-22 NEWPORT ROAD, CLAYTON",-37.932574,145.114313,2.0,1.0,2,$360,Rental_residential,October 2016,3168,2016,10,CLAYTON,360,202031032
3825,"8/20-22 NEWPORT ROAD, CLAYTON",-37.932574,145.114313,2.0,1.0,2,$360,Rental_residential,September 2016,3168,2016,9,CLAYTON,360,212041310
3849,"4 / 63 CARINISH ROAD, CLAYTON",-37.920334,145.115395,2.0,1.0,1,$350_per_week,Unit,February 2016,3168,2016,2,CLAYTON,350,206051512
3870,"1/31 GLENBROOK AVE, CLAYTON",-37.909189,145.123384,3.0,1.0,2,$350_per_week,House,September 2016,3168,2016,9,CLAYTON,350,209011202
3871,"1/31 GLENBROOK AVE, CLAYTON",-37.909189,145.123384,3.0,1.0,2,$350,House,September 2016,3168,2016,9,CLAYTON,350,212031303
3889,"10/10 ARNOTT STREET, CLAYTON",-37.9169379,145.1348441,2.0,1.0,1,$340_pw,Rental_residential,February 2016,3168,2016,2,CLAYTON,340,213031348
3924,"2B HOURIGAN AVENUE, CLAYTON",-37.917265,145.121913,3.0,2.0,2,$460_p.w.,Townhouse,January 2016,3168,2016,1,CLAYTON,460,212051568
3925,"2B HOURIGAN AVENUE, CLAYTON",-37.917265,145.121913,3.0,2.0,2,$460_pw,Townhouse,January 2016,3168,2016,1,CLAYTON,460,212051568
3926,"2B HOURIGAN AVENUE, CLAYTON",-37.917265,145.121913,3.0,2.0,2,$460_Weekly,Townhouse,January 2016,3168,2016,1,CLAYTON,460,206031502
3927,"2B HOURIGAN AVENUE, CLAYTON",-37.917265,145.121913,3.0,2.0,2,$460,Townhouse,January 2016,3168,2016,1,CLAYTON,460,204011056
3962,"2/6 ATLANTIC STREET, CLAYTON",-37.918259,145.128437,1.0,1.0,0,$190,Townhouse,December 2016,3168,2016,12,CLAYTON,190,211051278
3963,"2/6 ATLANTIC STREET, CLAYTON",-37.918259,145.128437,1.0,1.0,0,$185,Townhouse,May 2016,3168,2016,5,CLAYTON,185,201011481
4162,"12/6 ARNOTT STREET, CLAYTON",-37.916706,145.135221,1.0,1.0,1,$360_p.w.,Unit/apmt,February 2016,3168,2016,2,CLAYTON,360,211051278
4163,"12/6 ARNOTT STREET, CLAYTON",-37.916706,145.135221,1.0,1.0,1,$360_pw,Unit/apmt,February 2016,3168,2016,2,CLAYTON,360,212031562
4164,"12/6 ARNOTT STREET, CLAYTON",-37.916706,145.135221,1.0,1.0,1,$360_Weekly,Unit/apmt,February 2016,3168,2016,2,CLAYTON,360,206071517
4165,"12/6 ARNOTT STREET, CLAYTON",-37.916706,145.135221,1.0,1.0,1,$360,Unit/apmt,February 2016,3168,2016,2,CLAYTON,360,211031451
4217,"2 / 31 PANORAMA STREET, CLAYTON",-37.92093658,145.1292572,3.0,2.0,2,$500_Weekly,Townhouse,December 2016,3168,2016,12,CLAYTON,500,206051513
4228,"59 MARSHALL AVENUE, CLAYTON",-37.91192,145.126379,4.0,1.0,4,$400_Weekly,House,January 2016,3168,2016,1,CLAYTON,400,205031093
4239,"1/63 CARINISH ROAD, CLAYTON",-37.92043,145.115661,2.0,1.0,1,$380,Unit/apmt,February 2016,3168,2016,2,CLAYTON,380,205031093
4281,"11 / 8-10 BROWNS ROAD, CLAYTON",-37.919799,145.127053,2.0,1.0,1,$380_per_week,Unit/apmt,March 2016,3168,2016,3,CLAYTON,380,203011036
4282,"11 / 8-10 BROWNS ROAD, CLAYTON",-37.919799,145.127053,2.0,1.0,1,$380_pw,Unit/apmt,March 2016,3168,2016,3,CLAYTON,380,210031439
4283,"11 / 8-10 BROWNS ROAD, CLAYTON",-37.919799,145.127053,2.0,1.0,1,$380,Unit/apmt,March 2016,3168,2016,3,CLAYTON,380,210031439
4336,"3/48-50 MANTON ROAD, CLAYTON",-37.915109,145.114495,2.0,2.0,1,$650,Townhouse,June 2016,3168,2016,6,CLAYTON,650,210031439
4345,"33/2 GREENFIELD DRIVE, CLAYTON",-37.91529,145.12957,2.0,1.0,1,$340,Unit/apmt,November 2016,3168,2016,11,CLAYTON,340,208041194
4381,"3/1 ADALEIGH COURT, CLAYTON",-37.921612,145.131214,2.0,1.0,1,$325_per_week,Unit/apmt,July 2016,3168,2016,7,CLAYTON,325,201021012
4382,"3/1 ADALEIGH COURT, CLAYTON",-37.921612,145.131214,2.0,1.0,1,$325,Unit/apmt,July 2016,3168,2016,7,CLAYTON,325,210011534
4383,"3/1 ADALEIGH COURT, CLAYTON",-37.921612,145.131214,2.0,1.0,1,$325_pw,Unit/apmt,July 2016,3168,2016,7,CLAYTON,325,206021112
4415,"9 PRINCE CHARLES STREET, CLAYTON",-37.921871,145.114627,3.0,1.0,2,$399_Weekly,House,December 2016,3168,2016,12,CLAYTON,399,205041094
4416,"9 PRINCE CHARLES STREET, CLAYTON",-37.921871,145.114627,3.0,1.0,2,$399,House,December 2016,3168,2016,12,CLAYTON,399,205041094
4417,"9 PRINCE CHARLES STREET, CLAYTON",-37.921871,145.114627,3.0,1.0,2,$399_pw,House,December 2016,3168,2016,12,CLAYTON,399,205041094
4474,"UNIT 1/84 KANOOKA GROVE, CLAYTON",-37.923832,145.125991,3.0,2.0,1,$460_Weekly,Unit/apmt,January 2016,3168,2016,1,CLAYTON,460,212051568
4491,"UNIT 8/444 HAUGHTON ROAD, CLAYTON",-37.928148,145.124391,2.0,1.0,1,$315_Weekly,Unit/apmt,February 2016,3168,2016,2,CLAYTON,315,212051568
4564,"UNIT 1/37 KIONGA STREET, CLAYTON",-37.925566,145.130369,2.0,1.0,1,$370_Weekly,Unit/apmt,October 2016,3168,2016,10,CLAYTON,370,217011422
4565,"UNIT 1/37 KIONGA STREET, CLAYTON",-37.925566,145.130369,2.0,1.0,1,$370_Weekly,Unit/apmt,September 2016,3168,2016,9,CLAYTON,370,217011422
4566,"UNIT 1/37 KIONGA STREET, CLAYTON",-37.925566,145.130369,2.0,1.0,1,$360_Weekly,Unit/apmt,January 2016,3168,2016,1,CLAYTON,360,217011422
4624,"UNIT 2/11 STOCKDALE AVENUE, CLAYTON",-37.907879,145.126095,4.0,1.0,1,$480_Weekly,Unit/apmt,June 2016,3168,2016,6,CLAYTON,480,207031163
4732,"2/1 ROSE STREET, CLAYTON",-37.922359,145.122301,2.0,1.0,2,$410_per_week,Townhouse,June 2016,3168,2016,6,CLAYTON,410,211041269
4747,"2 BRUSHBOX COURT, CLAYTON",-37.925488,145.119662,3.0,1.0,2,$420_Weekly,Townhouse,October 2016,3168,2016,10,CLAYTON,420,210011534
4748,"2 BRUSHBOX COURT, CLAYTON",-37.925488,145.119662,3.0,1.0,2,$420_per_week,Townhouse,October 2016,3168,2016,10,CLAYTON,420,210011534
4749,"2 BRUSHBOX COURT, CLAYTON",-37.925488,145.119662,3.0,1.0,2,$420,Townhouse,October 2016,3168,2016,10,CLAYTON,420,210011534
4779,"153B CARINISH ROAD, CLAYTON",-37.924677,145.121359,3.0,2.0,2,$450_per_week,Unit/apmt,July 2016,3168,2016,7,CLAYTON,450,207031167
4780,"153B CARINISH ROAD, CLAYTON",-37.924677,145.121359,3.0,2.0,2,$450_pw,Unit/apmt,July 2016,3168,2016,7,CLAYTON,450,207031163
4891,"16 THOMAS STREET, CLAYTON",-37.927189,145.120776,3.0,1.0,4,$390_pw,House,January 2016,3168,2016,1,CLAYTON,390,207011520
4919,"1/3 MORTON STREET, CLAYTON",-37.91682,145.135289,2.0,1.0,1,$360_per_week,Unit/apmt,January 2016,3168,2016,1,CLAYTON,360,206041118
4970,"1/17 BEDDOE AVENUE, CLAYTON",-37.90863,145.128127,3.0,2.0,1,$550_p.w.,Townhouse,December 2016,3168,2016,12,CLAYTON,550,211041269
4998,"1/54 KANOOKA GROVE, CLAYTON",-37.921496,145.126029,2.0,1.0,1,$420_pw,Unit/apmt,April 2016,3168,2016,4,CLAYTON,420,205021085
4999,"1/54 KANOOKA GROVE, CLAYTON",-37.921496,145.126029,2.0,1.0,1,$420_pw,Unit/apmt,March 2016,3168,2016,3,CLAYTON,420,207011521
5015,"1/12 MADELEINE ROAD, CLAYTON",-37.915266,145.120158,3.0,1.0,1,$450_per_week,Available Now,March 2016,3168,2016,3,CLAYTON,450,201011481
5016,"1/12 MADELEINE ROAD, CLAYTON",-37.915266,145.120158,3.0,1.0,1,$450_pw,Available Now,March 2016,3168,2016,3,CLAYTON,450,213031347
5017,"1/12 MADELEINE ROAD, CLAYTON",-37.915266,145.120158,3.0,1.0,1,$470,Available Now,March 2016,3168,2016,3,CLAYTON,470,201011483
5018,"1/12 MADELEINE ROAD, CLAYTON",-37.915266,145.120158,3.0,1.0,1,$470_pw,Available Now,March 2016,3168,2016,3,CLAYTON,470,205051100
5066,"1/65 VIEW STREET, CLAYTON",-37.926751,145.108946,4.0,2.0,2,$540_p.w.,House,January 2016,3168,2016,1,CLAYTON,540,210051544
5067,"1/65 VIEW STREET, CLAYTON",-37.926751,145.108946,4.0,2.0,2,$540_pw,House,January 2016,3168,2016,1,CLAYTON,540,217041477
5068,"1/65 VIEW STREET, CLAYTON",-37.926751,145.108946,4.0,2.0,2,$540,House,January 2016,3168,2016,1,CLAYTON,540,205031093
5125,"6 VICTOR ROAD, CLEMATIS",-37.929987,145.420214,2.0,1.0,1,$310_pw,none,September 2016,3782,2016,9,CLEMATIS,310,203021047
5135,"278 BELGRAVE GEMBROOK ROAD, CLEMATIS",-37.928421,145.421523,4.0,2.0,2,$400_per_week,House,November 2016,3782,2016,11,CLEMATIS,400,205041094
5141,"300 BELGRAVE GEMBROOK ROAD, CLEMATIS",-37.9293057,145.4253473,3.0,1.0,1,$400_per_week,House,May 2016,3782,2016,5,CLEMATIS,400,211041269
5142,"13 PARADISE AVENUE, CLEMATIS",-37.934453,145.420268,4.0,2.0,0,$320_per_week,House,May 2016,3782,2016,5,CLEMATIS,320,211041269
5143,"13 PARADISE AVENUE, CLEMATIS",-37.934453,145.420268,4.0,2.0,0,$320_per_week,House,April 2016,3782,2016,4,CLEMATIS,320,211041269
5146,"1 / 1980 WELLINGTON ROAD, CLEMATIS",-37.933919,145.41209,2.0,1.0,2,$270_per_week,Unit/apmt,April 2016,3782,2016,4,CLEMATIS,270,207011521
5175,"260A BELLBIRD ROAD, CLIFTON CREEK",-37.721096,147.703205,3.0,1.0,0,$260_Weekly,House,February 2016,3875,2016,2,CREEK,260,216011407
5227,"3 YAMBLA STREET, CLIFTON HILL",-37.792673,145.000644,3.0,2.0,0,$695_per_week,House,August 2016,3068,2016,8,HILL,695,206071145
5228,"3 YAMBLA STREET, CLIFTON HILL",-37.792673,145.000644,3.0,2.0,0,$730_per_week,House,July 2016,3068,2016,7,HILL,730,203021037
5245,"17 MYRTLE STREET, CLIFTON HILL",-37.7917829,144.9969505,2.0,1.0,2,$690_Week,House,November 2016,3068,2016,11,HILL,690,211041269
5246,"17 MYRTLE STREET, CLIFTON HILL",-37.7917829,144.9969505,2.0,1.0,2,$690_pw,House,November 2016,3068,2016,11,HILL,690,205041096
5288,"12/82 ROSENEATH STREET, CLIFTON HILL",-37.793089,144.99717,3.0,2.0,1,$710_Week,none,February 2016,3068,2016,2,HILL,710,212031562
5289,"12/82 ROSENEATH STREET, CLIFTON HILL",-37.793089,144.99717,3.0,2.0,1,$710_pw,none,February 2016,3068,2016,2,HILL,710,202011018
5296,"25 HEIDELBERG ROAD, CLIFTON HILL",-37.787143,144.996092,4.0,2.0,1,$850_per_week,House,October 2016,3068,2016,10,HILL,850,207011155
5303,"8/32 DWYER STREET, CLIFTON HILL",-37.787239,145.002994,1.0,1.0,1,$330_pw,none,October 2016,3068,2016,10,HILL,330,207031163
5415,"7/9 SOUTH TERRACE, CLIFTON HILL",-37.79235,144.99226,1.0,1.0,1,$255_per_week,Unit/apmt,March 2016,3068,2016,3,HILL,255,207031163
5421,"650 SMITH STREET, CLIFTON HILL",-37.79212,144.985634,3.0,2.0,1,$795_per_week,Rental_residential,April 2016,3068,2016,4,HILL,795,206061136
5422,"650 SMITH STREET, CLIFTON HILL",-37.79212,144.985634,3.0,2.0,1,$795_per_week,Rental_residential,March 2016,3068,2016,3,HILL,795,206031113
5443,"18/14 THE ESPLANADE, CLIFTON HILL",-37.788057,145.005844,1.0,1.0,1,$315_pw,Rental_residential,August 2016,3068,2016,8,HILL,315,206071145
5444,"18/14 THE ESPLANADE, CLIFTON HILL",-37.788057,145.005844,1.0,1.0,1,$330_Week,Rental_residential,July 2016,3068,2016,7,HILL,330,207011520
5477,"5/200 NOONE STREET, CLIFTON HILL",-37.793351,144.98911,2.0,2.0,1,$590_pw,none,February 2016,3068,2016,2,HILL,590,207011521
5542,"104 NOONE STREET, CLIFTON HILL",-37.79363,144.994951,4.0,2.0,0,$440_pw,House,May 2016,3068,2016,5,HILL,440,212031562
5543,"104 NOONE STREET, CLIFTON HILL",-37.79363,144.994951,4.0,2.0,0,$440_per_week,House,May 2016,3068,2016,5,HILL,440,206071140
5587,"144 GOLD STREET, CLIFTON HILL",-37.793178,144.990398,2.0,1.0,0,$550_Week,Rental_residential,May 2016,3068,2016,5,HILL,550,205031087
5619,"143 ROSENEATH STREET, CLIFTON HILL",-37.792891,144.999684,2.0,1.0,0,$520_per_week,Terrace,August 2016,3068,2016,8,HILL,520,207031163
5620,"143 ROSENEATH STREET, CLIFTON HILL",-37.792891,144.999684,2.0,1.0,0,$520_pw,Terrace,July 2016,3068,2016,7,HILL,520,207031163
5637,"53 GRANT STREET, CLIFTON HILL",-37.787446,144.996319,2.0,1.0,0,$520_pw,House,September 2016,3068,2016,9,HILL,520,206061136
5638,"53 GRANT STREET, CLIFTON HILL",-37.787446,144.996319,2.0,1.0,0,$520_pw,House,August 2016,3068,2016,8,HILL,520,205011076
5639,"53 GRANT STREET, CLIFTON HILL",-37.787446,144.996319,2.0,1.0,0,$530_pw,House,June 2016,3068,2016,6,HILL,530,206071140
5728,"7/41 FENWICK STREET, CLIFTON HILL",-37.788821,144.999765,2.0,1.0,1,$420_pw,none,January 2016,3068,2016,1,HILL,420,201011002
5734,"1 CLIFTON STREET, CLIFTON HILL",-37.787337,145.00483,2.0,1.0,0,$600_per_week,Rental_residential,May 2016,3068,2016,5,HILL,600,206071145
5768,"1/81 FIELD STREET, CLIFTON HILL",-37.7921964,145.0022619,2.0,1.0,1,$500_pw,Rental_residential,April 2016,3068,2016,4,HILL,500,217031473
5782,"4/15 ANDERSON STREET, CLIFTON HILL",-37.792677,144.99261,2.0,1.0,1,$395_pw,Rental_residential,May 2016,3068,2016,5,HILL,395,206051513
5783,"4/15 ANDERSON STREET, CLIFTON HILL",-37.792677,144.99261,2.0,1.0,1,$400_Week,Rental_residential,March 2016,3068,2016,3,HILL,400,212051325
5821,"15 COUNCIL STREET, CLIFTON HILL",-37.792726,144.986822,3.0,2.0,2,$780_pw,House,June 2016,3068,2016,6,HILL,780,211051276
5893,"6 BARRIES PLACE, CLIFTON HILL",-37.7949562,144.9986966,3.0,3.0,1,$710_pw,Rental_residential,June 2016,3068,2016,6,HILL,710,206051514
5894,"6 BARRIES PLACE, CLIFTON HILL",-37.7949562,144.9986966,3.0,3.0,1,$710_Week,Rental_residential,May 2016,3068,2016,5,HILL,710,206031116
5910,"135A NOONE STREET, CLIFTON HILL",-37.7942689,144.9984992,1.0,1.0,0,$450_per_week,House,November 2016,3068,2016,11,HILL,450,211051276
5967,"30 WRIGHT STREET, CLIFTON HILL",-37.78906,145.00174,2.0,1.0,1,$600_Week,Rental_residential,December 2016,3068,2016,12,HILL,600,206031113
5997,"9 SPENSLEY STREET, CLIFTON HILL",-37.788833,144.996153,2.0,1.0,1,$600_per_week,Townhouse,March 2016,3068,2016,3,HILL,600,209031209
6017,"8/56 JOHN STREET, CLIFTON HILL",-37.787359,144.995813,2.0,1.0,1,$425_per_week,none,July 2016,3068,2016,7,HILL,425,203011034
6036,"78 RAMSDEN STREET, CLIFTON HILL",-37.79056,144.999593,3.0,1.0,2,$790_per_week,Rental_residential,May 2016,3068,2016,5,HILL,790,217041479
6069,"4/41 FENWICK STREET, CLIFTON HILL",-37.788821,144.999765,2.0,1.0,1,$375_per_week,none,May 2016,3068,2016,5,HILL,375,206061138
6075,"7/18 SOUTH TERRACE STREET, CLIFTON HILL",-37.792683,144.993377,3.0,1.0,1,$560_pw,none,May 2016,3068,2016,5,HILL,560,207031163
6076,"7/18 SOUTH TERRACE STREET, CLIFTON HILL",-37.792683,144.993377,3.0,1.0,1,$560_Week,none,May 2016,3068,2016,5,HILL,560,207031163
6095,"30 HILTON ST, CLIFTON HILL",-37.7920695,144.9876984,2.0,1.0,0,$440_pw,Terrace,January 2016,3068,2016,1,HILL,440,216031594
6127,"5/56 JOHN STREET, CLIFTON HILL",-37.78723145,144.99583435,1.0,1.0,1,$350_per_week,none,January 2016,3068,2016,1,HILL,350,204031069
6128,"5/56 JOHN STREET, CLIFTON HILL",-37.78723145,144.99583435,1.0,1.0,1,$360_per_week,none,January 2016,3068,2016,1,HILL,360,204031069
6173,"6 RUTLAND STREET, CLIFTON HILL",-37.794625,144.996207,2.0,1.0,1,$500_pw,House,September 2016,3068,2016,9,HILL,500,206061138
6174,"6 RUTLAND STREET, CLIFTON HILL",-37.794625,144.996207,2.0,1.0,1,$500_pw,House,August 2016,3068,2016,8,HILL,500,206061138
6175,"6 RUTLAND STREET, CLIFTON HILL",-37.794625,144.996207,2.0,1.0,1,$550_pw,House,June 2016,3068,2016,6,HILL,550,210051242
6204,"3/264 ALEXANDRA PARADE EAST, CLIFTON HILL",-37.7951262,144.9995113,1.0,1.0,1,$350_pw,Rental_residential,February 2016,3068,2016,2,HILL,350,206071145
6205,"3/264 ALEXANDRA PARADE EAST, CLIFTON HILL",-37.7951262,144.9995113,1.0,1.0,1,$350_Week,Rental_residential,February 2016,3068,2016,2,HILL,350,207031163
6266,"132 NOONE STREET, CLIFTON HILL",-37.793811,144.996547,2.0,1.0,0,$530_Week,House,December 2016,3068,2016,12,HILL,530,206071145
6267,"132 NOONE STREET, CLIFTON HILL",-37.793811,144.996547,2.0,1.0,0,$530_pw,House,December 2016,3068,2016,12,HILL,530,206021110
6274,"363 WELLINGTON STREET, CLIFTON HILL",-37.793646,144.987995,3.0,2.0,1,$710_per_week,Rental_residential,August 2016,3068,2016,8,HILL,710,206071145
6275,"363 WELLINGTON STREET, CLIFTON HILL",-37.793646,144.987995,3.0,2.0,1,$740_per_week,Rental_residential,July 2016,3068,2016,7,HILL,740,209011200
6276,"363 WELLINGTON STREET, CLIFTON HILL",-37.793646,144.987995,3.0,2.0,1,$790_per_week,Rental_residential,March 2016,3068,2016,3,HILL,790,209031209
6288,"14 YARRAMUNDI DRIVE, CLIFTON SPRINGS",-38.1579965,144.5571227,3.0,1.0,2,$320_Weekly,none,December 2016,3222,2016,12,SPRINGS,320,206071517
6289,"14 YARRAMUNDI DRIVE, CLIFTON SPRINGS",-38.1579965,144.5571227,3.0,1.0,2,$320,none,December 2016,3222,2016,12,SPRINGS,320,203031048
6394,"5 BOGAN STREET, CLIFTON SPRINGS",-38.155787,144.562809,3.0,2.0,4,$420_Weekly,none,May 2016,3222,2016,5,SPRINGS,420,206061136
6395,"5 BOGAN STREET, CLIFTON SPRINGS",-38.155787,144.562809,3.0,2.0,4,$420_per_week,none,May 2016,3222,2016,5,SPRINGS,420,204031492
6396,"5 BOGAN STREET, CLIFTON SPRINGS",-38.155787,144.562809,3.0,2.0,4,$420_pw,none,May 2016,3222,2016,5,SPRINGS,420,214011371
6397,"5 BOGAN STREET, CLIFTON SPRINGS",-38.155787,144.562809,3.0,2.0,4,$420,none,May 2016,3222,2016,5,SPRINGS,420,203031048
6469,"695 SPUR ROAD, CLONBINANE",-37.307705,145.112112,3.0,2.0,1,$350_pw,House,May 2016,3658,2016,5,CLONBINANE,350,214011373
6500,"13-15 SUBURBAN STREET, CLUNES",-37.29528,143.778701,3.0,1.0,2,$300_per_week,House,July 2016,3370,2016,7,CLUNES,300,212051322
6501,"13-15 SUBURBAN STREET, CLUNES",-37.29528,143.778701,3.0,1.0,2,$300_pw,House,July 2016,3370,2016,7,CLUNES,300,207031163
6542,"45A THORNTON STREET, CLUNES",-37.300026,143.782154,2.0,1.0,1,$230_pw,House,May 2016,3370,2016,5,CLUNES,230,204031073
6551,"23 ALBERT STREET, CLUNES",-37.28706,143.789882,3.0,1.0,1,$240_pw,House,December 2016,3370,2016,12,CLUNES,240,208021178
6570,"18 TALBOT ROAD, CLUNES",-37.291558,143.774007,3.0,1.0,2,$240,House,February 2016,3370,2016,2,CLUNES,240,211051282
6600,"5 KILKENNY LANE, CLUNES",-37.297471,143.774589,2.0,1.0,4,$185,House,July 2016,3370,2016,7,CLUNES,185,214021377
6601,"5 KILKENNY LANE, CLUNES",-37.297471,143.774589,2.0,1.0,4,$185,House,May 2016,3370,2016,5,CLUNES,185,217041479
6608,"17 LIGAR STREET, CLUNES",-37.294749,143.790146,3.0,1.0,0,$270_pw,House,June 2016,3370,2016,6,CLUNES,270,205021084
6619,"45 THORNTON STREET, CLUNES",-37.300119,143.782084,3.0,1.0,1,$260,none,January 2016,3370,2016,1,CLUNES,260,213021344
6635,"64 SERVICE STREET, CLUNES",-37.3001882,143.7827429,2.0,1.0,1,$230_Leased,House,September 2016,3370,2016,9,CLUNES,230,206061138
6636,"64 SERVICE STREET, CLUNES",-37.3001882,143.7827429,2.0,1.0,1,$230_pw,House,June 2016,3370,2016,6,CLUNES,230,208011172
6660,"6 CAMERON STREET, CLUNES",-37.292247,143.791814,2.0,1.0,2,$215_per_week,none,October 2016,3370,2016,10,CLUNES,215,205021084
6661,"6 CAMERON STREET, CLUNES",-37.292247,143.791814,2.0,1.0,2,$215_per_week,none,July 2016,3370,2016,7,CLUNES,215,206071140
6666,"23 SUBURBAN STREET, CLUNES",-37.296338,143.77741,3.0,2.0,2,$320_per_week,House,August 2016,3370,2016,8,CLUNES,320,206031113
6667,"23 SUBURBAN STREET, CLUNES",-37.296338,143.77741,3.0,2.0,2,$320_per_week,House,February 2016,3370,2016,2,CLUNES,320,206041510
6668,"14 CAMP PARADE, CLUNES",-37.291247,143.779935,3.0,1.0,2,$260_Leased,House,March 2016,3370,2016,3,CLUNES,260,206041510
6705,"40 KARABAIR STREET, CLYDE NORTH",-38.1184629,145.3273726,4.0,2.0,2,$390,House,August 2016,3978,2016,8,NORTH,390,212031556
6706,"40 KARABAIR STREET, CLYDE NORTH",-38.1184629,145.3273726,4.0,2.0,2,$390_pw,House,August 2016,3978,2016,8,NORTH,390,212031556
6879,"30 ELLAROO CIRCUIT, CLYDE NORTH",-38.078546,145.355466,3.0,2.0,2,$370,House,November 2016,3978,2016,11,NORTH,370,208021181
6880,"30 ELLAROO CIRCUIT, CLYDE NORTH",-38.078546,145.355466,3.0,2.0,2,$370_per_week,House,November 2016,3978,2016,11,NORTH,370,212031555
6881,"30 ELLAROO CIRCUIT, CLYDE NORTH",-38.078546,145.355466,3.0,2.0,2,$370_pw,House,November 2016,3978,2016,11,NORTH,370,202011019
6982,"17 BLACKSMITH WAY, CLYDE NORTH",-38.1184629,145.3273726,4.0,2.0,2,$460_pw,House,January 2016,3978,2016,1,NORTH,460,212031556
6983,"17 BLACKSMITH WAY, CLYDE NORTH",-38.1184629,145.3273726,4.0,2.0,2,$460,House,January 2016,3978,2016,1,NORTH,460,216031594
7058,"12 BALLARTO ROAD, CLYDE",-38.13434,145.329343,4.0,2.0,4,$520,House,July 2016,3978,2016,7,CLYDE,520,209011199
7059,"12 BALLARTO ROAD, CLYDE",-38.13434,145.329343,4.0,2.0,4,$520_pw,House,July 2016,3978,2016,7,CLYDE,520,202011018
7069,"84 BIMBERRY CIRCUIT, CLYDE",-38.1247122,145.3230869,3.0,2.0,1,$355_Weekly,House,July 2016,3978,2016,7,CLYDE,355,206031113
7088,"110 CLYDE FIVE WAYS ROAD, CLYDE",-38.1595057,145.3188431,4.0,3.0,3,$500_per_week,House,February 2016,3978,2016,2,CLYDE,500,213011339
7089,"110 CLYDE FIVE WAYS ROAD, CLYDE",-38.1595057,145.3188431,4.0,3.0,3,$500_per_week,House,January 2016,3978,2016,1,CLYDE,500,212051319
7207,"82 GREEN GULLY ROAD, CLYDE",-38.1199516,145.3224339,2.0,2.0,2,$350_per_week,Townhouse,July 2016,3978,2016,7,CLYDE,350,212031557
7208,"82 GREEN GULLY ROAD, CLYDE",-38.1199516,145.3224339,2.0,2.0,2,$340_per_week,Townhouse,January 2016,3978,2016,1,CLYDE,340,212031557
7245,"8 PELION AVENUE, CLYDE",-38.133137,145.330643,4.0,2.0,2,$410_Wk,none,November 2016,3978,2016,11,CLYDE,410,212031303
7264,"82 GREEN GULLY RD, CLYDE",-38.1199516,145.3224339,2.0,2.0,2,$350_per_week,Townhouse,July 2016,3978,2016,7,CLYDE,350,206071518
7274,"170 LOCARNO ROAD, CLYDESDALE",-37.183976,144.083274,2.0,1.0,2,$345,House,July 2016,3461,2016,7,CLYDESDALE,345,201021011
7276,"174 JONES-REECES ROAD, CLYDESDALE",-37.174537,144.094911,1.0,1.0,0,$280_pw,House,March 2016,3461,2016,3,CLYDESDALE,280,214011373
7295,"328 BENGWORDEN ROAD, COBAINS",-38.072845,147.110754,2.0,1.0,2,$230_per_week,Rental_residential,May 2016,3851,2016,5,COBAINS,230,206061138
7296,"328 BENGWORDEN ROAD, COBAINS",-38.072845,147.110754,2.0,1.0,2,$180_per_week,Rental_residential,March 2016,3851,2016,3,COBAINS,180,205051103
7349,"74 WALKER STREET, COBDEN",-38.32536,143.080733,2.0,1.0,1,$215_per_week,House,June 2016,3266,2016,6,COBDEN,215,217031475
7383,"95 CURDIE STREET, COBDEN",-38.328139,143.070004,3.0,2.0,4,$265_per_week,House,May 2016,3266,2016,5,COBDEN,265,206061138
7384,"95 CURDIE STREET, COBDEN",-38.328139,143.070004,3.0,2.0,4,$265,House,May 2016,3266,2016,5,COBDEN,265,204031491
7439,"454 COBDEN STONYFORD ROAD, COBDEN",-38.341147,143.124919,3.0,1.0,2,$220_per_week,House,May 2016,3266,2016,5,COBDEN,220,205031093
7445,"2 / 51 CURDIE STREET, COBDEN",-38.328759,143.075471,3.0,1.0,1,$210_pw,none,September 2016,3266,2016,9,COBDEN,210,217031475
7446,"2 / 51 CURDIE STREET, COBDEN",-38.328759,143.075471,3.0,1.0,1,$210,none,August 2016,3266,2016,8,COBDEN,210,206061138
7447,"2 / 51 CURDIE STREET, COBDEN",-38.328759,143.075471,3.0,1.0,1,$210_per_week,none,August 2016,3266,2016,8,COBDEN,210,209011199
7448,"2 / 51 CURDIE STREET, COBDEN",-38.328759,143.075471,3.0,1.0,1,$210_pw,none,July 2016,3266,2016,7,COBDEN,210,212031300
7449,"2 / 51 CURDIE STREET, COBDEN",-38.328759,143.075471,3.0,1.0,1,$210,none,May 2016,3266,2016,5,COBDEN,210,212011552
7450,"2 / 51 CURDIE STREET, COBDEN",-38.328759,143.075471,3.0,1.0,1,$210_per_week,none,May 2016,3266,2016,5,COBDEN,210,207011148
7488,"397 STONEYFORD ROAD, COBDEN",-38.332701,143.126845,3.0,1.0,1,$240_per_week,none,July 2016,3266,2016,7,COBDEN,240,217041478
7489,"397 STONEYFORD ROAD, COBDEN",-38.332701,143.126845,3.0,1.0,1,$220_per_week,none,January 2016,3266,2016,1,COBDEN,220,217031475
7495,"2960 MURRAY VALLEY HIGHWAY, COBRAM EAST",-35.959556,145.702856,4.0,2.0,8,$380_per_week,House,July 2016,3644,2016,7,EAST,380,202011025
7496,"2960 MURRAY VALLEY HIGHWAY, COBRAM EAST",-35.959556,145.702856,4.0,2.0,8,$380_pw,House,July 2016,3644,2016,7,EAST,380,202011025
7512,"2960 MURRAY VALLEY HIG WAY, COBRAM EAST",-35.959556,145.702856,5.0,2.0,2,$380,House,July 2016,3644,2016,7,EAST,380,208021176
7614,"3/1 STURT STREET, COBRAM",-35.926232,145.651634,2.0,1.0,1,$220_per_week,Unit/apmt,August 2016,3644,2016,8,COBRAM,220,211031267
7615,"3/1 STURT STREET, COBRAM",-35.926232,145.651634,2.0,1.0,1,$260_pw,Unit/apmt,July 2016,3644,2016,7,COBRAM,260,212011550
7616,"3/1 STURT STREET, COBRAM",-35.926232,145.651634,2.0,1.0,1,$260_per_week,Unit/apmt,June 2016,3644,2016,6,COBRAM,260,216021411
7632,"9B WILLS STREET, COBRAM",-35.926349,145.655039,3.0,1.0,1,$240,Unit/apmt,March 2016,3644,2016,3,COBRAM,240,202011025
7705,"20-22 DELTA AVENUE, COBURG NORTH",-37.721387,144.958497,1.0,1.0,0,$170_per_week,House,August 2016,3058,2016,8,NORTH,170,214011373
7706,"20-22 DELTA AVENUE, COBURG NORTH",-37.721387,144.958497,1.0,1.0,0,$170_per_week,House,July 2016,3058,2016,7,NORTH,170,214011373
7728,"2A MANLY COURT, COBURG NORTH",-37.720577,144.970207,3.0,2.0,1,$490_pw,Rental_residential,February 2016,3058,2016,2,NORTH,490,206061136
7729,"2A MANLY COURT, COBURG NORTH",-37.720577,144.970207,3.0,2.0,1,$490_Week,Rental_residential,January 2016,3058,2016,1,NORTH,490,213021342
7736,"2/816 SYDNEY ROAD, COBURG NORTH",-37.728934,144.963929,2.0,1.0,3,$370,Unit/apmt,November 2016,3058,2016,11,NORTH,370,214011373
7737,"2/816 SYDNEY ROAD, COBURG NORTH",-37.728934,144.963929,2.0,1.0,3,$420_per_week,Unit/apmt,October 2016,3058,2016,10,NORTH,420,214011373
7773,"5/767 SYDNEY ROAD, COBURG NORTH",-37.732851,144.964529,1.0,1.0,1,$290_pw,Unit,February 2016,3058,2016,2,NORTH,290,205051103
7791,"46 CAMERA WALK, COBURG NORTH",-37.7287512,144.98089,2.0,2.0,2,$400_Weekly,Unit,October 2016,3058,2016,10,NORTH,400,208011173
7792,"46 CAMERA WALK, COBURG NORTH",-37.7287512,144.98089,2.0,2.0,2,$400,Unit,October 2016,3058,2016,10,NORTH,400,210031236
7793,"46 CAMERA WALK, COBURG NORTH",-37.7287512,144.98089,2.0,2.0,2,$400_per_week,Unit,October 2016,3058,2016,10,NORTH,400,210031236
7794,"46 CAMERA WALK, COBURG NORTH",-37.7287512,144.98089,2.0,2.0,2,$400_pw,Unit,October 2016,3058,2016,10,NORTH,400,203021046
7801,"60 CAMERA WALK, COBURG NORTH",-37.7287374,144.9807689,3.0,2.0,2,$500,Unit,November 2016,3058,2016,11,NORTH,500,206061138
7802,"60 CAMERA WALK, COBURG NORTH",-37.7287374,144.9807689,3.0,2.0,2,$500_Weekly,Unit,November 2016,3058,2016,11,NORTH,500,214021379
7803,"60 CAMERA WALK, COBURG NORTH",-37.7287374,144.9807689,3.0,2.0,2,$500_per_week,Unit,November 2016,3058,2016,11,NORTH,500,212051319
7804,"60 CAMERA WALK, COBURG NORTH",-37.7287374,144.9807689,3.0,2.0,2,$500_pw,Unit,November 2016,3058,2016,11,NORTH,500,204011056
7851,"30 SNAPSHOT DRIVE, COBURG NORTH",-37.7298475,144.9822987,3.0,2.0,2,$500_Week,Available Now,August 2016,3058,2016,8,NORTH,500,206061138
7852,"30 SNAPSHOT DRIVE, COBURG NORTH",-37.7298475,144.9822987,3.0,2.0,2,$500_pw,Available Now,August 2016,3058,2016,8,NORTH,500,207011146
7946,"7/807 SYDNEY ROAD, COBURG NORTH",-37.731185,144.963781,1.0,1.0,1,$270_pw,Unit/apmt,November 2016,3058,2016,11,NORTH,270,204011060
7947,"7/807 SYDNEY ROAD, COBURG NORTH",-37.731185,144.963781,1.0,1.0,1,$270_pw,Unit/apmt,September 2016,3058,2016,9,NORTH,270,204011060
7948,"7/807 SYDNEY ROAD, COBURG NORTH",-37.731185,144.963781,1.0,1.0,1,$270_pw,Unit/apmt,July 2016,3058,2016,7,NORTH,270,204011060
7973,"3/13 MARAMA STREET, COBURG NORTH",-37.719332,144.958411,2.0,1.0,1,$290_pw,none,March 2016,3058,2016,3,NORTH,290,206061138
8018,"3/41 ARTHUR STREET, COBURG NORTH",-37.723567,144.980436,2.0,1.0,1,$310_Weekly,Rental_residential,November 2016,3058,2016,11,NORTH,310,205051103
8084,"8 APERTURE STREET, COBURG NORTH",-37.7286659,144.9823644,3.0,2.0,2,$450_per_week,Townhouse,June 2016,3058,2016,6,NORTH,450,212051319
8126,"10/23 BAXTER STREET, COBURG",-37.746319,144.963475,1.0,1.0,1,$260_Week,none,August 2016,3058,2016,8,COBURG,260,205051103
8127,"10/23 BAXTER STREET, COBURG",-37.746319,144.963475,1.0,1.0,1,$260_pw,none,July 2016,3058,2016,7,COBURG,260,205051103
8187,"1/40 LINSEY STREET, COBURG",-37.741183,144.953617,3.0,2.0,2,$580_per_week,none,August 2016,3058,2016,8,COBURG,580,207011147
8224,"41 LINSEY STREET, COBURG",-37.741145,144.952948,3.0,1.0,1,$390_pw,Rental_residential,November 2016,3058,2016,11,COBURG,390,205051103
8249,"1/203 NICHOLSON STREET, COBURG",-37.7428029,144.9776612,2.0,1.0,1,$350_pw,Rental_residential,December 2016,3058,2016,12,COBURG,350,202011018
8250,"1/203 NICHOLSON STREET, COBURG",-37.7428029,144.9776612,2.0,1.0,1,$350_Week,Rental_residential,December 2016,3058,2016,12,COBURG,350,207011146
8256,"9 BIGGS STREET, COBURG",-37.7309959,144.9814667,3.0,2.0,2,$510_per_week,none,January 2016,3058,2016,1,COBURG,510,210031236
8277,"19 SAUNDERS STREET, COBURG",-37.752043,144.950572,3.0,1.0,1,$485_pw,House,January 2016,3058,2016,1,COBURG,485,214021378
8287,"14 ROLLS STREET, COBURG",-37.749829,144.968644,2.0,1.0,0,$550_per_week,none,May 2016,3058,2016,5,COBURG,550,201021009
8288,"14 ROLLS STREET, COBURG",-37.749829,144.968644,2.0,1.0,0,$550_per_week,none,April 2016,3058,2016,4,COBURG,550,212051327
8326,"5 ANKETELL STREET, COBURG",-37.745631,144.959669,4.0,1.0,1,$580_per_week,House,September 2016,3058,2016,9,COBURG,580,204031071
8327,"5 ANKETELL STREET, COBURG",-37.745631,144.959669,4.0,1.0,1,$450_Week,House,April 2016,3058,2016,4,COBURG,450,211051277
8341,"13 PARK STREET, COBURG",-37.745682,144.96768,2.0,1.0,2,$400_per_week,House,January 2016,3058,2016,1,COBURG,400,212051322
8431,"177 URQUHART STREET, COBURG",-37.741016,144.975769,3.0,2.0,1,$500_Weekly,House,June 2016,3058,2016,6,COBURG,500,205031091
8432,"177 URQUHART STREET, COBURG",-37.741016,144.975769,3.0,2.0,1,$500,House,June 2016,3058,2016,6,COBURG,500,205031091
8433,"177 URQUHART STREET, COBURG",-37.741016,144.975769,3.0,2.0,1,$500_pw,House,June 2016,3058,2016,6,COBURG,500,206041117
8539,"2/7-9 BELL STREET, COBURG",-37.742764,144.977229,2.0,2.0,1,$390,Rental_residential,September 2016,3058,2016,9,COBURG,390,217031475
8540,"2/7-9 BELL STREET, COBURG",-37.742764,144.977229,2.0,2.0,1,$390_per_week,Rental_residential,September 2016,3058,2016,9,COBURG,390,217031475
8622,"4/85 GAFFNEY STREET, COBURG",-37.733725,144.959773,2.0,1.0,1,$450_pw,House,March 2016,3058,2016,3,COBURG,450,206011498
8623,"4/85 GAFFNEY STREET, COBURG",-37.733725,144.959773,2.0,1.0,1,$450_per_week,House,February 2016,3058,2016,2,COBURG,450,202011021
8660,"4/85 GAFFNEY ST, COBURG",-37.733725,144.959773,2.0,1.0,1,$450_Weekly,House,March 2016,3058,2016,3,COBURG,450,206051129
8705,"1/626 SYDNEY ROAD, COBURG",-37.735539,144.96646,2.0,1.0,1,$440_Weekly,none,November 2016,3058,2016,11,COBURG,440,209031211
8706,"1/626 SYDNEY ROAD, COBURG",-37.735539,144.96646,2.0,1.0,1,$310_per_week,none,February 2016,3058,2016,2,COBURG,310,203021045
8719,"14A HARDWICK STREET, COBURG",-37.749445,144.968678,2.0,1.0,0,$470_per_week,House,May 2016,3058,2016,5,COBURG,470,212051322
8785,"7/144 NICHOLSON STREET, COBURG",-37.745665,144.978198,2.0,1.0,1,$350_pw,Unit/apmt,June 2016,3058,2016,6,COBURG,350,213021343
8967,"2/144 NICHOLSON STREET, COBURG",-37.745681,144.977713,2.0,1.0,1,$350_per_week,Unit/apmt,December 2016,3058,2016,12,COBURG,350,208031187
8968,"2/144 NICHOLSON STREET, COBURG",-37.745681,144.977713,2.0,1.0,1,$350_pw,Unit/apmt,December 2016,3058,2016,12,COBURG,350,206011497
8969,"2/144 NICHOLSON STREET, COBURG",-37.745681,144.977713,2.0,1.0,1,$350_Weekly,Unit/apmt,December 2016,3058,2016,12,COBURG,350,206011497
9005,"2/56 THE AVENUE, COBURG",-37.752826,144.968178,2.0,2.0,1,$480_per_week,none,June 2016,3058,2016,6,COBURG,480,206011497
9012,"32A LOCH STREET, COBURG",-37.74664,144.962241,4.0,2.0,2,$600,none,October 2016,3058,2016,10,COBURG,600,206011498
9013,"32A LOCH STREET, COBURG",-37.74664,144.962241,4.0,2.0,2,$600_per_week,none,October 2016,3058,2016,10,COBURG,600,206011498
9041,"9A MILLER STREET, COBURG",-37.750111,144.969125,3.0,1.0,0,$450,House,January 2016,3058,2016,1,COBURG,450,208041194
9042,"9A MILLER STREET, COBURG",-37.750111,144.969125,3.0,1.0,0,$450_per_week,House,January 2016,3058,2016,1,COBURG,450,208041194
9043,"9A MILLER STREET, COBURG",-37.750111,144.969125,3.0,1.0,0,$450_pw,House,January 2016,3058,2016,1,COBURG,450,208041194
9061,"2/3 SHAFTSBURY STREET, COBURG",-37.75354,144.953103,2.0,1.0,1,$480_per_week,Townhouse,June 2016,3058,2016,6,COBURG,480,207011147
9062,"2/3 SHAFTSBURY STREET, COBURG",-37.75354,144.953103,2.0,1.0,1,$480,Townhouse,June 2016,3058,2016,6,COBURG,480,206011498
9063,"2/3 SHAFTSBURY STREET, COBURG",-37.75354,144.953103,2.0,1.0,1,$480_per_week,Townhouse,January 2016,3058,2016,1,COBURG,480,206011498
9064,"2/3 SHAFTSBURY STREET, COBURG",-37.75354,144.953103,2.0,1.0,1,$480_pw,Townhouse,January 2016,3058,2016,1,COBURG,480,206011498
9065,"2/3 SHAFTSBURY STREET, COBURG",-37.75354,144.953103,2.0,1.0,1,$480,Townhouse,January 2016,3058,2016,1,COBURG,480,206011498
9066,"2/3 SHAFTSBURY STREET, COBURG",-37.75354,144.953103,2.0,1.0,1,$500_per_week,Townhouse,January 2016,3058,2016,1,COBURG,500,206011498
9077,"4/36 THE GROVE, COBURG",-37.751916,144.969914,2.0,1.0,1,$400,Townhouse,August 2016,3058,2016,8,COBURG,400,210011230
9078,"4/36 THE GROVE, COBURG",-37.751916,144.969914,2.0,1.0,1,$400_per_week,Townhouse,August 2016,3058,2016,8,COBURG,400,211031266
9093,"36 FRANCIS STREET, COBURG",-37.7368624,144.9493732,3.0,1.0,1,$450_per_week,Townhouse,November 2016,3058,2016,11,COBURG,450,206011498
9094,"36 FRANCIS STREET, COBURG",-37.7368624,144.9493732,3.0,1.0,1,$450,Townhouse,November 2016,3058,2016,11,COBURG,450,206011498
9210,"3/2 HUDSON STREET, COBURG",-37.744171,144.962263,2.0,1.0,1,$450_per_week,Unit/apmt,November 2016,3058,2016,11,COBURG,450,206011498
9260,"28/4 WOIWURUNG CRESCENT, COBURG",-37.736462,144.974045,2.0,2.0,1,$370_pw,Unit/apmt,July 2016,3058,2016,7,COBURG,370,201021011
9261,"28/4 WOIWURUNG CRESCENT, COBURG",-37.736462,144.974045,2.0,2.0,1,$370_pw,Unit/apmt,June 2016,3058,2016,6,COBURG,370,206011497
9285,"2/1 CARR STREET, COBURG",-37.731194,144.970438,2.0,1.0,1,$350_per_week,House,June 2016,3058,2016,6,COBURG,350,206051129
9380,"274 BELL STREET, COBURG",-37.73991,144.95405,3.0,1.0,2,$420_per_week,Available Now,November 2016,3058,2016,11,COBURG,420,206051129
9391,"237/14-20 NICHOLSON STREET, COBURG",-37.755441,144.975716,1.0,1.0,0,$300_Weekly,Available Now,May 2016,3058,2016,5,COBURG,300,213021341
9395,"42 PATTERSON STREET, COBURG",-37.748713,144.972564,3.0,2.0,2,$550_per_week,none,November 2016,3058,2016,11,COBURG,550,206011497
9403,"1 BECKWITH STREET, COBURG",-37.738086,144.965278,3.0,1.0,3,$470_per_week,none,April 2016,3058,2016,4,COBURG,470,206011497
9411,"41/14 BELL STREET, COBURG",-37.74239,144.977185,2.0,1.0,1,$380_pw,none,December 2016,3058,2016,12,COBURG,380,206011497
9423,"3/33 SHAFTSBURY STREET, COBURG",-37.751325,144.953636,3.0,1.0,1,$400_per_week,none,April 2016,3058,2016,4,COBURG,400,206011498
9424,"3/33 SHAFTSBURY STREET, COBURG",-37.751325,144.953636,3.0,1.0,1,$400_pw,none,April 2016,3058,2016,4,COBURG,400,201021011
9425,"3/33 SHAFTSBURY STREET, COBURG",-37.751325,144.953636,3.0,1.0,1,$420_pw,none,February 2016,3058,2016,2,COBURG,420,206011498
9431,"3/33 SHAFTSBURY ST., COBURG",-37.751293,144.95336,3.0,1.0,1,$400_per_week,none,April 2016,3058,2016,4,COBURG,400,201021011
9469,"20 SHACKELL STREET, COBURG",-37.742317,144.952214,3.0,1.0,2,$460_Weekly,House,June 2016,3058,2016,6,COBURG,460,206071143
9470,"20 SHACKELL STREET, COBURG",-37.742317,144.952214,3.0,1.0,2,$460,House,June 2016,3058,2016,6,COBURG,460,215021470
9471,"20 SHACKELL STREET, COBURG",-37.742317,144.952214,3.0,1.0,2,$460_pw,House,June 2016,3058,2016,6,COBURG,460,206011498
9494,"2/185 MORELAND ROAD, COBURG",-37.755137,144.964836,3.0,1.0,1,$470_per_week,Townhouse,March 2016,3058,2016,3,COBURG,470,206011107
9495,"2/185 MORELAND ROAD, COBURG",-37.755137,144.964836,3.0,1.0,1,$470,Townhouse,March 2016,3058,2016,3,COBURG,470,208011173
9496,"2/185 MORELAND ROAD, COBURG",-37.755137,144.964836,3.0,1.0,1,$500_pw,Townhouse,February 2016,3058,2016,2,COBURG,500,206011497
9631,"109A/41-43 STOCKADE AVENUE, COBURG",-37.7390664,144.9698398,1.0,1.0,1,$270_per_week,none,December 2016,3058,2016,12,COBURG,270,206071143
9632,"109A/41-43 STOCKADE AVENUE, COBURG",-37.7390664,144.9698398,1.0,1.0,1,$260_per_week,none,February 2016,3058,2016,2,COBURG,260,206011497
9637,"20/1 MANNA GUM COURT, COBURG",-37.737353,144.976093,3.0,2.0,2,$500_pw,none,December 2016,3058,2016,12,COBURG,500,206011497
9665,"69A MORELAND ROAD, COBURG",-37.756399,144.97422,3.0,1.0,1,$380_pw,none,February 2016,3058,2016,2,COBURG,380,213031350
9693,"27 HARDING STREET, COBURG",-37.745161,144.969769,2.0,1.0,1,$495_pw,none,June 2016,3058,2016,6,COBURG,495,206011497
9694,"27 HARDING STREET, COBURG",-37.745161,144.969769,2.0,1.0,1,$495_Week,none,June 2016,3058,2016,6,COBURG,495,206011497
9781,"26 SNAPSHOT DRIVE, COBURG",-37.72998,144.9824245,3.0,2.0,2,$500_per_week,none,July 2016,3058,2016,7,COBURG,500,210031236
9806,"4/17 SAUNDERS STREET, COBURG",-37.752209,144.950437,2.0,1.0,1,$330_per_week,Unit,February 2016,3058,2016,2,COBURG,330,206011498
9810,"11/5 JESSIE STREET, COBURG",-37.754099,144.960515,2.0,1.0,1,$300_Weekly,Unit,October 2016,3058,2016,10,COBURG,300,206011107
9818,"6/15-17 DECARLE STREET, COBURG",-37.753054,144.966247,1.0,1.0,1,$245,Unit,November 2016,3058,2016,11,COBURG,245,206011497
9830,"10/345 MORELAND ROAD, COBURG",-37.753767,144.952453,1.0,1.0,1,$240_per_week,Unit,January 2016,3058,2016,1,COBURG,240,206011498
9879,"REAR/112 BELL STREET, COBURG",-37.741066,144.965639,3.0,1.0,0,$450_pw,House,December 2016,3058,2016,12,COBURG,450,213031350
10020,"3/11 METHVEN STREET, COBURG",-37.746901,144.963811,2.0,1.0,1,$370_per_week,none,February 2016,3058,2016,2,COBURG,370,206011497
10064,"332/12-20 NICHOLSON STREET, COBURG",-37.75544,144.975529,2.0,1.0,1,$340_pw,Rental_residential,February 2016,3058,2016,2,COBURG,340,206011497
10094,"5/144 NICHOLSON STREET, COBURG",-37.745681,144.977713,2.0,1.0,1,$290_pw,none,December 2016,3058,2016,12,COBURG,290,213021341
10095,"5/144 NICHOLSON STREET, COBURG",-37.745681,144.977713,2.0,1.0,1,$290_pw,none,November 2016,3058,2016,11,COBURG,290,213021341
10096,"5/144 NICHOLSON STREET, COBURG",-37.745681,144.977713,2.0,1.0,1,$310_per_week,none,May 2016,3058,2016,5,COBURG,310,213031350
10097,"5/144 NICHOLSON STREET, COBURG",-37.745681,144.977713,2.0,1.0,1,$300_pw,none,April 2016,3058,2016,4,COBURG,300,211031266
10109,"46 BERRY STREET, COBURG",-37.746066,144.95825,3.0,1.0,3,$460_pw,none,February 2016,3058,2016,2,COBURG,460,206051129
10110,"46 BERRY STREET, COBURG",-37.746066,144.95825,3.0,1.0,3,$460_Week,none,February 2016,3058,2016,2,COBURG,460,206011498
10113,"4/15 BRUCE STREET, COBURG",-37.745675,144.947684,3.0,1.0,1,$430_per_week,none,June 2016,3058,2016,6,COBURG,430,214011372
10142,"23A MURRAY STREET, COBURG",-37.738829,144.958816,3.0,1.0,1,$450_pw,none,June 2016,3058,2016,6,COBURG,450,206011498
10143,"23A MURRAY STREET, COBURG",-37.738829,144.958816,3.0,1.0,1,$450_Week,none,May 2016,3058,2016,5,COBURG,450,206011498
10222,"1/51-53 STOCKADE AVENUE, COBURG",-37.7383959,144.9702691,3.0,3.0,2,$510_per_week,Townhouse,June 2016,3058,2016,6,COBURG,510,206011497
10240,"28 SARGOOD STREET, COBURG",-37.747845,144.963683,2.0,1.0,1,$450_Week,Rental_residential,November 2016,3058,2016,11,COBURG,450,206011497
10241,"28 SARGOOD STREET, COBURG",-37.747845,144.963683,2.0,1.0,1,$450_pw,Rental_residential,November 2016,3058,2016,11,COBURG,450,206011497
10268,"28 LINDA STREET, COBURG",-37.750645,144.960192,3.0,1.0,2,$630_per_week,Available Now,February 2016,3058,2016,2,COBURG,630,208031186
10272,"54A SHEFFIELD STREET, COBURG",-37.747091,144.971109,3.0,1.0,1,$525_pw,Townhouse,April 2016,3058,2016,4,COBURG,525,211031266
10333,"3/618 SYDNEY ROAD, COBURG",-37.735994,144.966585,3.0,1.0,1,$350_Weekly,none,June 2016,3058,2016,6,COBURG,350,211031266
10350,"27 SAUNDERS STREET, COBURG",-37.751542,144.950563,2.0,1.0,0,$430_per_week,none,January 2016,3058,2016,1,COBURG,430,206011498
10370,"3/22 CHAMBERS STREET, COBURG",-37.747267,144.96884,2.0,1.0,1,$370_pw,none,March 2016,3058,2016,3,COBURG,370,206011497
10371,"3/22 CHAMBERS STREET, COBURG",-37.747267,144.96884,2.0,1.0,1,$370_pw,none,February 2016,3058,2016,2,COBURG,370,206011497
10405,"28B COBURG STREET, COBURG",-37.747912,144.971097,2.0,1.0,0,$500_pw,House,May 2016,3058,2016,5,COBURG,500,217011420
10459,"19 SERVICE STREET, COBURG",-37.739671,144.96189,3.0,2.0,1,$595_pw,House,December 2016,3058,2016,12,COBURG,595,206011498
10478,"8/9 THE GROVE, COBURG",-37.7513113,144.9665701,2.0,1.0,1,$350_Week,Rental_residential,February 2016,3058,2016,2,COBURG,350,206011497
10479,"8/9 THE GROVE, COBURG",-37.7513113,144.9665701,2.0,1.0,1,$350_pw,Rental_residential,February 2016,3058,2016,2,COBURG,350,206011497
10494,"18/2 ALICE STREET, COBURG",-37.743803,144.957178,2.0,1.0,1,$260_p.w.,none,January 2016,3058,2016,1,COBURG,260,206011498
10495,"18/2 ALICE STREET, COBURG",-37.743803,144.957178,2.0,1.0,1,$260_pw,none,January 2016,3058,2016,1,COBURG,260,208021176
10496,"18/2 ALICE STREET, COBURG",-37.743803,144.957178,2.0,1.0,1,$260_Weekly,none,January 2016,3058,2016,1,COBURG,260,206011498
10497,"18/2 ALICE STREET, COBURG",-37.743803,144.957178,2.0,1.0,1,$260,none,January 2016,3058,2016,1,COBURG,260,206011498
10535,"5/27 THE GROVE, COBURG",-37.751578,144.968933,2.0,1.0,1,$330_per_week,Unit/apmt,August 2016,3058,2016,8,COBURG,330,206011497
10536,"5/27 THE GROVE, COBURG",-37.751578,144.968933,2.0,1.0,1,$330,Unit/apmt,August 2016,3058,2016,8,COBURG,330,206011497
10635,"22 BELGRAVE-GEMBROOK ROAD, COCKATOO",-37.936065,145.494084,3.0,1.0,0,$350_per_week,Rental_residential,February 2016,3781,2016,2,COCKATOO,350,213021341
10661,"2 BELGRAVE AVENUE, COCKATOO",-37.92732,145.495818,4.0,2.0,6,$380,Rental_residential,January 2016,3781,2016,1,COCKATOO,380,211011254
10672,"7 NEVILLE STREET, COCKATOO",-37.942416,145.490977,2.0,1.0,0,$300_per_week,House,October 2016,3781,2016,10,COCKATOO,300,214011371
10681,"22 GLEN ROAD, COCKATOO",-37.937274,145.486381,2.0,1.0,0,$340_per_week,House,November 2016,3781,2016,11,COCKATOO,340,208031188
10698,"111 WOORI YALLOCK ROAD, COCKATOO",-37.926367,145.494886,3.0,2.0,2,$365_per_week,House,January 2016,3781,2016,1,COCKATOO,365,211011254
10714,"18 DEVON AVENUE, COCKATOO",-37.933329,145.495013,3.0,1.0,2,$330_per_week,House,February 2016,3781,2016,2,COCKATOO,330,206021499
10715,"18 DEVON AVENUE, COCKATOO",-37.933329,145.495013,3.0,1.0,2,$330_Weekly,House,February 2016,3781,2016,2,COCKATOO,330,211011254
10716,"18 DEVON AVENUE, COCKATOO",-37.933329,145.495013,3.0,1.0,2,$330_Weekly,House,January 2016,3781,2016,1,COCKATOO,330,212011289
10736,"55 FIRST AVENUE, COCKATOO",-37.941172,145.486123,3.0,1.0,3,$335_per_week,Rental_residential,April 2016,3781,2016,4,COCKATOO,335,211011254
10791,"15 HAZEL STREET, COCKATOO",-37.940345,145.488763,3.0,2.0,2,$355_per_week,House,September 2016,3781,2016,9,COCKATOO,355,208021176
83,"17 SAMPSON ST, COHUNA",-35.810927,144.216164,3.0,1.0,2,$200_pw,House,February 2016,3568,2016,2,COHUNA,200,203021042
107,"2006 GISBORNE ROAD, COIMADAI",-37.584781,144.453974,3.0,1.0,4,$400_pw,Acreage/semi-rural,November 2016,3340,2016,11,COIMADAI,400,214021383
110,"52 LEBREX ROAD, COIMADAI",-37.5926205,144.4673174,4.0,2.0,2,$550_pw,Acreage,August 2016,3340,2016,8,COIMADAI,550,213041353
111,"52 LEBREX ROAD, COIMADAI",-37.5926205,144.4673174,4.0,2.0,2,$550,Acreage,August 2016,3340,2016,8,COIMADAI,550,215031405
170,"1/27 DOWLING STREET, COLAC",-38.351997,143.582613,3.0,1.0,1,$280_per_week,none,July 2016,3250,2016,7,COLAC,280,212041317
227,"63 HART STREET, COLAC",-38.346044,143.579731,3.0,1.0,1,$240_-_$1040_per_week,House,March 2016,3250,2016,3,COLAC,1040,208041194
228,"63 HART STREET, COLAC",-38.346044,143.579731,3.0,1.0,1,$240_per_week,House,February 2016,3250,2016,2,COLAC,240,210051242
230,"29 NELSON STREET, COLAC",-38.341895,143.571744,3.0,1.0,2,$310_Weekly,House,June 2016,3250,2016,6,COLAC,310,204031069
240,"147 ARMSTRONG STREET, COLAC",-38.349128,143.574251,3.0,1.0,2,$260_Weekly,House,July 2016,3250,2016,7,COLAC,260,216011409
275,"102 QUEEN STREET, COLAC",-38.344296,143.592366,2.0,1.0,1,$245_Weekly,Townhouse,August 2016,3250,2016,8,COLAC,245,212031308
312,"1/7 CAMPBELL STREET, COLAC",-38.34482193,143.58259583,2.0,1.0,1,$230_per_week,House,June 2016,3250,2016,6,COLAC,230,216011409
333,"26 DENNIS STREET, COLAC",-38.3387579,143.586014,3.0,1.0,1,$200_per_week,House,September 2016,3250,2016,9,COLAC,200,207011152
340,"22 GRAVESEND STREET, COLAC",-38.346357,143.5853,3.0,2.0,1,$300_per_week,none,November 2016,3250,2016,11,COLAC,300,205051101
389,"10A WITHAM DRIVE, COLDSTREAM",-37.729977,145.382792,3.0,2.0,2,$375_Weekly,House,July 2016,3770,2016,7,COLDSTREAM,375,210041540
390,"10A WITHAM DRIVE, COLDSTREAM",-37.729977,145.382792,3.0,2.0,2,$375,House,June 2016,3770,2016,6,COLDSTREAM,375,217011420
391,"10A WITHAM DRIVE, COLDSTREAM",-37.729977,145.382792,3.0,2.0,2,$375_per_week,House,June 2016,3770,2016,6,COLDSTREAM,375,217011420
392,"10A WITHAM DRIVE, COLDSTREAM",-37.729977,145.382792,3.0,2.0,2,$375_pw,House,June 2016,3770,2016,6,COLDSTREAM,375,201031015
393,"10A WITHAM DRIVE, COLDSTREAM",-37.729977,145.382792,3.0,2.0,2,$385,House,June 2016,3770,2016,6,COLDSTREAM,385,205021081
411,"17 NORTH GATEWAY, COLDSTREAM",-37.727807,145.380801,3.0,2.0,1,$400,House,October 2016,3770,2016,10,COLDSTREAM,400,205021081
412,"17 NORTH GATEWAY, COLDSTREAM",-37.727807,145.380801,3.0,2.0,1,$400,House,September 2016,3770,2016,9,COLDSTREAM,400,205031093
413,"17 NORTH GATEWAY, COLDSTREAM",-37.727807,145.380801,3.0,2.0,1,$400_Weekly,House,September 2016,3770,2016,9,COLDSTREAM,400,205021081
414,"17 NORTH GATEWAY, COLDSTREAM",-37.727807,145.380801,3.0,2.0,1,$400_per_week,House,September 2016,3770,2016,9,COLDSTREAM,400,212031300
415,"17 NORTH GATEWAY, COLDSTREAM",-37.727807,145.380801,3.0,2.0,1,$400_pw,House,September 2016,3770,2016,9,COLDSTREAM,400,215011386
436,"7 BEDE AVENUE, COLDSTREAM",-37.733786,145.385345,4.0,2.0,2,$600_-_$630_pw,House,July 2016,3770,2016,7,COLDSTREAM,630,201031015
437,"7 BEDE AVENUE, COLDSTREAM",-37.733786,145.385345,4.0,2.0,2,$395_pw,House,July 2016,3770,2016,7,COLDSTREAM,395,201031015
479,"21 KILLARA ROAD, COLDSTREAM",-37.722431,145.390804,4.0,1.0,2,$450_p.w.,Rental_residential,October 2016,3770,2016,10,COLDSTREAM,450,205031090
524,"10A WITHAM DR, COLDSTREAM",-37.729977,145.382792,3.0,2.0,2,$375_Weekly,House,June 2016,3770,2016,6,COLDSTREAM,375,201021011
588,"28 MCLEOD STREET, COLERAINE",-37.599876,141.697541,3.0,1.0,1,$110_per_week,House,October 2016,3315,2016,10,COLERAINE,110,203021487
607,"33 CHURCH STREET, COLERAINE",-37.60373,141.696369,3.0,1.0,1,$150_per_week,none,September 2016,3315,2016,9,COLERAINE,150,211051276
625,"3844 GLENELG HIGHWAY, COLERAINE",-37.59233633,141.6458652,3.0,1.0,2,$250_pw,none,July 2016,3315,2016,7,COLERAINE,250,214011374
626,"3844 GLENELG HIGHWAY, COLERAINE",-37.59233633,141.6458652,3.0,1.0,2,$250_Weekly,none,July 2016,3315,2016,7,COLERAINE,250,210021233
643,"25 CHURCH STREET, COLERAINE",-37.603805,141.697068,3.0,1.0,1,$170_p.w.,House,November 2016,3315,2016,11,COLERAINE,170,217011423
647,"3 MCCONOCHIE STREET, COLERAINE",-37.603077,141.700024,2.0,1.0,1,$150,House,January 2016,3315,2016,1,COLERAINE,150,214011374
648,"3 MCCONOCHIE STREET, COLERAINE",-37.603077,141.700024,2.0,1.0,1,$150_pw,House,January 2016,3315,2016,1,COLERAINE,150,214011374
650,"3844 GLENELG HWY, COLERAINE",-37.591537,141.645956,3.0,1.0,2,$250_p.w.,none,August 2016,3315,2016,8,COLERAINE,250,207011152
651,"3844 GLENELG HWY, COLERAINE",-37.591537,141.645956,3.0,1.0,2,$250_Weekly,none,July 2016,3315,2016,7,COLERAINE,250,207011152
652,"24 WHYTE STREET, COLERAINE",-37.598971,141.698224,3.0,1.0,0,$160_per_week,none,July 2016,3315,2016,7,COLERAINE,160,203031053
656,"2620 GLENELG HIGHWAY, COLERAINE",-37.621716,141.773629,3.0,1.0,2,$200_per_week,none,June 2016,3315,2016,6,COLERAINE,200,206051130
657,"51 MCCONOCHIE STREET, COLERAINE",-37.602501,141.694156,3.0,1.0,1,$170,none,January 2016,3315,2016,1,COLERAINE,170,206051130
658,"51 MCCONOCHIE STREET, COLERAINE",-37.602501,141.694156,3.0,1.0,1,$170_pw,none,January 2016,3315,2016,1,COLERAINE,170,206031115
659,"51 MCCONOCHIE ST, COLERAINE",-37.602501,141.694156,3.0,1.0,1,$170_Weekly,none,January 2016,3315,2016,1,COLERAINE,170,210031536
660,"3 MCCONOCHIE ST, COLERAINE",-37.603077,141.700024,2.0,1.0,0,$150_Weekly,none,January 2016,3315,2016,1,COLERAINE,150,210031536
743,"143 LANGRIDGE STREET, COLLINGWOOD",-37.807174,144.990109,3.0,1.0,0,$650_pw,House,December 2016,3066,2016,12,COLLINGWOOD,650,206071141
771,"2/19-23 BENDIGO STREET, COLLINGWOOD",-37.795915,144.992664,1.0,1.0,1,$240_per_week,none,June 2016,3066,2016,6,COLLINGWOOD,240,206071141
794,"501/41 PEEL STREET, COLLINGWOOD",-37.8054248,144.985715,2.0,2.0,1,$575_pw,Rental_residential,October 2016,3066,2016,10,COLLINGWOOD,575,214011370
795,"501/41 PEEL STREET, COLLINGWOOD",-37.8054248,144.985715,2.0,2.0,1,$575_Week,Rental_residential,October 2016,3066,2016,10,COLLINGWOOD,575,206071141
890,"2/136 OXFORD STREET, COLLINGWOOD",-37.803526,144.985039,2.0,1.0,1,$695_Week,Rental_residential,September 2016,3066,2016,9,COLLINGWOOD,695,212031300
891,"2/136 OXFORD STREET, COLLINGWOOD",-37.803526,144.985039,2.0,1.0,1,$695_pw,Rental_residential,September 2016,3066,2016,9,COLLINGWOOD,695,206041121
894,"305/10 STANLEY STREET, COLLINGWOOD",-37.80182,144.984563,3.0,1.0,1,$630_pw,Rental_residential,February 2016,3066,2016,2,COLLINGWOOD,630,208031186
908,"5 DIGHT STREET, COLLINGWOOD",-37.8036673,144.9880995,3.0,1.0,0,$580_-_$2520_pw,Rental_residential,June 2016,3066,2016,6,COLLINGWOOD,2520,211051286
936,"18/34 SMITH STREET, COLLINGWOOD",-37.807413,144.983606,1.0,1.0,1,$395_pw,Rental_residential,January 2016,3066,2016,1,COLLINGWOOD,395,209041223
1004,"14/34 SMITH STREET, COLLINGWOOD",-37.8072953,144.9828207,1.0,1.0,1,$395_per_week,Rental_residential,February 2016,3066,2016,2,COLLINGWOOD,395,211041273
1005,"14/34 SMITH STREET, COLLINGWOOD",-37.8072953,144.9828207,1.0,1.0,1,$395_pw,Rental_residential,February 2016,3066,2016,2,COLLINGWOOD,395,205051101
1141,"17/69 LITTLE OXFORD STREET, COLLINGWOOD",-37.8043616,144.9839392,2.0,2.0,1,$490_pw,Unit/apmt,February 2016,3066,2016,2,COLLINGWOOD,490,206031115
1142,"17/69 LITTLE OXFORD STREET, COLLINGWOOD",-37.8043616,144.9839392,2.0,2.0,1,$490_-_$2129_pw,Unit/apmt,February 2016,3066,2016,2,COLLINGWOOD,2129,206031115
1190,"6/9-11 OTTER STREET, COLLINGWOOD",-37.800599,144.984519,2.0,1.0,1,$400_per_week,Unit/apmt,February 2016,3066,2016,2,COLLINGWOOD,400,206071141
1220,"606/45 VICTORIA PARADE, COLLINGWOOD",-37.808835,144.984151,1.0,1.0,0,$270_per_week,Unit/apmt,February 2016,3066,2016,2,COLLINGWOOD,270,203021043
1241,"601/45 VICTORIA PARADE, COLLINGWOOD",-37.808699,144.98413,2.0,1.0,0,$400_pw,House,July 2016,3066,2016,7,COLLINGWOOD,400,206041503
1327,"40 DIGHT STREET, COLLINGWOOD",-37.802732,144.988604,3.0,2.0,2,$950,Townhouse,April 2016,3066,2016,4,COLLINGWOOD,950,213011334
1328,"40 DIGHT STREET, COLLINGWOOD",-37.802732,144.988604,3.0,2.0,2,$950_per_week,Townhouse,April 2016,3066,2016,4,COLLINGWOOD,950,210031535
1329,"40 DIGHT STREET, COLLINGWOOD",-37.802732,144.988604,3.0,2.0,2,$950_pw,Townhouse,April 2016,3066,2016,4,COLLINGWOOD,950,210031535
1330,"40 DIGHT STREET, COLLINGWOOD",-37.802732,144.988604,3.0,2.0,2,$950_pw,Townhouse,March 2016,3066,2016,3,COLLINGWOOD,950,209031213
1345,"6/66 PERRY STREET, COLLINGWOOD",-37.8001498,144.9879563,2.0,1.0,1,$420_Week,Unit/apmt,December 2016,3066,2016,12,COLLINGWOOD,420,216011406
1349,"133 HOTHAM STREET, COLLINGWOOD",-37.797076,144.991962,3.0,1.0,1,$650_per_week,House,December 2016,3066,2016,12,COLLINGWOOD,650,209011198
1360,"102/80 STANLEY STREET, COLLINGWOOD",-37.8021193,144.9864535,2.0,1.0,1,$630_per_week,Unit/apmt,June 2016,3066,2016,6,COLLINGWOOD,630,213011334
1412,"103/36-38 BEDFORD STREET, COLLINGWOOD",-37.801321,144.984803,1.0,1.0,0,$395_pw,Unit/apmt,November 2016,3066,2016,11,COLLINGWOOD,395,214011375
1462,"2/45 DERBY STREET, COLLINGWOOD",-37.807164,144.984949,2.0,1.0,0,$450_pw,Rental_residential,September 2016,3066,2016,9,COLLINGWOOD,450,214011375
1500,"103/80 STANLEY STREET, COLLINGWOOD",-37.80203,144.98645,2.0,1.0,1,$600_pw,Unit/apmt,May 2016,3066,2016,5,COLLINGWOOD,600,217031474
1501,"103/80 STANLEY STREET, COLLINGWOOD",-37.80203,144.98645,2.0,1.0,1,$600_Week,Unit/apmt,May 2016,3066,2016,5,COLLINGWOOD,600,201011483
1583,"304/44 BEDFORD STREET, COLLINGWOOD",-37.801579,144.98484,2.0,1.0,1,$530_per_week,Available Now,May 2016,3066,2016,5,COLLINGWOOD,530,206061135
1586,"405/50 STANLEY STREET, COLLINGWOOD",-37.8022316,144.9857042,1.0,1.0,0,$350,Available Now,October 2016,3066,2016,10,COLLINGWOOD,350,214021384
1651,"8/78 OXFORD STREET, COLLINGWOOD",-37.803368,144.985101,1.0,1.0,1,$395_per_week,Unit,February 2016,3066,2016,2,COLLINGWOOD,395,203021043
1662,"121 KEELE STREET, COLLINGWOOD",-37.797631,144.990686,2.0,1.0,0,$610_per_week,House,November 2016,3066,2016,11,COLLINGWOOD,610,215031405
1727,"403/40 STANLEY STREET, COLLINGWOOD",-37.8021818,144.9853665,1.0,1.0,1,$405_per_week,Unit,March 2016,3066,2016,3,COLLINGWOOD,405,206021112
1734,"303/77A LITLLE OXFORD ST, COLLINGWOOD",-37.8031761,144.9842179,2.0,1.0,1,$500_per_week,Unit,July 2016,3066,2016,7,COLLINGWOOD,500,213011340
1780,"106T/70 STANLEY STREET, COLLINGWOOD",-37.8020642,144.9857329,2.0,1.0,1,$490,Unit,August 2016,3066,2016,8,COLLINGWOOD,490,213031352
1781,"106T/70 STANLEY STREET, COLLINGWOOD",-37.8020642,144.9857329,2.0,1.0,1,$490_per_week,Unit,August 2016,3066,2016,8,COLLINGWOOD,490,205031093
1782,"106T/70 STANLEY STREET, COLLINGWOOD",-37.8020642,144.9857329,2.0,1.0,1,$490_pw,Unit,August 2016,3066,2016,8,COLLINGWOOD,490,205031093
1809,"506/103-107 OXFORD STREET, COLLINGWOOD",-37.80316,144.984807,2.0,1.0,1,$560_pw,Rental_residential,April 2016,3066,2016,4,COLLINGWOOD,560,202011021
1810,"506/103-107 OXFORD STREET, COLLINGWOOD",-37.80316,144.984807,2.0,1.0,1,$560_Week,Rental_residential,April 2016,3066,2016,4,COLLINGWOOD,560,202011021
1860,"404/132 SMITH STREET, COLLINGWOOD",-37.804475,144.983604,1.0,1.0,1,$400_pw,Unit/apmt,April 2016,3066,2016,4,COLLINGWOOD,400,206071141
1861,"404/132 SMITH STREET, COLLINGWOOD",-37.804475,144.983604,1.0,1.0,1,$440_pw,Unit/apmt,January 2016,3066,2016,1,COLLINGWOOD,440,206051130
1882,"9/78 OXFORD STREET, COLLINGWOOD",-37.807815,144.983906,1.0,1.0,1,$395_per_week,Available Now,January 2016,3066,2016,1,COLLINGWOOD,395,208021182
1894,"3/20 BEDFORD STREET, COLLINGWOOD",-37.800633,144.984904,2.0,1.0,1,$700_per_week,none,September 2016,3066,2016,9,COLLINGWOOD,700,217031471
1902,"4GF/50 STANLEY STREET, COLLINGWOOD",-37.8022219,144.9857824,2.0,1.0,1,$530_pw,Rental_residential,June 2016,3066,2016,6,COLLINGWOOD,530,201011001
1934,"1/119A JOHNSTON STREET, COLLINGWOOD",-37.799669,144.988681,3.0,1.0,0,$500,none,June 2016,3066,2016,6,COLLINGWOOD,500,206071141
2022,"55 CAMPBELL STREET, COLLINGWOOD",-37.802631,144.988995,3.0,1.0,0,$650_pw,none,October 2016,3066,2016,10,COLLINGWOOD,650,206061135
2085,"1203D/21 ROBERT STREET, COLLINGWOOD",-37.805985,144.987119,2.0,1.0,1,$520,Unit/apmt,December 2016,3066,2016,12,COLLINGWOOD,520,209021526
2095,"G01/40 STANLEY STREET, COLLINGWOOD",-37.8021816,144.9853665,1.0,1.0,1,$350_per_week,none,June 2016,3066,2016,6,COLLINGWOOD,350,211011446
2118,"22/79 OXFORD STREET, COLLINGWOOD",-37.804242,144.984503,1.0,1.0,1,$975_per_week,Unit/apmt,February 2016,3066,2016,2,COLLINGWOOD,975,212051323
2119,"22/79 OXFORD STREET, COLLINGWOOD",-37.804242,144.984503,1.0,1.0,1,$1000_per_week,Unit/apmt,February 2016,3066,2016,2,COLLINGWOOD,1000,206061135
2138,"625/45 VICTORIA PARADE, COLLINGWOOD",-37.808835,144.984151,1.0,1.0,0,$255_per_week,Rental_residential,June 2016,3066,2016,6,COLLINGWOOD,255,208011170
2139,"625/45 VICTORIA PARADE, COLLINGWOOD",-37.808835,144.984151,1.0,1.0,0,$240_per_week,Rental_residential,June 2016,3066,2016,6,COLLINGWOOD,240,213041353
2153,"145 LANGRIDGE STREET, COLLINGWOOD",-37.80717,144.990177,3.0,1.0,0,$740_Week,House,March 2016,3066,2016,3,COLLINGWOOD,740,207021424
2154,"145 LANGRIDGE STREET, COLLINGWOOD",-37.80717,144.990177,3.0,1.0,0,$740_pw,House,March 2016,3066,2016,3,COLLINGWOOD,740,206061135
2162,"6/15-25 OXFORD STREET, COLLINGWOOD",-37.807803,144.984175,2.0,1.0,1,$520_pw,none,September 2016,3066,2016,9,COLLINGWOOD,520,208021182
2163,"6/15-25 OXFORD STREET, COLLINGWOOD",-37.807803,144.984175,2.0,1.0,1,$540_Week,none,July 2016,3066,2016,7,COLLINGWOOD,540,210031535
2206,"15 ALEXANDER STREET, COLLINGWOOD",-37.795869,144.99107,2.0,2.0,0,$575_per_week,House,July 2016,3066,2016,7,COLLINGWOOD,575,206071141
2233,"265 UPPER CONDAH-HOTSPUR ROAD, CONDAH",-37.9477894,141.5814524,4.0,1.0,2,$220_per_week,House,December 2016,3303,2016,12,CONDAH,220,202011021
2234,"265 UPPER CONDAH-HOTSPUR ROAD, CONDAH",-37.9477894,141.5814524,4.0,1.0,2,$220_per_week,House,February 2016,3303,2016,2,CONDAH,220,212051323
2235,"265 UPPER CONDAH-HOTSPUR ROAD, CONDAH",-37.9477894,141.5814524,4.0,1.0,2,$220_per_week,House,January 2016,3303,2016,1,CONDAH,220,212051323
2254,"900 GOULBURN VALLEY HIGHWAY, CONGUPNA",-36.3064253,145.4291116,3.0,1.0,2,$220_pw,House,November 2016,3633,2016,11,CONGUPNA,220,214021384
2261,"235 KNIGHTS ROAD, CONGUPNA",-36.323892,145.458638,3.0,1.0,1,$280_pw,none,October 2016,3633,2016,10,CONGUPNA,280,209021523
2269,"170 KNIGHTS ROAD, CONGUPNA",-36.3242917,145.4508308,4.0,2.0,2,$320_per_week,none,September 2016,3633,2016,9,CONGUPNA,320,211031265
2270,"170 KNIGHTS ROAD, CONGUPNA",-36.3242917,145.4508308,4.0,2.0,2,$320_Weekly,none,September 2016,3633,2016,9,CONGUPNA,320,211011446
2271,"836 LEMNOS NORTH ROAD, CONGUPNA",-36.290174,145.465332,5.0,2.0,3,$500_Weekly,none,February 2016,3633,2016,2,CONGUPNA,500,211011446
2340,"4 BAENSCHS LANE, CONNEWARRE",-38.2503967,144.3887244,3.0,2.0,2,$420_per_week,House,September 2016,3228,2016,9,CONNEWARRE,420,208021182
2349,"UNIT 6/110 TOMARA DRIVE, CONNEWARRE",-38.27537,144.4584185,2.0,1.0,1,$770_Wk,Unit/apmt,December 2016,3228,2016,12,CONNEWARRE,770,201011002
2353,"6 BAENSCHS LANE, CONNEWARRE",-38.2503698,144.3885202,2.0,1.0,0,$320_per_week,none,October 2016,3228,2016,10,CONNEWARRE,320,204021065
2451,"45 BUSHFIELD CRESCENT, COOLAROO",-37.662135,144.932207,3.0,1.0,1,$320,House,November 2016,3048,2016,11,COOLAROO,320,207021160
2452,"45 BUSHFIELD CRESCENT, COOLAROO",-37.662135,144.932207,3.0,1.0,1,$320_per_week,House,October 2016,3048,2016,10,COOLAROO,320,207021160
2453,"45 BUSHFIELD CRESCENT, COOLAROO",-37.662135,144.932207,3.0,1.0,1,$320_pw,House,October 2016,3048,2016,10,COOLAROO,320,213051362
2454,"45 BUSHFIELD CRESCENT, COOLAROO",-37.662135,144.932207,3.0,1.0,1,$320,House,October 2016,3048,2016,10,COOLAROO,320,208031193
2518,"8 HILGAY STREET, COOLAROO",-37.661934,144.936185,3.0,1.0,2,$335_pw,House,April 2016,3048,2016,4,COOLAROO,335,213031352
2519,"8 HILGAY STREET, COOLAROO",-37.661934,144.936185,3.0,1.0,2,$330_pw,House,February 2016,3048,2016,2,COOLAROO,330,206061135
2576,"35 CHILDERS CRESCENT, COOLAROO",-37.660537,144.92796,3.0,1.0,2,$325_per_week,House,June 2016,3048,2016,6,COOLAROO,325,207021160
2577,"35 CHILDERS CRESCENT, COOLAROO",-37.660537,144.92796,3.0,1.0,2,$325_pw,House,June 2016,3048,2016,6,COOLAROO,325,207021160
2578,"35 CHILDERS CRESCENT, COOLAROO",-37.660537,144.92796,3.0,1.0,2,$325,House,June 2016,3048,2016,6,COOLAROO,325,207021160
2586,"4 EDI COURT, COOLAROO",-37.663448,144.931865,3.0,1.0,1,$315,Rental_residential,February 2016,3048,2016,2,COOLAROO,315,214011375
2621,"6 LOVAT COURT, COOLAROO",-37.654336,144.930513,3.0,1.0,2,$290_pw,Rental_residential,February 2016,3048,2016,2,COOLAROO,290,206041121
2665,"18 MOYNE CRESCENT, COOLAROO",-37.656359,144.930264,3.0,1.0,1,$300_Weekly,House,August 2016,3048,2016,8,COOLAROO,300,212021297
2666,"18 MOYNE CRESCENT, COOLAROO",-37.656359,144.930264,3.0,1.0,1,$310_Weekly,House,August 2016,3048,2016,8,COOLAROO,310,212021297
2689,"815 BREWER ROAD, COOMA",-36.4004893,145.0449248,4.0,1.0,1,$325_per_week,House,May 2016,3616,2016,5,COOMA,325,206031502
2690,"815 BREWER ROAD, COOMA",-36.4004893,145.0449248,4.0,1.0,1,$325_pw,House,May 2016,3616,2016,5,COOMA,325,211011260
2740,"231 RYANS ROAD, COONGULLA",-37.8938349,146.7884342,3.0,1.0,2,$250_per_week,House,November 2016,3860,2016,11,COONGULLA,250,213031352
2741,"231 RYANS ROAD, COONGULLA",-37.8938349,146.7884342,3.0,1.0,2,$250_per_week,House,August 2016,3860,2016,8,COONGULLA,250,213031352
2762,"275 RYANS ROAD, COONGULLA",-37.8938349,146.7884342,3.0,1.0,4,$300_pw,House,August 2016,3860,2016,8,COONGULLA,300,207021157
2764,"239 RYANS ROAD, COONGULLA",-37.8930594,146.789679,2.0,1.0,1,$180_per_week,Unit/apmt,October 2016,3860,2016,10,COONGULLA,180,215011388
2765,"239 RYANS ROAD, COONGULLA",-37.8930594,146.789679,2.0,1.0,1,$180_per_week,Unit/apmt,August 2016,3860,2016,8,COONGULLA,180,215011388
2767,"26 RYANS ROAD, COONGULLA",-37.892289,146.786497,3.0,2.0,0,$310_pw,none,February 2016,3860,2016,2,COONGULLA,310,202011022
2768,"26 RYANS ROAD, COONGULLA",-37.892289,146.786497,3.0,2.0,0,$310_per_week,none,February 2016,3860,2016,2,COONGULLA,310,202011022
2770,"SKENE COURT, COONGULLA",-37.8948988,146.7843062,3.0,2.0,2,$200_pw,none,January 2016,3860,2016,1,COONGULLA,200,206041121
2788,"311 COORIEMUNGLE ROAD, COORIEMUNGLE",-38.53489269,143.0530666,3.0,2.0,2,$260_per_week,House,May 2016,3268,2016,5,COORIEMUNGLE,260,213031348
2802,"635 BUNYIP RIVER ROAD, CORA LYNN",-38.138998,145.623274,3.0,1.0,2,$440,none,October 2016,3814,2016,10,LYNN,440,201011483
2814,"140 CORAGULAC-BEEAC ROAD, CORAGULAC",-38.250218,143.5406638,3.0,1.0,2,$200_per_week,House,June 2016,3249,2016,6,CORAGULAC,200,213011338
2818,"140 CORAGULAC BEEAC ROAD, CORAGULAC",-38.250218,143.5406638,3.0,1.0,0,$200_per_week,none,June 2016,3249,2016,6,CORAGULAC,200,201021009
2819,"170 LINEENS ROAD, CORAGULAC",-38.26738169,143.49958124,4.0,2.0,2,$175,none,April 2016,3249,2016,4,CORAGULAC,175,205011077
2827,"10 HAMELIN CLOSE, CORINELLA",-38.411935,145.43735,3.0,2.0,3,$280_Weekly,House,December 2016,3984,2016,12,CORINELLA,280,206061135
2841,"20 WRIGHT STREET, CORINELLA",-38.413258,145.426706,1.0,1.0,2,$200,none,August 2016,3984,2016,8,CORINELLA,200,214021592
2842,"20 WRIGHT STREET, CORINELLA",-38.413258,145.426706,1.0,1.0,2,$180_pw,none,March 2016,3984,2016,3,CORINELLA,180,213031352
2892,"58 SMYTHE STREET, CORINELLA",-38.413983,145.430664,3.0,2.0,1,$350,House,December 2016,3984,2016,12,CORINELLA,350,213031348
2893,"58 SMYTHE STREET, CORINELLA",-38.413983,145.430664,3.0,2.0,1,$375_pw,House,May 2016,3984,2016,5,CORINELLA,375,213031348
2949,"30 INDIANA AVENUE, CORIO",-38.079434,144.357227,3.0,1.0,2,$230,Rental_residential,January 2016,3214,2016,1,CORIO,230,206051512
2950,"30 INDIANA AVENUE, CORIO",-38.079434,144.357227,3.0,1.0,2,$230_pw,Rental_residential,January 2016,3214,2016,1,CORIO,230,206051512
3032,"189 BACCHUS MARSH ROAD, CORIO",-38.068617,144.358095,3.0,1.0,1,$290_per_week,House,April 2016,3214,2016,4,CORIO,290,206021112
3033,"189 BACCHUS MARSH ROAD, CORIO",-38.068617,144.358095,3.0,1.0,1,$290_pw,House,April 2016,3214,2016,4,CORIO,290,201011482
3048,"33 CANADIAN PARADE, CORIO",-38.076466,144.361395,3.0,1.0,1,$220_per_week,House,May 2016,3214,2016,5,CORIO,220,208011168
3095,"15 GLENELG AVENUE, CORIO",-38.07539,144.352513,3.0,1.0,2,$270_per_week,none,April 2016,3214,2016,4,CORIO,270,213051363
3101,"12 GOODALL COURT, CORIO",-38.064694,144.370263,3.0,1.0,2,$225_per_week,House,April 2016,3214,2016,4,CORIO,225,209041216
3112,"6 VICKERS COURT, CORIO",-38.066614,144.354408,3.0,2.0,2,$320_Weekly,House,August 2016,3214,2016,8,CORIO,320,211031450
3113,"6 VICKERS COURT, CORIO",-38.066614,144.354408,3.0,2.0,2,$320,House,August 2016,3214,2016,8,CORIO,320,211031450
3114,"6 VICKERS COURT, CORIO",-38.066614,144.354408,3.0,2.0,2,$320_pw,House,August 2016,3214,2016,8,CORIO,320,203021486
3138,"6 VICKERS CT, CORIO",-38.0666675,144.3543768,3.0,2.0,2,$320_Weekly,House,August 2016,3214,2016,8,CORIO,320,211011257
3145,"42 MICHIGAN AVENUE, CORIO",-38.075924,144.366588,3.0,1.0,3,$250,none,August 2016,3214,2016,8,CORIO,250,213031352
3146,"42 MICHIGAN AVENUE, CORIO",-38.075924,144.366588,3.0,1.0,3,$250_per_week,none,August 2016,3214,2016,8,CORIO,250,203021040
3147,"42 MICHIGAN AVENUE, CORIO",-38.075924,144.366588,3.0,1.0,3,$250_pw,none,July 2016,3214,2016,7,CORIO,250,211031451
3185,"2/14 FIONA AVENUE, CORIO",-38.06869,144.365627,1.0,1.0,1,$190_pw,Unit/apmt,February 2016,3214,2016,2,CORIO,190,208021180
3194,"2/131 PURNELL ROAD, CORIO",-38.073556,144.3537559,2.0,1.0,1,$200,House,November 2016,3214,2016,11,CORIO,200,203021040
3195,"2/131 PURNELL ROAD, CORIO",-38.073556,144.3537559,2.0,1.0,1,$200_per_week,House,November 2016,3214,2016,11,CORIO,200,207011154
3196,"2/131 PURNELL ROAD, CORIO",-38.073556,144.3537559,2.0,1.0,1,$200_pw,House,November 2016,3214,2016,11,CORIO,200,207011154
3299,"14 CORANGAMITE DRIVE, CORIO",-38.067773,144.34357,4.0,1.0,2,$295_Weekly,House,January 2016,3214,2016,1,CORIO,295,214021592
3315,"89 COLORADO DRIVE, CORIO",-38.078145,144.350478,3.0,1.0,1,$235_Weekly,House,March 2016,3214,2016,3,CORIO,235,201011483
3326,"5 CAITHNESS CRESCENT, CORIO",-38.073268,144.356933,3.0,1.0,3,$285_pw,Rental_residential,March 2016,3214,2016,3,CORIO,285,201011483
3327,"5 CAITHNESS CRESCENT, CORIO",-38.073268,144.356933,3.0,1.0,3,$285_pw,Rental_residential,February 2016,3214,2016,2,CORIO,285,201011483
3357,"72 ONTARIO AVENUE, CORIO",-38.074901,144.360334,3.0,1.0,1,$270_Weekly,Rental_residential,August 2016,3214,2016,8,CORIO,270,201011483
3431,"3/8-9 FIELDMAN COURT, CORIO",-38.068974,144.350346,2.0,1.0,1,$265_per_week,none,March 2016,3214,2016,3,CORIO,265,203021040
3443,"4 CHESHIRE STREET, CORIO",-38.073003,144.353327,3.0,1.0,4,$285_per_week,none,February 2016,3214,2016,2,CORIO,285,206061135
3444,"4 CHESHIRE STREET, CORIO",-38.073003,144.353327,3.0,1.0,4,$285_per_week,none,January 2016,3214,2016,1,CORIO,285,214021591
3485,"12 CARAMUT COURT, CORIO",-38.066684,144.342205,3.0,2.0,2,$280_pw,House,December 2016,3214,2016,12,CORIO,280,203021486
3486,"12 CARAMUT COURT, CORIO",-38.066684,144.342205,3.0,2.0,2,$280_pw,House,November 2016,3214,2016,11,CORIO,280,201021009
3487,"12 CARAMUT COURT, CORIO",-38.066684,144.342205,3.0,2.0,2,$280,House,November 2016,3214,2016,11,CORIO,280,208011168
3488,"12 CARAMUT COURT, CORIO",-38.066684,144.342205,3.0,2.0,2,$250_Weekly,House,April 2016,3214,2016,4,CORIO,250,203021486
3489,"12 CARAMUT COURT, CORIO",-38.066684,144.342205,3.0,2.0,2,$250_Weekly,House,January 2016,3214,2016,1,CORIO,250,212051326
3493,"22 KENNEDY STREET, CORNELLA",-36.6493536,144.8485433,3.0,1.0,2,$290_Weekly,House,January 2016,3551,2016,1,CORNELLA,290,203021044
3555,"37 CUTTY SARK ROAD, CORONET BAY",-38.438772,145.442029,3.0,1.0,2,$250,House,December 2016,3984,2016,12,BAY,250,213011332
3606,"1 BASS HORIZON PROMENADE, CORONET BAY",-38.4384754,145.4448245,3.0,1.0,1,$275,none,November 2016,3984,2016,11,BAY,275,214021378
3639,"32-34 GELLIBRAND STREET, CORONET BAY",-38.435015,145.441309,3.0,2.0,2,$400_Weekly,none,December 2016,3984,2016,12,BAY,400,209041530
3648,"31 SEMAPHORE STREET, CORONET BAY",-38.435789,145.442779,2.0,1.0,1,$250_pw,none,May 2016,3984,2016,5,BAY,250,211031450
3649,"31 SEMAPHORE STREET, CORONET BAY",-38.435789,145.442779,2.0,1.0,1,$250,none,May 2016,3984,2016,5,BAY,250,211031450
3650,"31 SEMAPHORE STREET, CORONET BAY",-38.435789,145.442779,2.0,1.0,1,$250_per_week,none,April 2016,3984,2016,4,BAY,250,205031093
3661,"27 GELLIBRAND STREET, CORONET BAY",-38.435655,145.440615,3.0,1.0,1,$270_Weekly,House,December 2016,3984,2016,12,BAY,270,208021180
3684,"521 CORANGAMITE LAKE ROAD, COROROOKE",-38.289201,143.522132,3.0,1.0,1,$180_per_week,none,March 2016,3254,2016,3,COROROOKE,180,212031303
3697,"565 CORANGAMITE LAKE ROAD, COROROOKE",-38.285342,143.521872,4.0,1.0,2,$300_per_week,House,April 2016,3254,2016,4,COROROOKE,300,212041313
3703,"523 CORANGAMITE LAKE ROAD, COROROOKE",-38.2890562,143.5225133,3.0,1.0,2,$190_per_week,none,August 2016,3254,2016,8,COROROOKE,190,211011256
3704,"523 CORANGAMITE LAKE ROAD, COROROOKE",-38.2890562,143.5225133,3.0,1.0,2,$190_per_week,none,July 2016,3254,2016,7,COROROOKE,190,211011256
3707,"450 CORANGAMITE LAKE RD, COROROOKE",-38.29669,143.525912,4.0,1.0,0,$250_-_$1083_per_week,House,December 2016,3254,2016,12,COROROOKE,1083,206021112
3708,"450 CORANGAMITE LAKE RD, COROROOKE",-38.29669,143.525912,4.0,1.0,0,$250_per_week,House,December 2016,3254,2016,12,COROROOKE,250,207011520
3709,"406 LAKE CORANGAMITE ROAD, COROROOKE",-38.301174,143.525917,3.0,1.0,3,$220,none,November 2016,3254,2016,11,COROROOKE,220,205031093
3710,"406 LAKE CORANGAMITE ROAD, COROROOKE",-38.301174,143.525917,3.0,1.0,3,$220_Weekly,none,October 2016,3254,2016,10,COROROOKE,220,212031303
3711,"406 LAKE CORANGAMITE ROAD, COROROOKE",-38.301174,143.525917,3.0,1.0,3,$220,none,October 2016,3254,2016,10,COROROOKE,220,212031303
3712,"406 LAKE CORANGAMITE ROAD, COROROOKE",-38.301174,143.525917,3.0,1.0,3,$220,none,July 2016,3254,2016,7,COROROOKE,220,207021159
3713,"406 LAKE CORANGAMITE ROAD, COROROOKE",-38.301174,143.525917,3.0,1.0,3,$210_Weekly,none,February 2016,3254,2016,2,COROROOKE,210,217031473
3714,"406 LAKE CORANGAMITE ROAD, COROROOKE",-38.301174,143.525917,3.0,1.0,3,$220,none,February 2016,3254,2016,2,COROROOKE,220,217031473
3715,"406 LAKE CORANGAMITE ROAD, COROROOKE",-38.301174,143.525917,3.0,1.0,3,$210_Weekly,none,January 2016,3254,2016,1,COROROOKE,210,214021591
3716,"280 SHEEHANS ROAD, COROROOKE",-38.292783,143.539885,3.0,1.0,2,$275_per_week,none,June 2016,3254,2016,6,COROROOKE,275,203011035
3717,"280 SHEEHANS ROAD, COROROOKE",-38.292783,143.539885,3.0,1.0,2,$275_-_$1192_per_week,none,June 2016,3254,2016,6,COROROOKE,1192,217031473
3718,"529 CORANGAMITE ROAD, COROROOKE",-38.288618,143.521875,3.0,1.0,1,$953_per_week,House,June 2016,3254,2016,6,COROROOKE,953,205031093
3719,"529 CORANGAMITE ROAD, COROROOKE",-38.288618,143.521875,3.0,1.0,1,$220_per_week,House,June 2016,3254,2016,6,COROROOKE,220,207011522
3720,"567 CORANGAMITE LAKE ROAD, COROROOKE",-38.285328,143.521878,3.0,2.0,4,$265_per_week,House,May 2016,3254,2016,5,COROROOKE,265,207011522
3722,"406 LAKE CORANGAMITE RD, COROROOKE",-38.301174,143.525917,3.0,1.0,0,$210_Weekly,House,February 2016,3254,2016,2,COROROOKE,210,217011422
3741,"65 TOWONG ROAD, CORRYONG",-36.1906622,147.9124236,3.0,1.0,2,$220_per_week,House,January 2016,3707,2016,1,CORRYONG,220,212021293
3742,"65 TOWONG ROAD, CORRYONG",-36.1906622,147.9124236,3.0,1.0,2,$220_pw,House,January 2016,3707,2016,1,CORRYONG,220,201011484
3743,"65 TOWONG ROAD, CORRYONG",-36.1906622,147.9124236,3.0,1.0,2,$220,House,January 2016,3707,2016,1,CORRYONG,220,201011484
3752,"2 WALTER PLACE, VALLEY VIEW ESTATE, CORRYONG",-36.196814,147.905135,2.0,1.0,1,$190_per_week,House,July 2016,3707,2016,7,CORRYONG,190,201011484
3784,"116 HANSON STREET, CORRYONG",-36.197664,147.898817,3.0,1.0,1,$300,House,October 2016,3707,2016,10,CORRYONG,300,212031303
3785,"116 HANSON STREET, CORRYONG",-36.197664,147.898817,3.0,1.0,1,$300_pw,House,July 2016,3707,2016,7,CORRYONG,300,212031303
3876,"5 WARD LANE, COSTERFIELD",-36.878089,144.79851,2.0,1.0,7,$250,none,April 2016,3523,2016,4,COSTERFIELD,250,209011203
3906,"6/91-93 CHAPEL STREET, COWES",-38.450547,145.235807,2.0,1.0,1,$230_per_week,Unit/apmt,January 2016,3922,2016,1,COWES,230,211031450
3909,"24 ROBERT DRIVE, COWES",-38.454765,145.232476,3.0,2.0,2,$1200_pw,House,April 2016,3922,2016,4,COWES,1200,211051274
3916,"2 ALBANY ROAD, COWES",-38.460919,145.237549,3.0,1.0,1,$280_Weekly,House,December 2016,3922,2016,12,COWES,280,206051513
3917,"2 ALBANY ROAD, COWES",-38.460919,145.237549,3.0,1.0,1,$280,House,December 2016,3922,2016,12,COWES,280,209011203
3918,"2 ALBANY ROAD, COWES",-38.460919,145.237549,3.0,1.0,1,$280_per_week,House,December 2016,3922,2016,12,COWES,280,201011484
3919,"2 ALBANY ROAD, COWES",-38.460919,145.237549,3.0,1.0,1,$280_pw,House,December 2016,3922,2016,12,COWES,280,217011422
3933,"28 VENTNOR ROAD, COWES",-38.463208,145.203356,3.0,1.0,0,$260_Weekly,House,May 2016,3922,2016,5,COWES,260,211011257
3934,"28 VENTNOR ROAD, COWES",-38.463208,145.203356,3.0,1.0,0,$260,House,May 2016,3922,2016,5,COWES,260,211011257
