,Unnamed: 0,id,time,listing_type,price,property_type,area,building_area,land_area,bedrooms,bathrooms,carspaces,street_address,suburb,postcode,latitude,longitude,weekly_rent
0,0,16036959,2022-08-12T16:19:12,Rent,$470,House,Indigo Shire Council - Greater Area,0.0,0.0,4.0,2.0,2,"43 Murray St, Rutherglen",RUTHERGLEN,3685,-36.05605,146.46168500000005,470
1,1,16031699,2022-08-10T11:48:01,Rent,$400,House,Indigo Shire Council - Greater Area,0.0,0.0,2.0,2.0,1,"33 Reid street, Rutherglen",RUTHERGLEN,3685,-36.052372,146.45971699999996,400
2,2,15019992,2021-03-31T13:05:15,Rent,$593,House,Indigo Shire Council - Greater Area,0.0,0.0,1.0,1.0,0,"137 Main Street, Rutherglen",RUTHERGLEN,3685,-36.05359,146.459259,593
3,3,16067703,2022-09-01T10:46:16,Rent,$420_per_week,House,Indigo Shire Council - Greater Area,0.0,0.0,3.0,1.0,1,"10 Scott Street, Rutherglen",RUTHERGLEN,3685,-36.0507545,146.455429,420
4,4,11372609,2017-05-11T14:45:36,Rent,$1200,House,Indigo Shire Council - Greater Area,0.0,0.0,3.0,1.0,0,"5 Fortune Street, Rutherglen",RUTHERGLEN,3685,-36.056675,146.46366899999995,1200
5,5,13841196,2022-08-29T14:34:44,Rent,$330_PER_WEEK,ApartmentUnitFlat,Wodonga - Greater Area,0.0,0.0,2.0,1.0,1,"1/4 Skipton Court, Wodonga",WODONGA,3690,-36.12886,146.9075,330
6,6,16061441,2022-08-29T12:24:13,Rent,$390,House,Wodonga - Greater Area,0.0,0.0,3.0,1.0,0,"92 Wilson Street, Wodonga",WODONGA,3690,-36.12957,146.876068,390
7,7,16025538,2022-08-05T15:43:15,Rent,$430,House,Wodonga - Greater Area,0.0,0.0,3.0,1.0,3,"13 Highland Crescent, Wodonga",WODONGA,3690,-36.1201439,146.865158,430
8,8,16051553,2022-08-22T16:46:27,Rent,$480,House,Wodonga - Greater Area,0.0,0.0,3.0,2.0,4,"46 JARRAH STREET, Wodonga",WODONGA,3690,-36.1378555,146.88026399999995,480
9,9,16050756,2022-08-22T14:03:11,Rent,$450,House,Wodonga - Greater Area,0.0,0.0,3.0,2.0,2,"18 STANGER COURT, Wodonga",WODONGA,3690,-36.1453857,146.87115500000004,450
10,10,16049445,2022-08-20T16:10:20,Rent,$450,House,Wodonga - Greater Area,0.0,0.0,3.0,1.0,2,"6 Bower Place, Wodonga",WODONGA,3690,-36.13007,146.8477,450
11,11,16070736,2022-09-02T15:28:42,Rent,$440_per_week,House,Wodonga - Greater Area,11.0,569.0,3.0,1.0,2,"18 Marie Drive, Wodonga",WODONGA,3690,-36.1160049,146.880844,440
12,12,16069489,2022-09-02T09:48:35,Rent,$500_per_week,House,Wodonga - Greater Area,0.0,0.0,3.0,1.0,4,"276 Beechworth Road, Wodonga",WODONGA,3690,-36.13277,146.8871,500
13,13,16054447,2022-08-24T09:06:39,Rent,$470_per_week,House,Wodonga - Greater Area,0.0,0.0,3.0,2.0,2,"77 Nightingale Avenue, West Wodonga",WEST WODONGA,3690,-36.12998579999999,146.8527,470
14,14,16054079,2022-08-23T16:58:26,Rent,$400_per_week,House,Wodonga - Greater Area,0.0,0.0,3.0,1.0,1,"9 London Road, Wodonga",WODONGA,3690,-36.1274948,146.901047,400
15,15,16053457,2022-08-23T14:36:57,Rent,$430_per_week,House,Wodonga - Greater Area,0.0,0.0,3.0,1.0,0,"1/27 Leonard Street, Wodonga",WODONGA,3690,-36.13196,146.888489,430
16,16,16056112,2022-08-24T16:42:23,Rent,$400_pw,House,Wodonga - Greater Area,0.0,0.0,3.0,1.0,2,"5 Jamieson Court, Wodonga",WODONGA,3690,-36.12269000000001,146.855988,400
17,17,16071351,2022-09-02T20:56:19,Rent,$420_per_week,ApartmentUnitFlat,Wodonga - Greater Area,0.0,0.0,3.0,1.0,0,"1/6 Topaz Court, Wodonga",WODONGA,3690,-36.12334,146.860474,420
18,18,16069308,2022-09-02T01:08:25,Rent,$380_per_week,House,Wodonga - Greater Area,0.0,0.0,3.0,1.0,1,"11 Mitchell Street, Wodonga",WODONGA,3690,-36.12782,146.890656,380
19,19,16068713,2022-09-01T15:40:13,Rent,$380_Per_Week,Townhouse,Wodonga - Greater Area,0.0,0.0,3.0,1.0,3,"3/9 Railway Street, Wodonga",WODONGA,3690,-36.1228867,146.88121,380
20,20,16066963,2022-08-31T17:08:25,Rent,$320_per_week,ApartmentUnitFlat,Wodonga - Greater Area,0.0,0.0,2.0,1.0,1,"1/30 Awburn Street, Wodonga",WODONGA,3690,-36.12821,146.879868,320
21,21,16062467,2022-08-29T16:38:27,Rent,$580_per_week,House,Wodonga - Greater Area,0.0,0.0,4.0,2.0,2,"15 Gurney Crescent, Wodonga",WODONGA,3690,-36.14439,146.893082,580
22,22,16062413,2022-08-29T16:28:55,Rent,$400_per_week,House,Wodonga - Greater Area,0.0,0.0,3.0,2.0,2,"1 Stanger Court, Wodonga",WODONGA,3690,-36.1457,146.869659,400
23,23,16062412,2022-08-29T16:28:54,Rent,$390_per_week,House,Wodonga - Greater Area,0.0,0.0,3.0,2.0,2,"105 Brockley Street, Wodonga",WODONGA,3690,-36.1277733,146.88064599999996,390
24,24,16061991,2022-08-29T14:52:25,Rent,$410_per_week,House,Wodonga - Greater Area,0.0,0.0,3.0,2.0,2,"80 Chapple Street, Wodonga",WODONGA,3690,-36.1284561,146.905869,410
25,25,16058874,2022-08-26T10:26:24,Rent,$410_per_week,House,Wodonga - Greater Area,0.0,0.0,3.0,2.0,2,"22 Maygar Avenue, Wodonga",WODONGA,3690,-36.14284,146.8895,410
26,26,16057216,2022-08-25T12:14:24,Rent,$280.00_per_week,ApartmentUnitFlat,Wodonga - Greater Area,0.0,0.0,2.0,1.0,1,"1/101 Wigg Street, Wodonga",WODONGA,3690,-36.1289,146.896774,280
27,27,16028374,2022-08-08T16:50:38,Rent,$470_per_week,House,Wodonga - Greater Area,0.0,0.0,3.0,1.0,2,"1/51 Stanley Street, Wodonga",WODONGA,3690,-36.1218529,146.881439,470
28,28,16018345,2022-08-02T16:08:26,Rent,$420_per_week,House,Wodonga - Greater Area,0.0,0.0,3.0,1.0,1,"26 Gayview Drive, Wodonga",WODONGA,3690,-36.1225967,146.855469,420
29,29,14724423,2020-11-25T16:20:17,Rent,$230,ApartmentUnitFlat,Wodonga - Greater Area,0.0,0.0,1.0,1.0,1,"11-13 Day Street, Wodonga",WODONGA,3690,-36.11243,146.894562,230
30,30,16071610,2022-09-04T16:25:02,Rent,$500,Townhouse,Wodonga - Greater Area,0.0,0.0,3.0,2.0,2,"16 Watson, Wodonga",WODONGA,3690,-36.12188,146.880966,500
31,31,16066281,2022-08-31T14:27:05,Rent,$400_per_week,Townhouse,Wodonga - Greater Area,0.0,0.0,2.0,2.0,1,"27 Beech Street, Wodonga",WODONGA,3690,-36.13643,146.884354,400
32,32,16065742,2022-08-31T11:46:34,Rent,$340_per_week,Townhouse,Wodonga - Greater Area,0.0,0.0,2.0,1.0,1,"2/8 Kingsbury Court, Wodonga",WODONGA,3690,-36.13214489999999,146.851318,340
33,33,16065183,2022-08-31T09:18:39,Rent,$350_pw,ApartmentUnitFlat,Wodonga - Greater Area,0.0,0.0,2.0,1.0,1,"4/1 McKibbin Court, Wodonga",WODONGA,3690,-36.1277351,146.89656100000005,350
34,34,12554369,2022-08-30T19:19:28,Rent,$335,Townhouse,Wodonga - Greater Area,0.0,0.0,2.0,1.0,1,"2/62 Wigg Street, Wodonga",WODONGA,3690,-36.1236839,146.89846799999995,335
35,35,16058917,2022-08-26T10:38:36,Rent,$450_per_week,Townhouse,Wodonga - Greater Area,0.0,0.0,2.0,2.0,1,"28 Elmwood Circuit, Wodonga",WODONGA,3690,-36.13613,146.88343799999996,450
36,36,16058088,2022-08-25T16:12:19,Rent,$380_per_Week,ApartmentUnitFlat,Wodonga - Greater Area,0.0,0.0,2.0,1.0,1,"11/A Ethel Street, Wodonga",WODONGA,3690,-36.123642,146.8912,380
37,37,16047637,2022-08-19T11:00:23,Rent,$480.00,Townhouse,Wodonga - Greater Area,0.0,0.0,3.0,2.0,2,"3 Castle Creek Rd, Wodonga",WODONGA,3690,-36.1546631,146.878052,480
38,38,16036942,2022-08-12T16:14:34,Rent,$450,ApartmentUnitFlat,Wodonga - Greater Area,0.0,0.0,2.0,1.0,1,"8/4-6 Skipton Court, Wodonga",WODONGA,3690,-36.1292419,146.908142,450
39,39,16008634,2022-07-27T13:53:37,Rent,$560_pw,House,Wodonga - Greater Area,0.0,0.0,4.0,2.0,3,"16 Avondale Drive, Wodonga",WODONGA,3690,-36.14708,146.864609,560
40,40,16003323,2022-07-25T15:00:56,Rent,$450_per_week,House,Wodonga - Greater Area,0.0,0.0,3.0,1.0,1,"7 Schultz Court, Wodonga",WODONGA,3690,-36.1306343,146.86038200000004,450
41,41,11870056,2021-06-07T17:04:28,Rent,$210_per_week,House,Wodonga - Greater Area,0.0,0.0,7.0,2.0,2,"4 Lanark Court, Wodonga",WODONGA,3690,-36.1173019,146.86578400000005,210
42,42,16038331,2022-08-15T11:39:36,Rent,$480,House,Wodonga - Greater Area,0.0,0.0,3.0,2.0,2,"10 FOXGLOVE TERRACE, Baranduda",BARANDUDA,3691,-36.1824,146.947891,480
43,43,16070783,2022-09-02T15:42:34,Rent,$550_pw,House,Wodonga - Greater Area,0.0,0.0,4.0,2.0,2,"24 Lexcen Street, Baranduda",BARANDUDA,3691,-36.1785278,146.940582,550
44,44,16066954,2022-08-31T17:03:55,Rent,$350_per_week,House,Wodonga - Greater Area,0.0,0.0,3.0,1.0,3,"3 Kiewa-Bonegilla Road, Tangambalanga",TANGAMBALANGA,3691,-36.251133,147.027039,350
45,45,16062468,2022-08-29T16:38:27,Rent,$190_per_week,ApartmentUnitFlat,Wodonga - Greater Area,0.0,0.0,2.0,1.0,1,"5/2 Kiewa East Road, Tangambalanga",TANGAMBALANGA,3691,-36.2536163,147.023575,190
46,46,16069931,2022-09-02T11:44:49,Rent,$500_per_week,ApartmentUnitFlat,Towong Shire - Greater Area,0.0,0.0,2.0,1.0,1,"The Apartment, Murray Glades H/45 Rowley Lane, Bethanga",BETHANGA,3691,-36.112915,147.10661299999995,500
47,47,16039634,2022-08-15T16:24:40,Rent,$450_pw,House,Wodonga - Greater Area,0.0,0.0,3.0,2.0,2,"22 Wattlebird Drive, Bandiana",BANDIANA,3691,-36.1411057,146.91773999999995,450
48,48,16068822,2022-09-01T16:04:33,Rent,$340,ApartmentUnitFlat,Bright & Alpine - Greater Area,0.0,0.0,1.0,1.0,0,"1 Heberles Road, Tawonga South",TAWONGA SOUTH,3698,-36.73222,147.156464,340
49,49,15358548,2022-08-29T10:55:32,Rent,$500_per_week_fully_furnished,House,Bright & Alpine - Greater Area,0.0,0.0,3.0,1.0,2,"1 Young Crescent, Tawonga South",TAWONGA SOUTH,3698,-36.7330132,147.155,500
50,50,16046618,2022-08-18T16:04:32,Rent,$470,House,Towong Shire - Greater Area,0.0,0.0,3.0,1.0,2,"201 Yabba Road, Tallangatta",TALLANGATTA,3700,-36.22182,147.258392,470
51,51,15874775,2022-05-09T14:58:56,Rent,$290,House,Towong Shire - Greater Area,0.0,0.0,3.0,1.0,1,"10 Coleman Court, Dartmouth",DARTMOUTH,3701,-36.5361938,147.494522,290
52,52,16039202,2022-08-15T14:58:18,Rent,$350_per_week,House,Towong Shire - Greater Area,0.0,0.0,2.0,1.0,3,"103 Harris St, Corryong",CORRYONG,3707,-36.19709,147.8987,350
53,53,11805186,2022-08-08T14:22:49,Rent,$370_per_week,House,Towong Shire - Greater Area,0.0,0.0,3.0,1.0,4,"116 Hanson Street, Corryong",CORRYONG,3707,-36.19774,147.89883400000005,370
54,54,14897151,2022-05-12T15:02:31,Rent,$450_per_week,Villa,Eildon & Murrindindi - Greater Area,0.0,0.0,1.0,1.0,1,"Rose Cottage/53 South Cathedral Lane, Buxton",BUXTON,3711,-37.41787,145.727829,450
55,55,15974007,2022-07-07T11:42:41,Rent,$250_PW_Plus_GST_and_Outgoings,House,Eildon & Murrindindi - Greater Area,0.0,0.0,1.0,1.0,3,"8 Main Street, Eildon",EILDON,3713,-37.23344,145.909424,250
57,57,16036433,2022-08-12T14:11:11,Rent,$350_p.w.,House,Eildon & Murrindindi - Greater Area,0.0,0.0,3.0,1.0,1,"13 Rose Street, Alexandra",ALEXANDRA,3714,-37.1943321,145.70431499999995,350
58,58,15747767,2022-02-24T12:43:02,Rent,$600.00_per_week,House,Eildon & Murrindindi - Greater Area,0.0,0.0,3.0,1.0,2,"2264 Whittlesea-Yea Road, Flowerdale",FLOWERDALE,3717,-37.4038277,145.275848,600
59,59,16069210,2022-09-01T18:20:26,Rent,$480,House,Mansfield - Greater Area,0.0,0.0,3.0,2.0,4,"27 Elvins Street, Mansfield",MANSFIELD,3722,-37.0539551,146.079773,480
60,60,16038099,2022-08-15T10:45:25,Rent,$440p/w_($1911.90_pcm),Townhouse,Mansfield - Greater Area,0.0,0.0,2.0,1.0,3,"1/30 Ailsa Street, Mansfield",MANSFIELD,3722,-37.0551262,146.092972,440
61,61,15909379,2022-05-30T15:32:56,Rent,$430,House,Mansfield - Greater Area,0.0,0.0,3.0,1.0,3,"49 Hunter Street, Mansfield",MANSFIELD,3722,-37.0561829,146.08914199999995,430
62,62,15894103,2022-05-19T18:18:40,Rent,$380,Townhouse,Mansfield - Greater Area,0.0,0.0,2.0,1.0,2,"6 Clarke Street, Mansfield",MANSFIELD,3722,-37.04949000000001,146.087677,380
63,63,16057109,2022-08-25T11:45:48,Rent,$340.00_per_week,ApartmentUnitFlat,Mansfield - Greater Area,0.0,0.0,1.0,1.0,2,"3/9/4 Omega Street, Merrijig",MERRIJIG,3723,-37.1038551,146.261765,340
64,64,16057714,2022-08-25T14:40:33,Rent,$400p/w_($1738.10pcm)_pm,House,Mansfield - Greater Area,0.0,0.0,3.0,1.0,2,"13 Honey Bee Run, Goughs Bay",GOUGHS BAY,3723,-37.1790047,146.069061,400
65,65,16048097,2022-08-19T13:06:47,Rent,$400pw_($1738.09pcm),House,Mansfield - Greater Area,0.0,0.0,3.0,1.0,3,"60 Main Street, Maindample",MAINDAMPLE,3723,-37.02696,145.937469,400
66,66,16048096,2022-08-19T13:06:46,Rent,$440pw_($1911.90pcm),House,Mansfield - Greater Area,0.0,0.0,3.0,1.0,0,"3 Goughs Crescent, Goughs Bay",GOUGHS BAY,3723,-37.1794853,146.06814599999996,440
67,67,15865703,2022-05-03T17:26:43,Rent,$500_pw_with_furnished,House,Benalla - Greater Area,0.0,0.0,3.0,1.0,1,"House 3 at/00 Road, Thoona",THOONA,3726,-36.3393326,146.07806399999996,500
68,68,15865687,2022-05-03T17:23:56,Rent,$350pw_with_furnished,Studio,Benalla - Greater Area,0.0,0.0,1.0,1.0,0,"House 2A at/00 Road, Thoona",THOONA,3726,-36.3393326,146.07806399999996,350
69,69,15865677,2022-05-03T17:20:48,Rent,$450_pw_with_furnished,House,Benalla - Greater Area,0.0,0.0,2.0,1.0,0,"House 1 at/00 Road, Thoona",THOONA,3726,-36.3393326,146.07806399999996,450
70,70,16063955,2022-08-30T13:46:22,Rent,$400_per_week,House,Moira Shire - Greater Area,0.0,0.0,3.0,1.0,5,"4 Telford Street, Tungamah",TUNGAMAH,3728,-36.1652756,145.879349,400
71,71,16071119,2022-09-02T17:12:40,Rent,$565,House,Moira Shire - Greater Area,0.0,0.0,4.0,1.0,2,"5A Tom Street, Yarrawonga",YARRAWONGA,3730,-36.0103035,146.001373,565
72,72,16053555,2022-08-23T14:57:52,Rent,$550,House,Moira Shire - Greater Area,0.0,0.0,4.0,2.0,2,"11 Coco Crescent, Yarrawonga",YARRAWONGA,3730,-36.00886,146.036728,550
73,73,16038340,2022-08-15T11:41:37,Rent,$595,House,Moira Shire - Greater Area,0.0,0.0,4.0,2.0,2,"20 HAWKINS DRIVE, Yarrawonga",YARRAWONGA,3730,-36.00544,146.021729,595
82,82,16064202,2022-08-30T14:42:43,Rent,$530_per_week,House,Moira Shire - Greater Area,0.0,0.0,3.0,2.0,2,"63 Peter Thomson Circuit, Yarrawonga",YARRAWONGA,3730,-36.015873,146.045883,530
83,83,16064038,2022-08-30T14:03:39,Rent,$320_per_week,ApartmentUnitFlat,Moira Shire - Greater Area,0.0,0.0,2.0,1.0,1,"5/31 McNally Street, Yarrawonga",YARRAWONGA,3730,-36.0156479,146.006363,320
84,84,14330167,2022-08-30T08:24:15,Rent,$350,ApartmentUnitFlat,Moira Shire - Greater Area,0.0,0.0,2.0,1.0,1,"4/8-10 Kingsley Court, Yarrawonga",YARRAWONGA,3730,-36.0247955,146.004074,350
85,85,16048374,2022-08-19T14:26:44,Rent,$330_per_week,ApartmentUnitFlat,Moira Shire - Greater Area,0.0,0.0,2.0,1.0,1,"4/41 Hovell Street, Yarrawonga",YARRAWONGA,3730,-36.014225,146.002441,330
86,86,15984005,2022-07-13T12:52:49,Rent,$400_pw,House,Moira Shire - Greater Area,0.0,0.0,3.0,1.0,0,"3232 Wangaratta-Yarrawonga Road, Bundalong South",BUNDALONG SOUTH,3730,-36.1019249,146.205322,400
87,87,16037218,2022-08-12T17:16:25,Rent,$420,ApartmentUnitFlat,Moira Shire - Greater Area,0.0,0.0,2.0,1.0,1,"3/6 Coghill Street, Yarrawonga",YARRAWONGA,3730,-36.0083847,146.01023899999996,420
88,88,16035603,2022-08-12T10:22:43,Rent,$470_per_week,Townhouse,Moira Shire - Greater Area,0.0,0.0,3.0,2.0,2,"5 Rosella Place, Yarrawonga",YARRAWONGA,3730,-36.02607349999999,146.00032,470
89,89,16011493,2022-07-28T17:03:12,Rent,$530,House,Moira Shire - Greater Area,17.0,576.0,4.0,2.0,2,"35 Oasis Crescent, Yarrawonga",YARRAWONGA,3730,-36.0150871,146.046356,530
90,90,16009357,2022-07-27T16:51:34,Rent,$530,House,Moira Shire - Greater Area,0.0,0.0,4.0,2.0,2,"35 Fairway Drive, Yarrawonga",YARRAWONGA,3730,-36.02607349999999,146.00032,530
91,91,15977472,2022-07-08T16:56:31,Rent,$530,House,Moira Shire - Greater Area,0.0,0.0,4.0,2.0,2,"28 Oasis Crescent, Yarrawonga",YARRAWONGA,3730,-36.0150871,146.046356,530
92,92,15763229,2022-03-03T16:40:12,Rent,$175_per_week,House,Moira Shire - Greater Area,0.0,0.0,1.0,1.0,0,"Shed 1/116 Pasley Street, Bundalong South",BUNDALONG SOUTH,3730,-36.03290560000001,146.172,175
95,95,13737244,2019-11-14T17:00:40,Rent,$1400,House,Bright & Alpine - Greater Area,0.0,0.0,3.0,2.0,1,"24 Prince Street, Myrtleford",MYRTLEFORD,3737,-36.5527039,146.724823,1400
96,96,13488474,2019-08-19T14:53:48,Rent,$2800,House,Bright & Alpine - Greater Area,0.0,0.0,3.0,2.0,2,"10 Merriang South Road, Myrtleford",MYRTLEFORD,3737,-36.57984,146.69693,2800
108,108,16050270,2022-08-22T11:48:40,Rent,$400_per_week,House,Bright & Alpine - Greater Area,0.0,0.0,3.0,1.0,1,"14 Robert Street, Myrtleford",MYRTLEFORD,3737,-36.555275,146.732666,400
112,112,16028341,2022-08-08T16:42:34,Rent,$400.00_per_week,ApartmentUnitFlat,Bright & Alpine - Greater Area,0.0,0.0,1.0,1.0,1,"1/5 Gillards Lane, Wandiligong",WANDILIGONG,3744,-36.766983,146.981842,400
113,113,16063959,2022-08-30T13:46:48,Rent,$380_per_week,House,Indigo Shire Council - Greater Area,0.0,0.0,3.0,2.0,0,"12 Thompson Street, Beechworth",BEECHWORTH,3747,-36.35408,146.695862,380
114,114,16070830,2022-09-02T15:52:55,Rent,$500_per_week,House,Indigo Shire Council - Greater Area,0.0,0.0,3.0,1.0,0,"6 Loch Street, Beechworth",BEECHWORTH,3747,-36.3599167,146.684753,500
115,115,16064670,2022-08-30T16:23:02,Rent,$600_per_week,House,Indigo Shire Council - Greater Area,0.0,0.0,4.0,2.0,2,"27 Hayes Drive, Beechworth",BEECHWORTH,3747,-36.35516,146.7027,600
116,116,14480168,2022-08-29T16:13:00,Rent,$350_per_week,ApartmentUnitFlat,Indigo Shire Council - Greater Area,0.0,0.0,2.0,1.0,1,"55 Ford Street, Beechworth",BEECHWORTH,3747,-36.3600731,146.685776,350
117,117,16036025,2022-08-12T12:13:38,Rent,$490_per_week,House,Indigo Shire Council - Greater Area,0.0,0.0,3.0,2.0,1,"14 Albert Road, Beechworth",BEECHWORTH,3747,-36.36413,146.691742,490
118,118,16035785,2022-08-12T11:12:39,Rent,$350_per_week,Townhouse,Indigo Shire Council - Greater Area,0.0,0.0,3.0,1.0,0,"50A Last Street, Beechworth",BEECHWORTH,3747,-36.35444,146.687653,350
119,119,16032275,2022-08-10T14:28:56,Rent,$560_pw,House,Indigo Shire Council - Greater Area,0.0,0.0,4.0,2.0,2,"7 Mann Court, Beechworth",BEECHWORTH,3747,-36.3534775,146.700073,560
120,120,15280632,2022-08-22T16:20:18,Rent,$360_PER_WEEK,Townhouse,Whittlesea City Council - Greater Area,0.0,0.0,2.0,2.0,1,"40a Macedon Parade, Wollert",WOLLERT,3750,-37.609,145.003357,360
121,121,15005261,2022-08-04T14:16:45,Rent,$440_per_week,Townhouse,Whittlesea City Council - Greater Area,0.0,0.0,4.0,2.0,4,"16 Catherine Walk, Wollert",WOLLERT,3750,-37.6084,145.03118899999996,440
122,122,16067875,2022-09-01T11:29:49,Rent,$550.00,House,Whittlesea City Council - Greater Area,0.0,0.0,4.0,2.0,4,"27 Walkhill Drive, Wollert",WOLLERT,3750,-37.6157,145.012527,550
123,123,15965995,2022-09-01T17:00:12,Rent,$400,House,Whittlesea City Council - Greater Area,0.0,0.0,3.0,2.0,2,"9/78 Saltlake Boulevard, Wollert",WOLLERT,3750,-37.6150932,145.037735,400
124,124,16065355,2022-08-31T10:12:28,Rent,$370_Per_Week,House,Whittlesea City Council - Greater Area,0.0,0.0,2.0,1.0,1,"44 Linfield Parade, Wollert",WOLLERT,3750,-37.61433,145.026382,370
125,125,16058928,2022-08-26T10:42:52,Rent,$470,House,Whittlesea City Council - Greater Area,0.0,0.0,3.0,1.0,1,"38 Beresford Road, Wollert",WOLLERT,3750,-37.60945,145.017151,470
126,126,15265046,2022-08-23T12:01:19,Rent,$400.00_per_week,Townhouse,Whittlesea City Council - Greater Area,0.0,0.0,3.0,2.0,2,"32 Kobe Crescent, Wollert",WOLLERT,3750,-37.6162643,145.003876,400
127,127,16026287,2022-08-06T16:12:50,Rent,$420_Weekly,Townhouse,Whittlesea City Council - Greater Area,0.0,0.0,3.0,2.0,2,"38 Evolve Esplanade, Wollert",WOLLERT,3750,-37.60764,145.01478600000004,420
128,128,16061122,2022-08-29T11:08:14,Rent,$430_per_week,House,Whittlesea City Council - Greater Area,0.0,0.0,4.0,2.0,1,"8 Leandon Avenue, Wollert",WOLLERT,3750,-37.62125,145.031937,430
129,129,16061063,2022-08-29T10:48:57,Rent,$470,House,Whittlesea City Council - Greater Area,0.0,0.0,4.0,2.0,2,"3 Shani Road, Wollert",WOLLERT,3750,-37.614666,144.9954,470
130,130,16057593,2022-08-25T14:08:58,Rent,$350_per_week,Townhouse,Whittlesea City Council - Greater Area,0.0,0.0,2.0,1.0,1,"4/48 Anzac Drive, Wollert",WOLLERT,3750,-37.6180344,145.0422,350
131,131,16055928,2022-08-24T16:04:25,Rent,$450_pw,Townhouse,Whittlesea City Council - Greater Area,0.0,0.0,3.0,2.0,2,"68 Lehmanns Road, Wollert",WOLLERT,3750,-37.6094055,145.038025,450
132,132,16054107,2022-08-23T17:03:09,Rent,$470.00_Per_Week,House,Whittlesea City Council - Greater Area,0.0,0.0,3.0,2.0,2,"20 Mackenzie Drive, Wollert",WOLLERT,3750,-37.6107368,145.012131,470
133,133,16052573,2022-08-23T10:36:50,Rent,$350_per_week,Townhouse,Whittlesea City Council - Greater Area,0.0,0.0,2.0,1.0,1,"9 Match Lane, Wollert",WOLLERT,3750,-37.6204834,145.0222,350
134,134,16049203,2022-08-19T17:51:18,Rent,$550,House,Whittlesea City Council - Greater Area,0.0,0.0,4.0,2.0,4,"11 Elk Way, Wollert",WOLLERT,3750,-37.61785,145.038208,550
135,135,16048299,2022-08-19T14:03:12,Rent,$400_per_week,Townhouse,Whittlesea City Council - Greater Area,0.0,0.0,3.0,2.0,2,"150 Vearings Road, Wollert",WOLLERT,3750,-37.5958557,144.9919,400
136,136,16046241,2022-08-18T14:34:41,Rent,$400_per_week,House,Whittlesea City Council - Greater Area,0.0,0.0,3.0,2.0,2,"8 Ava Terrace, Wollert",WOLLERT,3750,-37.6168137,145.040878,400
137,137,16044254,2022-08-17T16:36:58,Rent,$500_per_week,House,Whittlesea City Council - Greater Area,0.0,0.0,4.0,2.0,2,"4 Bendoc Street, Wollert",WOLLERT,3750,-37.60694,145.0083,500
138,138,16040901,2022-08-16T12:16:02,Rent,$510,House,Whittlesea City Council - Greater Area,0.0,0.0,4.0,2.0,2,"22 Aberfeldy Grove, Wollert",WOLLERT,3750,-37.610508,145.011292,510
139,139,14386621,2022-08-08T12:28:40,Rent,$520,House,Whittlesea City Council - Greater Area,0.0,0.0,5.0,3.0,2,"25 Osmond Crescent, Wollert",WOLLERT,3750,-37.60731,145.00456200000005,520
140,140,16010646,2022-07-28T13:20:39,Rent,$420_per_week,House,Whittlesea City Council - Greater Area,0.0,0.0,4.0,2.0,1,"20 The Burchett, Wollert",WOLLERT,3750,-37.6083336,145.01568600000004,420
141,141,16006842,2022-07-26T16:10:57,Rent,$500,House,Whittlesea City Council - Greater Area,0.0,0.0,4.0,2.0,2,"5 Mawbey Way, Wollert",WOLLERT,3750,-37.79042000000001,144.923141,500
142,142,16002952,2022-07-25T13:30:17,Rent,$420_pw,House,Whittlesea City Council - Greater Area,0.0,0.0,3.0,2.0,2,"31 Allendale Avenue, Wollert",WOLLERT,3750,-37.6136475,145.034332,420
143,143,14939081,2022-07-22T16:30:24,Rent,$350,Townhouse,Whittlesea City Council - Greater Area,0.0,0.0,2.0,1.0,1,"39 Florentino Street, Wollert",WOLLERT,3750,-37.6198845,145.04071000000005,350
144,144,15998852,2022-07-21T15:58:40,Rent,$395_Per_Week_/_$1716_Per_Calendar_Month,House,Whittlesea City Council - Greater Area,0.0,0.0,3.0,2.0,1,"8 Westferry Avenue, Wollert",WOLLERT,3750,-37.6012077,144.991653,395
145,145,15906803,2022-05-27T15:15:02,Rent,$410,Townhouse,Whittlesea City Council - Greater Area,0.0,0.0,3.0,1.0,2,"11 & 12/12 Northside Drive, Wollert",WOLLERT,3750,-37.62061,145.016663,410
149,149,16070564,2022-09-02T14:44:37,Rent,$570_Per_Week,House,Whittlesea City Council - Greater Area,0.0,0.0,4.0,2.0,2,"5 Huntington Terrace, Wollert",WOLLERT,3750,-37.6193581,144.99765,570
150,150,16066589,2022-08-31T15:36:34,Rent,$390_pw,Townhouse,Whittlesea City Council - Greater Area,0.0,0.0,3.0,2.0,1,"56 Anglesea Drive, Wollert",WOLLERT,3750,-37.6156654,145.008942,390
151,151,16060466,2022-08-27T00:28:35,Rent,$480_Per_Week,House,Whittlesea City Council - Greater Area,0.0,0.0,4.0,2.0,1,"148 Highpark Drive, Wollert",WOLLERT,3750,-37.61417,145.0218,480
152,152,16061915,2022-08-29T14:27:45,Rent,$480_PER_WEEK,House,Whittlesea City Council - Greater Area,0.0,0.0,4.0,2.0,1,"55 Woodman Circuit, Wollert",WOLLERT,3750,-37.6110573,145.0491,480
153,153,15125946,2022-08-12T02:08:15,Rent,$350_pw,Townhouse,Whittlesea City Council - Greater Area,0.0,0.0,2.0,1.0,1,"107 Highpark Drive, Wollert",WOLLERT,3750,-37.61607,145.018753,350
154,154,16071603,2022-09-04T14:49:04,Rent,$470,House,Whittlesea City Council - Greater Area,0.0,0.0,3.0,2.0,2,"4 DOVE TERRACE, South Morang",SOUTH MORANG,3752,-37.62962720000001,145.092484,470
155,155,16069130,2022-09-01T17:24:28,Rent,$410_per_week,House,Whittlesea City Council - Greater Area,0.0,0.0,3.0,2.0,2,"5 Nivea Terrace, South Morang",SOUTH MORANG,3752,-37.635128,145.067017,410
156,156,16063109,2022-08-30T10:09:33,Rent,$430_Per_Week_-_$1868_Per_Calendar_Mont_h,House,Whittlesea City Council - Greater Area,0.0,0.0,3.0,2.0,1,"13/40 Gorge Road, South Morang",SOUTH MORANG,3752,-37.65133,145.090652,430
157,157,15650374,2022-08-26T12:18:49,Rent,$550_Per_Week,House,Whittlesea City Council - Greater Area,0.0,0.0,4.0,2.0,2,"58 Le Page, South Morang",SOUTH MORANG,3752,-37.63775,145.082413,550
158,158,14762694,2022-08-22T10:24:45,Rent,$420_Per_Week,Townhouse,Whittlesea City Council - Greater Area,0.0,0.0,3.0,2.0,2,"10/191 Gordons Road, South Morang",SOUTH MORANG,3752,-37.636364,145.080246,420
159,159,11277092,2022-08-01T10:26:59,Rent,$400_Per_Week,Townhouse,Whittlesea City Council - Greater Area,0.0,0.0,3.0,2.0,2,"2/191 Gordons Road, South Morang",SOUTH MORANG,3752,-37.63611,145.080811,400
160,160,16009905,2022-07-28T09:59:21,Rent,$370.00,House,Whittlesea City Council - Greater Area,0.0,0.0,3.0,1.0,3,"794 Plenty Road, South Morang",SOUTH MORANG,3752,-37.6528435,145.086182,370
161,161,15271005,2022-08-30T14:28:24,Rent,$410_Per_Week_-_$1782_Per_Calendar_Month,House,Whittlesea City Council - Greater Area,0.0,0.0,3.0,2.0,1,"38 St Claire Avenue, South Morang",SOUTH MORANG,3752,-37.6373138,145.0659,410
162,162,16051604,2022-08-22T17:02:17,Rent,$400_Per_week,House,Whittlesea City Council - Greater Area,0.0,0.0,2.0,2.0,1,"10/40 Gorge Road, South Morang",SOUTH MORANG,3752,-37.65133,145.090652,400
163,163,16051148,2022-08-22T15:28:27,Rent,$450,House,Whittlesea City Council - Greater Area,0.0,0.0,3.0,1.0,2,"2 Nivea Terrace, South Morang",SOUTH MORANG,3752,-37.6348152,145.06749,450
164,164,16048168,2022-08-19T13:26:34,Rent,$520_p/w,House,Whittlesea City Council - Greater Area,0.0,0.0,3.0,2.0,2,"9 Eildon Circuit, South Morang",SOUTH MORANG,3752,-37.62253,145.10081499999995,520
165,165,16047469,2022-08-19T10:12:21,Rent,$350_per_week,House,Whittlesea City Council - Greater Area,0.0,0.0,4.0,2.0,1,"35 Stagecoach Boulevard, South Morang",SOUTH MORANG,3752,-37.6424942,145.098816,350
166,166,16042792,2022-08-17T10:46:49,Rent,$450_per_week,House,Whittlesea City Council - Greater Area,0.0,0.0,4.0,2.0,2,"20 Paringa Avenue, South Morang",SOUTH MORANG,3752,-37.6424446,145.083481,450
167,167,16040163,2022-08-16T09:04:39,Rent,$420_Per_Week_-_$1825_Per_Calendar_Month,House,Whittlesea City Council - Greater Area,0.0,0.0,3.0,2.0,2,"12 Wilton Court, South Morang",SOUTH MORANG,3752,-37.6565437,145.08783,420
168,168,16035072,2022-08-11T17:14:27,Rent,$400_per_week,Townhouse,Whittlesea City Council - Greater Area,0.0,0.0,2.0,2.0,1,"4/40 Gorge Road, South Morang",SOUTH MORANG,3752,-37.65133,145.090652,400
169,169,16032113,2022-08-10T13:45:12,Rent,$480.00,House,Whittlesea City Council - Greater Area,0.0,0.0,3.0,2.0,2,"43 Violet Vista, South Morang",SOUTH MORANG,3752,-37.6276245,145.078537,480
170,170,16024614,2022-08-05T11:28:41,Rent,$450_per_week,House,Whittlesea City Council - Greater Area,0.0,0.0,3.0,2.0,2,"12 Bonniebird Lane, South Morang",SOUTH MORANG,3752,-37.63884,145.086578,450
171,171,16011033,2022-07-28T15:12:52,Rent,$345_per_week,ApartmentUnitFlat,Whittlesea City Council - Greater Area,0.0,0.0,2.0,1.0,1,"20/1 Bethany Court, South Morang",SOUTH MORANG,3752,-37.6475334,145.09298700000005,345
172,172,16059176,2022-08-26T11:52:59,Rent,$490.00,House,Whittlesea City Council - Greater Area,0.0,0.0,4.0,2.0,1,"11 St Leonard Drive, South Morang",SOUTH MORANG,3752,-37.6179581,145.0986,490
173,173,16054060,2022-08-23T16:51:42,Rent,$420PW/$1825PCM,Townhouse,Whittlesea City Council - Greater Area,0.0,0.0,2.0,1.0,1,"160 Gordons Road, South Morang",SOUTH MORANG,3752,-37.63605,145.084183,420
174,174,14794313,2022-08-17T15:36:43,Rent,$450_per_week,House,Whittlesea City Council - Greater Area,0.0,0.0,3.0,2.0,2,"9 Donnelly Circuit, South Morang",SOUTH MORANG,3752,-37.61711500000001,145.100662,450
175,175,12662117,2022-08-08T15:48:43,Rent,$400,Townhouse,Whittlesea City Council - Greater Area,130.0,107.0,3.0,2.0,1,"2/194 Gordons Road, South Morang",SOUTH MORANG,3752,-37.63569260000001,145.08046000000004,400
176,176,16014920,2022-08-01T12:22:59,Rent,$520.00,House,Whittlesea City Council - Greater Area,0.0,0.0,4.0,2.0,2,"9 Stagecoach Boulevard, South Morang",SOUTH MORANG,3752,-37.640995,145.0973,520
177,177,16006644,2022-07-26T15:35:11,Rent,$360_PER_WEEK,House,Whittlesea City Council - Greater Area,0.0,0.0,2.0,1.0,1,"29 Pace Circuit, South Morang",SOUTH MORANG,3752,-37.6486244,145.094849,360
178,178,16068159,2022-09-01T12:54:17,Rent,$420_per_week_($1825_pcm),House,Mitchell Shire - Greater Area,0.0,0.0,4.0,2.0,2,"5 Hillcrest Road, Beveridge",BEVERIDGE,3753,-37.47434620000001,144.94519,420
179,179,14790132,2022-08-22T15:18:16,Rent,$450_per_week_($1955_pcm),House,Mitchell Shire - Greater Area,0.0,0.0,4.0,2.0,2,"220 Mandalay Circuit, Beveridge",BEVERIDGE,3753,-37.47771,144.93954499999995,450
180,180,16066596,2022-08-31T15:39:43,Rent,$430,House,Mitchell Shire - Greater Area,0.0,0.0,4.0,2.0,2,"30 Mistral Way, Beveridge",BEVERIDGE,3753,-37.47499000000001,144.949188,430
181,181,16065868,2022-08-31T12:19:47,Rent,$460,House,Mitchell Shire - Greater Area,0.0,0.0,4.0,2.0,2,"13 Rhapsody Road, Beveridge",BEVERIDGE,3753,-37.47597,144.942841,460
182,182,16057622,2022-08-25T14:19:40,Rent,$450,House,Mitchell Shire - Greater Area,0.0,0.0,4.0,2.0,2,"10 Echidna Drive, Beveridge",BEVERIDGE,3753,-37.4751854,144.96048000000005,450
183,183,16064182,2022-08-30T14:37:59,Rent,$450_per_week,House,Mitchell Shire - Greater Area,0.0,0.0,4.0,2.0,2,"21 Lucknow Drive, Beveridge",BEVERIDGE,3753,-37.47584000000001,144.940811,450
184,184,16053116,2022-08-23T13:01:06,Rent,$460_pw,House,Mitchell Shire - Greater Area,0.0,0.0,4.0,2.0,2,"34 Easey Road, Beveridge",BEVERIDGE,3753,-37.4685,144.954163,460
185,185,16026995,2022-08-08T11:32:37,Rent,$450_weekly,House,Mitchell Shire - Greater Area,0.0,0.0,4.0,2.0,2,"288 Mandalay Cct, Beveridge",BEVERIDGE,3753,-37.47342,144.939041,450
186,186,16065049,2022-08-30T21:16:10,Rent,$460_per_week,House,Mitchell Shire - Greater Area,0.0,0.0,4.0,2.0,2,"41 Possum Drive, Beveridge",BEVERIDGE,3753,-37.48228,144.983215,460
187,187,15898141,2022-08-08T14:08:49,Rent,$420_wk,Townhouse,Mitchell Shire - Greater Area,0.0,0.0,4.0,3.0,2,"5 Plenty View, Beveridge",BEVERIDGE,3753,-37.4683228,144.954468,420
188,188,16063831,2022-08-30T13:13:36,Rent,$540.00_per_week,House,Whittlesea City Council - Greater Area,0.0,0.0,4.0,2.0,2,"11 Greig Drive, Mernda",MERNDA,3754,-37.5897369,145.099335,540
189,189,16061277,2022-08-29T11:41:13,Rent,$440.00,House,Nillumbik Shire - Greater Area,0.0,0.0,4.0,2.0,2,"16 Clancy Way, Doreen",DOREEN,3754,-37.60085,145.122513,440
190,190,16053527,2022-08-23T14:50:53,Rent,$450_per_week,House,Nillumbik Shire - Greater Area,0.0,0.0,4.0,2.0,2,"32 Peterborough Drive, Doreen",DOREEN,3754,-37.5788765,145.126053,450
191,191,16065330,2022-08-31T10:05:48,Rent,$520.00,House,Nillumbik Shire - Greater Area,0.0,0.0,4.0,2.0,2,"12 Sukarna Court, Doreen",DOREEN,3754,-37.6098251,145.1086,520
192,192,16064697,2022-08-30T16:27:59,Rent,$450.00_per_week,House,Whittlesea City Council - Greater Area,0.0,0.0,4.0,2.0,2,"10 Plough Street, Mernda",MERNDA,3754,-37.58634,145.07959,450
193,193,16060965,2022-08-29T10:21:25,Rent,$420.00_per_week,House,Nillumbik Shire - Greater Area,0.0,0.0,3.0,2.0,1,"44 Lincoln Way, Doreen",DOREEN,3754,-37.6121635,145.111176,420
194,194,16057994,2022-08-25T15:49:40,Rent,$405.00,House,Whittlesea City Council - Greater Area,0.0,0.0,4.0,2.0,2,"9 Balvicar Way, Mernda",MERNDA,3754,-37.6036263,145.065689,405
195,195,16054616,2022-08-24T10:01:14,Rent,$450.00_per_week,House,Whittlesea City Council - Greater Area,0.0,0.0,4.0,2.0,2,"15 Stourhead Avenue, Mernda",MERNDA,3754,-37.5959244,145.093338,450
196,196,16050182,2022-08-22T11:30:44,Rent,$400.00_per_week,House,Nillumbik Shire - Greater Area,0.0,0.0,3.0,2.0,2,"7 Composites Lane, Doreen",DOREEN,3754,-37.615097,145.12207,400
197,197,16046778,2022-08-18T16:41:10,Rent,$480_pw_/_$2086_pcm,House,Whittlesea City Council - Greater Area,0.0,0.0,4.0,2.0,2,"6 Cattlemen Way, Mernda",MERNDA,3754,-37.59739,145.0757,480
198,198,16044209,2022-08-17T16:26:55,Rent,$390.00_per_week,House,Nillumbik Shire - Greater Area,0.0,0.0,3.0,2.0,2,"3 Brahman Walk, Doreen",DOREEN,3754,-37.5922279,145.127609,390
199,199,15983762,2022-07-13T11:54:13,Rent,$490_per_week,House,Whittlesea City Council - Greater Area,0.0,0.0,4.0,2.0,2,"17 Watercolour Drive, Mernda",MERNDA,3754,-37.6039429,145.076492,490
200,200,16070847,2022-09-02T15:56:39,Rent,$410_per_week,House,Nillumbik Shire - Greater Area,0.0,0.0,4.0,2.0,2,"122 Eminence Boulevard, Doreen",DOREEN,3754,-37.59724,145.119415,410
201,201,16070224,2022-09-02T13:01:30,Rent,$520_per_week,House,Whittlesea City Council - Greater Area,0.0,0.0,4.0,2.0,2,"7 Powlett Street, Mernda",MERNDA,3754,-37.61138,145.094635,520
202,202,16068679,2022-09-01T15:30:29,Rent,$430pw,House,Nillumbik Shire - Greater Area,0.0,0.0,3.0,2.0,2,"29 Senecio Drive, Doreen",DOREEN,3754,-37.5979767,145.12883,430
203,203,16068273,2022-09-01T13:28:19,Rent,$425,House,Whittlesea City Council - Greater Area,0.0,0.0,4.0,2.0,2,"72 Wellington Street, Mernda",MERNDA,3754,-37.6031,145.067917,425
204,204,13926650,2022-09-01T09:40:52,Rent,$480_Per_Week,House,Whittlesea City Council - Greater Area,0.0,0.0,5.0,2.0,2,"94 Langdon Drive, Mernda",MERNDA,3754,-37.5961075,145.078781,480
205,205,16067081,2022-08-31T17:45:11,Rent,$420_per_week,House,Whittlesea City Council - Greater Area,0.0,0.0,3.0,2.0,3,"22 Sunridge Drive, Mernda",MERNDA,3754,-37.60348,145.06753500000005,420
206,206,16063299,2022-08-30T11:01:24,Rent,$400_per_week,Townhouse,Nillumbik Shire - Greater Area,0.0,0.0,3.0,2.0,2,"47 Painted Hills Road, Doreen",DOREEN,3754,-37.58558,145.128632,400
207,207,15083911,2022-08-29T17:17:44,Rent,$565,House,Nillumbik Shire - Greater Area,0.0,0.0,4.0,3.0,4,"21 Mountain Way, Doreen",DOREEN,3754,-37.603157,145.111313,565
208,208,16061676,2022-08-29T13:26:57,Rent,$480,House,Whittlesea City Council - Greater Area,0.0,0.0,4.0,2.0,2,"68 Cravens Road, Mernda",MERNDA,3754,-37.6040764,145.080811,480
209,209,16060345,2022-08-26T17:34:38,Rent,$445_Per_Week,House,Nillumbik Shire - Greater Area,0.0,0.0,3.0,2.0,1,"20 Ladas Way, Doreen",DOREEN,3754,-37.588253,145.13092,445
210,210,16058761,2022-08-26T09:54:44,Rent,$530_Per_Week,House,Nillumbik Shire - Greater Area,0.0,0.0,4.0,2.0,2,"11 College Road, Doreen",DOREEN,3754,-37.602314,145.11726399999995,530
211,211,14211281,2022-08-25T08:55:17,Rent,$430.00_per_week,House,Nillumbik Shire - Greater Area,0.0,0.0,4.0,2.0,2,"17 Subzero Drive, Doreen",DOREEN,3754,-37.60039520000001,145.11145,430
212,212,16054752,2022-08-24T10:39:26,Rent,$385_Per_Week,House,Whittlesea City Council - Greater Area,0.0,0.0,3.0,2.0,1,"16 Homebush Avenue, Mernda",MERNDA,3754,-37.6108932,145.091263,385
213,213,16049940,2022-08-22T10:34:31,Rent,$420_per_week,House,Whittlesea City Council - Greater Area,0.0,0.0,4.0,2.0,2,"10 Macqueen Street, Mernda",MERNDA,3754,-37.60215,145.0777,420
214,214,16036497,2022-08-12T14:26:50,Rent,$470,House,Nillumbik Shire - Greater Area,0.0,0.0,3.0,2.0,2,"11 Montville Street, Doreen",DOREEN,3754,-37.58467,145.125626,470
215,215,10247135,2022-08-08T16:32:49,Rent,$370.00_per_week,Townhouse,Nillumbik Shire - Greater Area,0.0,0.0,3.0,1.0,1,"7 Painted Hills Road (Lot 153), Doreen",DOREEN,3754,-37.585022,145.13089,370
216,216,14774638,2022-08-31T08:34:31,Rent,$410,House,Whittlesea City Council - Greater Area,0.0,0.0,3.0,2.0,2,"10 Calmos Avenue, Mernda",MERNDA,3754,-37.61102,145.079651,410
217,217,16064422,2022-08-30T15:31:24,Rent,$390_per_week,House,Whittlesea City Council - Greater Area,0.0,0.0,3.0,1.0,1,"60 Borrack Crescent, Mernda",MERNDA,3754,-37.5890923,145.089157,390
218,218,16060856,2022-08-29T09:53:11,Rent,$400,House,Nillumbik Shire - Greater Area,0.0,0.0,4.0,2.0,2,"67 Orchard Road, Doreen",DOREEN,3754,-37.61233,145.13011200000003,400
219,219,15581255,2022-08-26T16:59:03,Rent,$500_weekly,House,Whittlesea City Council - Greater Area,0.0,0.0,4.0,2.0,2,"35 Perry St, Mernda",MERNDA,3754,-37.59031,145.101578,500
220,220,16060238,2022-08-26T16:57:08,Rent,$420_weekly,House,Nillumbik Shire - Greater Area,0.0,0.0,3.0,2.0,2,"16 Tallis Grove, Doreen",DOREEN,3754,-37.6106873,145.13583400000005,420
221,221,16057213,2022-08-25T12:13:35,Rent,$440,House,Nillumbik Shire - Greater Area,0.0,0.0,3.0,2.0,2,"52 Meander Road, Doreen",DOREEN,3754,-37.61043,145.114777,440
222,222,16054387,2022-08-24T07:57:15,Rent,$490,House,Whittlesea City Council - Greater Area,0.0,0.0,4.0,2.0,2,"3 Scuffam Street, Mernda",MERNDA,3754,-37.6062355,145.067917,490
223,223,15590035,2022-08-23T16:32:24,Rent,$420pw/$1825pcm,House,Nillumbik Shire - Greater Area,0.0,0.0,3.0,2.0,2,"30 Towerhill Avenue, Doreen",DOREEN,3754,-37.6043739,145.108948,420
224,224,16051004,2022-08-22T14:59:49,Rent,$410_per_week,House,Nillumbik Shire - Greater Area,0.0,0.0,3.0,2.0,1,"7 Morinda Way, Doreen",DOREEN,3754,-37.5885773,145.130142,410
225,225,16049624,2022-08-22T09:10:25,Rent,$450_per_week,House,Nillumbik Shire - Greater Area,0.0,0.0,4.0,2.0,4,"43 Garden Road, Doreen",DOREEN,3754,-37.60846710000001,145.131317,450
226,226,16045425,2022-08-18T11:06:27,Rent,$430,House,Nillumbik Shire - Greater Area,0.0,0.0,3.0,2.0,2,"48 Woorawa Drive, Doreen",DOREEN,3754,-37.57805,145.12837199999996,430
227,227,16043634,2022-08-17T14:32:37,Rent,$380_per_week,Townhouse,Nillumbik Shire - Greater Area,0.0,0.0,2.0,1.0,1,"Unit 6/105-107 Hazel Glen Dr, Doreen",DOREEN,3754,-37.5872459,145.121918,380
228,228,16043599,2022-08-17T14:24:34,Rent,$440_per_week,House,Whittlesea City Council - Greater Area,0.0,0.0,3.0,2.0,1,"40 Plume Drive, Mernda",MERNDA,3754,-37.59961320000001,145.092224,440
229,229,15103606,2022-08-16T09:32:33,Rent,$550,House,Nillumbik Shire - Greater Area,0.0,0.0,4.0,2.0,2,"11 Laurimar Boulevard, Doreen",DOREEN,3754,-37.58508,145.12432900000005,550
230,230,16040089,2022-08-16T07:00:16,Rent,$400_per_week,House,Whittlesea City Council - Greater Area,0.0,0.0,4.0,2.0,4,"38 Regent Street, Mernda",MERNDA,3754,-37.60551,145.076157,400
231,231,16036819,2022-08-12T15:50:31,Rent,$450_per_week,House,Whittlesea City Council - Greater Area,0.0,0.0,4.0,2.0,1,"43 Bagshot Circuit, Mernda",MERNDA,3754,-37.60583,145.0656,450
232,232,16032486,2022-08-10T15:22:30,Rent,$535_per_week,House,Nillumbik Shire - Greater Area,0.0,0.0,4.0,2.0,3,"57 Barak Parade, Doreen",DOREEN,3754,-37.61356,145.134415,535
233,233,16030057,2022-08-09T14:40:25,Rent,$390_Per_Week_/_$1695_Per_Calendar_Month,House,Whittlesea City Council - Greater Area,0.0,0.0,3.0,1.0,1,"3 Hayes Road, Mernda",MERNDA,3754,-37.5943565,145.10368300000005,390
234,234,16029721,2022-08-09T13:16:45,Rent,$390_Per_Week_-_$1695_Per_Calendar_Month,House,Whittlesea City Council - Greater Area,0.0,0.0,3.0,2.0,2,"8 Falkirk Drive, Mernda",MERNDA,3754,-37.5883,145.091492,390
235,235,16029289,2022-08-09T11:24:51,Rent,$370,ApartmentUnitFlat,Whittlesea City Council - Greater Area,0.0,0.0,2.0,1.0,1,"104/36 Rowell Drive, Mernda",MERNDA,3754,-37.59039310000001,145.096329,370
236,236,14379834,2022-08-09T08:03:15,Rent,$420.00_per_week,House,Whittlesea City Council - Greater Area,0.0,0.0,4.0,2.0,2,"12 Strider Street, Mernda",MERNDA,3754,-37.607666,145.06541399999998,420
237,237,16028473,2022-08-08T17:14:29,Rent,$425,Townhouse,Whittlesea City Council - Greater Area,0.0,0.0,3.0,2.0,1,"3 Cantona Parkway, Mernda",MERNDA,3754,-37.5980339,145.080734,425
238,238,16022887,2022-08-04T13:14:58,Rent,$390_per_week,House,Whittlesea City Council - Greater Area,0.0,0.0,3.0,2.0,1,"21 Haig Street, Mernda",MERNDA,3754,-37.5968056,145.087479,390
239,239,16017360,2022-08-02T12:19:36,Rent,$500,House,Nillumbik Shire - Greater Area,0.0,0.0,4.0,2.0,2,"9 Athalie Rise, Doreen",DOREEN,3754,-37.59984,145.133057,500
240,240,16011968,2022-07-29T09:59:53,Rent,$400,House,Nillumbik Shire - Greater Area,0.0,0.0,3.0,2.0,1,"7 Besra drive, Doreen",DOREEN,3754,-37.58296,145.124451,400
241,241,16007944,2022-07-27T10:50:48,Rent,$370_per_week,House,Whittlesea City Council - Greater Area,0.0,0.0,3.0,2.0,2,"4 Hillgrove Way, Mernda",MERNDA,3754,-37.60228729999999,145.06813,370
242,242,15977417,2022-07-08T16:42:40,Rent,$485.00_pw,House,Nillumbik Shire - Greater Area,0.0,0.0,3.0,2.0,2,"15 Beltons Way, Doreen",DOREEN,3754,-37.58876,145.1235,485
243,243,15916107,2022-06-02T15:22:44,Rent,$450_pw,House,Whittlesea City Council - Greater Area,0.0,0.0,4.0,3.0,2,"6 Pittaway Street, Mernda",MERNDA,3754,-37.58958,145.097137,450
244,244,15272227,2021-07-22T18:28:11,Rent,$350.00_per_week,Townhouse,Whittlesea City Council - Greater Area,0.0,0.0,2.0,2.0,1,"66 Waterwheel Grove, Mernda",MERNDA,3754,-37.5855255,145.079773,350
247,247,16070308,2022-09-02T13:29:22,Rent,$400,House,Whittlesea City Council - Greater Area,0.0,0.0,3.0,2.0,2,"6 Mcculloch Street, Mernda",MERNDA,3754,-37.5908127,145.08373999999995,400
248,248,16069664,2022-09-02T10:40:13,Rent,$450_weekly,House,Whittlesea City Council - Greater Area,0.0,0.0,4.0,2.0,2,"19 Balvicar Way, Mernda",MERNDA,3754,-37.6035652,145.0648,450
249,249,16067572,2022-09-01T10:11:54,Rent,$550,House,Nillumbik Shire - Greater Area,0.0,0.0,4.0,2.0,2,"30 Eliot Avenue, Doreen",DOREEN,3754,-37.5796547,145.129883,550
250,250,11593476,2022-08-31T15:55:57,Rent,$400,House,Whittlesea City Council - Greater Area,0.0,0.0,3.0,2.0,2,"22 Scotchmer Crescent, Mernda",MERNDA,3754,-37.59975,145.07016000000004,400
251,251,16064240,2022-08-30T14:49:25,Rent,$410,House,Whittlesea City Council - Greater Area,0.0,0.0,3.0,2.0,2,"80 Kerrabee Drive, Mernda",MERNDA,3754,-37.5914879,145.080627,410
252,252,16064077,2022-08-30T14:10:47,Rent,$410,House,Whittlesea City Council - Greater Area,0.0,0.0,3.0,2.0,0,"80 Kerrabee Drive, Mernda",MERNDA,3754,-37.5914879,145.080627,410
253,253,16053386,2022-08-23T14:19:27,Rent,$480_PER_WEEK,House,Whittlesea City Council - Greater Area,0.0,0.0,4.0,2.0,2,"31 Renaissance Boulevard, Mernda",MERNDA,3754,-37.603363,145.084549,480
254,254,16061787,2022-08-29T13:50:28,Rent,$340pw_/_$1477pcm,House,Whittlesea City Council - Greater Area,0.0,0.0,2.0,1.0,1,"18 Lawn Walk, Mernda",MERNDA,3754,-37.5904655,145.09548999999996,340
255,255,15222962,2022-08-23T13:53:00,Rent,$480_per_week,House,Nillumbik Shire - Greater Area,0.0,0.0,4.0,2.0,2,"1/52 Waterway Boulevard, Doreen",DOREEN,3754,-37.5894852,145.125931,480
256,256,16052763,2022-08-23T11:24:44,Rent,$440,House,Whittlesea City Council - Greater Area,0.0,0.0,4.0,2.0,2,"6 Scotchmer Crescent, Mernda",MERNDA,3754,-37.59897,145.070328,440
257,257,16041013,2022-08-16T12:46:22,Rent,$380_per_week,House,Whittlesea City Council - Greater Area,0.0,0.0,2.0,1.0,1,"3/515 Bridge Inn Road, Mernda",MERNDA,3754,-37.5998268,145.091446,380
258,258,16038764,2022-08-15T13:27:14,Rent,$520_PER_WEEK,House,Whittlesea City Council - Greater Area,0.0,0.0,4.0,2.0,2,"12 Pittaway Street, Mernda",MERNDA,3754,-37.5892,145.097733,520
259,259,15247450,2022-08-12T12:36:32,Rent,$450.00,Townhouse,Nillumbik Shire - Greater Area,0.0,0.0,4.0,2.0,2,"16/52 Waterway Boulevard, Doreen",DOREEN,3754,-37.5894852,145.125931,450
260,260,14866362,2022-07-25T10:37:26,Rent,$425_per_week,House,Whittlesea City Council - Greater Area,0.0,0.0,3.0,2.0,1,"25 Haig Street, Mernda",MERNDA,3754,-37.59683,145.087219,425
261,261,15914298,2022-06-01T16:48:26,Rent,$500_per_week,House,Whittlesea City Council - Greater Area,0.0,0.0,4.0,2.0,2,"3 Ophir Way, Mernda",MERNDA,3754,-37.5868,145.08334399999995,500
262,262,15403154,2021-09-23T09:49:51,Rent,$380/weekly_$1651_Monthly,Townhouse,Whittlesea City Council - Greater Area,0.0,0.0,2.0,1.0,1,"23/515 Bridge Inn Road, Mernda",MERNDA,3754,-37.5998268,145.091446,380
263,263,14760245,2022-08-07T22:29:09,Rent,$650_per_week,House,Nillumbik Shire - Greater Area,0.0,0.0,5.0,2.0,5,"2070 Donnybrook Rd, Yan Yean",YAN YEAN,3755,-37.5580673,145.108688,650
264,264,16041067,2022-08-16T12:59:09,Rent,$400.00_per_week,House,Mitchell Shire - Greater Area,0.0,0.0,4.0,2.0,2,"18 Holly Drive, Wallan",WALLAN,3756,-37.4195671,144.966156,400
265,265,16070957,2022-09-02T16:28:57,Rent,$590,House,Mitchell Shire - Greater Area,0.0,0.0,4.0,2.0,2,"5 Springridge Boulevard, Wallan",WALLAN,3756,-37.39698,144.976151,590
266,266,16070166,2022-09-02T12:43:57,Rent,$390_per_week,House,Mitchell Shire - Greater Area,0.0,0.0,4.0,2.0,2,"9 Ross Parade, Wallan",WALLAN,3756,-37.4254074,144.9962,390
267,267,16067771,2022-09-01T11:01:55,Rent,$390_per_week,House,Mitchell Shire - Greater Area,0.0,0.0,4.0,2.0,2,"11 Solitaire Way, Wallan",WALLAN,3756,-37.4262962,144.999619,390
268,268,16065461,2022-08-31T10:34:21,Rent,$380_per_week,Townhouse,Mitchell Shire - Greater Area,0.0,0.0,4.0,2.0,2,"24 Newbridge Boulevard, Wallan",WALLAN,3756,-37.42089,145.001785,380
269,269,16065395,2022-08-31T10:19:53,Rent,$380_per_week,Townhouse,Mitchell Shire - Greater Area,0.0,0.0,4.0,2.0,2,"26 Newbridge Boulevard, Wallan",WALLAN,3756,-37.42089,145.001785,380
270,270,16063258,2022-08-30T10:51:22,Rent,$400_per_week,House,Mitchell Shire - Greater Area,0.0,0.0,4.0,2.0,2,"31 Charles Street, Wallan",WALLAN,3756,-37.42256,145.001343,400
271,271,16057749,2022-08-25T14:51:53,Rent,$700_per_week,House,Mitchell Shire - Greater Area,0.0,0.0,4.0,2.0,2,"60 Hart Court, Wallan",WALLAN,3756,-37.4192162,145.013321,700
272,272,16055676,2022-08-24T14:58:12,Rent,$390_per_week,House,Mitchell Shire - Greater Area,0.0,0.0,4.0,2.0,2,"4 Mackinac Avenue, Wallan",WALLAN,3756,-37.4246979,144.998184,390
273,273,16055592,2022-08-24T14:37:13,Rent,$390_per_week,House,Mitchell Shire - Greater Area,0.0,0.0,4.0,2.0,2,"21 Ross Parade, Wallan",WALLAN,3756,-37.4253769,144.996,390
274,274,16054244,2022-08-23T17:57:18,Rent,$440,House,Mitchell Shire - Greater Area,0.0,0.0,4.0,2.0,2,"10 Mackinac Avenue, Wallan",WALLAN,3756,-37.4246979,144.998184,440
275,275,16043456,2022-08-17T13:49:58,Rent,$400_per_week,House,Mitchell Shire - Greater Area,0.0,0.0,4.0,2.0,2,"47 Newbridge Boulevard, Wallan",WALLAN,3756,-37.4262962,144.999619,400
276,276,11694652,2022-08-17T11:32:07,Rent,$420.00_per_week,House,Mitchell Shire - Greater Area,0.0,0.0,4.0,3.0,2,"65 Pretty Sally Drive, Wallan",WALLAN,3756,-37.39816,144.97264099999995,420
277,277,16040281,2022-08-16T09:44:58,Rent,$410_per_week,House,Mitchell Shire - Greater Area,0.0,0.0,4.0,2.0,2,"52 Charles Street, Wallan",WALLAN,3756,-37.4226036,145.000259,410
278,278,16036261,2022-08-12T13:25:26,Rent,$400_per_week,House,Mitchell Shire - Greater Area,0.0,0.0,4.0,2.0,2,"22 Foxtail Circuit, Wallan",WALLAN,3756,-37.4066925,144.979828,400
279,279,15155456,2022-08-09T12:23:47,Rent,$420,House,Mitchell Shire - Greater Area,0.0,0.0,3.0,2.0,2,"55 Blue Lake Drive, Wallan",WALLAN,3756,-37.427475,144.988785,420
280,280,16027168,2022-08-08T12:18:37,Rent,$400_per_week,House,Mitchell Shire - Greater Area,0.0,0.0,4.0,2.0,2,"10 Foxtail Circuit, Wallan",WALLAN,3756,-37.4066925,144.979828,400
281,281,15155205,2022-07-19T15:10:41,Rent,$420,House,Mitchell Shire - Greater Area,0.0,0.0,4.0,2.0,2,"28 Buckland Hill Drive, Wallan",WALLAN,3756,-37.4273033,144.991837,420
283,283,16065716,2022-08-31T11:41:02,Rent,$340_wk,ApartmentUnitFlat,Mitchell Shire - Greater Area,0.0,0.0,3.0,1.0,2,"Unit 2/4A Stanley Street, Wallan",WALLAN,3756,-37.41882,144.9763,340
284,284,16062040,2022-08-29T15:07:33,Rent,$650_per_week,House,Mitchell Shire - Greater Area,0.0,0.0,3.0,1.0,6,"1380 Wallan-Whittlesea Road, Upper Plenty",UPPER PLENTY,3756,-37.41827,145.043045,650
285,285,16058429,2022-08-25T18:16:28,Rent,$580PW/$2530PCM,House,Mitchell Shire - Greater Area,0.0,0.0,4.0,2.0,2,"95 Dudley Street, Wallan",WALLAN,3756,-37.4111176,144.973572,580
286,286,16047310,2022-08-19T09:22:32,Rent,$460.00,House,Mitchell Shire - Greater Area,0.0,0.0,4.0,2.0,2,"8 Indigo Street, Wallan",WALLAN,3756,-37.42106629999999,144.963211,460
287,287,9862777,2022-08-15T16:55:49,Rent,$400.00_per_week,House,Mitchell Shire - Greater Area,0.0,0.0,3.0,2.0,2,"20 PAMELA COURT, Wallan",WALLAN,3756,-37.4118423,144.972672,400
288,288,14230683,2022-08-15T15:13:23,Rent,$430_PER_WEEK,House,Mitchell Shire - Greater Area,0.0,0.0,5.0,2.0,2,"38 MCCARTHY COURT, Wallan",WALLAN,3756,-37.4175758,144.987274,430
289,289,16030047,2022-08-09T14:37:04,Rent,$500_wk,House,Mitchell Shire - Greater Area,0.0,0.0,4.0,3.0,2,"51 Siena Ridge, Wallan",WALLAN,3756,-37.38841,144.988922,500
290,290,16031697,2022-08-10T11:47:44,Rent,$330,ApartmentUnitFlat,Mitchell Shire - Greater Area,0.0,0.0,2.0,1.0,1,"1/91 Dudley St, Wallan",WALLAN,3756,-37.41143,144.973633,330
291,291,11688508,2022-08-24T13:11:02,Rent,$410._per_week,House,Mitchell Shire - Greater Area,0.0,0.0,4.0,2.0,2,"19 Mt Eliza Avenue, Wallan",WALLAN,3756,-37.42904,144.9892,410
292,292,16051790,2022-08-22T18:02:30,Rent,$420,House,Mitchell Shire - Greater Area,0.0,0.0,3.0,1.0,2,"52 Dudley Street, Wallan",WALLAN,3756,-37.4147453,144.97393799999998,420
294,294,16029723,2022-08-09T13:16:47,Rent,$460_wk,House,Mitchell Shire - Greater Area,0.0,0.0,4.0,2.0,2,"3 Stag Place, Wallan",WALLAN,3756,-37.4314079,144.991135,460
295,295,16003743,2022-07-25T16:03:26,Rent,$390_per_week,House,Mitchell Shire - Greater Area,0.0,0.0,3.0,2.0,1,"1/88 King Street, Wallan",WALLAN,3756,-37.409832,144.981476,390
296,296,16064263,2022-08-30T14:56:08,Rent,$420,House,Whittlesea City Council - Greater Area,0.0,0.0,3.0,2.0,2,"8/140 Tambo Circuit, Whittlesea",WHITTLESEA,3757,-37.5018654,145.1156,420
297,297,16035834,2022-08-12T11:25:13,Rent,$280_per_week,House,Mitchell Shire - Greater Area,0.0,0.0,2.0,1.0,4,"2977A Epping Kilmore Road, Heathcote Junction",HEATHCOTE JUNCTION,3758,-37.38425,145.029053,280
298,298,15963799,2022-07-01T09:50:22,Rent,$1200.00,House,Nillumbik Shire - Greater Area,0.0,0.0,6.0,3.0,6,"690 Kangaroo Ground St Andrews Road, Panton Hill",PANTON HILL,3759,-37.63486,145.247711,1200
299,299,14487979,2022-08-23T11:31:58,Rent,$240_PER_WEEK,House,Macedon Ranges - Greater Area,0.0,0.0,2.0,1.0,2,"1160 NORTHERN HIGHWAY, Bylands",BYLANDS,3762,-37.3510475,144.961853,240
300,300,16070075,2022-09-02T12:18:46,Rent,$430_per_week,House,Mitchell Shire - Greater Area,0.0,0.0,4.0,2.0,2,"9 Xavier Street, Kilmore",KILMORE,3764,-37.2905846,144.933029,430
301,301,15253644,2022-09-01T13:35:26,Rent,$400.00_per_week,House,Mitchell Shire - Greater Area,0.0,0.0,3.0,1.0,2,"25 George Street Kilmore, Kilmore",KILMORE,3764,-37.2925568,144.957092,400
302,302,15226214,2022-08-30T15:49:14,Rent,$400.00_per_week,ApartmentUnitFlat,Mitchell Shire - Greater Area,0.0,0.0,3.0,2.0,2,"15A CLUB PARADE, Kilmore",KILMORE,3764,-37.3020744,144.9601,400
303,303,13248078,2022-08-30T11:55:31,Rent,$370_per_week,House,Mitchell Shire - Greater Area,0.0,0.0,3.0,1.0,1,"13 BRANIGAN DRIVE, Kilmore",KILMORE,3764,-37.26093,144.972351,370
304,304,15506234,2022-08-24T10:24:23,Rent,$400_PW_$1733_PCM,ApartmentUnitFlat,Mitchell Shire - Greater Area,0.0,0.0,3.0,2.0,1,"15B Albert Street, Kilmore",KILMORE,3764,-37.2950172,144.955078,400
305,305,16048126,2022-08-19T13:16:43,Rent,550_Per_Week,AcreageSemiRural,Mitchell Shire - Greater Area,0.0,0.0,3.0,1.0,0,"1550 Northern Highway, Kilmore",KILMORE,3764,-37.3160477,144.952316,550
306,306,16046490,2022-08-18T15:38:01,Rent,$1651.00,House,Mitchell Shire - Greater Area,0.0,0.0,3.0,1.0,4,"8 Johnson Court, Kilmore",KILMORE,3764,-37.3100624,144.957855,1651
307,307,10512457,2022-08-03T13:23:57,Rent,$390.00_per_week,House,Mitchell Shire - Greater Area,0.0,0.0,3.0,2.0,1,"32 NATURES RUN, Kilmore",KILMORE,3764,-37.30842,144.960251,390
308,308,16033518,2022-08-11T10:26:01,Rent,$450,House,Mitchell Shire - Greater Area,0.0,0.0,4.0,2.0,2,"8 Pinewood Place, Kilmore",KILMORE,3764,-37.29063,144.957153,450
310,310,16049765,2022-08-22T09:54:35,Rent,$430_PW_$1863_PCM,House,Mitchell Shire - Greater Area,0.0,0.0,4.0,2.0,2,"35 Mikada Blvd, Kilmore",KILMORE,3764,-37.29087,144.935486,430
311,311,16044723,2022-08-18T08:21:11,Rent,$475,House,Mitchell Shire - Greater Area,0.0,0.0,4.0,2.0,1,"41A Sydney Street, Kilmore",KILMORE,3764,-37.2927666,144.95103500000005,475
312,312,15997710,2022-07-21T10:52:45,Rent,$420pw_$1825pcm,House,Mitchell Shire - Greater Area,0.0,0.0,4.0,2.0,2,"22 May Street, Kilmore",KILMORE,3764,-37.2879944,144.930923,420
314,314,12594909,2022-08-31T17:05:52,Rent,$450_per_week,House,Yarra Ranges Shire - Greater Area,0.0,0.0,2.0,1.0,1,"7 Arlie Crescent, Montrose",MONTROSE,3765,-37.813736,145.331055,450
315,315,9589267,2022-08-26T14:06:14,Rent,$440_per_week,ApartmentUnitFlat,Yarra Ranges Shire - Greater Area,0.0,0.0,2.0,1.0,1,"13/5 Devenish Avenue, Montrose",MONTROSE,3765,-37.8118553,145.344131,440
317,317,16049321,2022-08-19T23:26:00,Rent,$500.00_Per_Week,House,Yarra Ranges Shire - Greater Area,0.0,0.0,3.0,2.0,2,"802 Mount Dandenong Road, Montrose",MONTROSE,3765,-37.8106842,145.332642,500
318,318,15570250,2022-08-31T11:39:19,Rent,$750_per_week,House,Yarra Ranges Shire - Greater Area,0.0,0.0,3.0,2.0,6,"102-104 Ridge Road, Mount Dandenong",MOUNT DANDENONG,3767,-37.833168,145.350723,750
319,319,15651424,2022-01-13T18:40:32,Rent,$1200/wk_Fully_Furnished,House,Yarra Ranges Shire - Greater Area,0.0,0.0,5.0,2.0,2,"106 BREAKNECK, Yarra Glen",YARRA GLEN,3775,-37.6576,145.352081,1200
320,320,10279446,2022-08-02T13:58:20,Rent,$450_pw,House,Eildon & Murrindindi - Greater Area,0.0,0.0,2.0,1.0,1,"3/30 Lyell Street, Marysville",MARYSVILLE,3779,-37.51238,145.743454,450
321,321,12413574,2022-08-04T16:30:07,Rent,Expressions_of_Interest_$425.00_per_week,Studio,Cardinia Shire - Greater Area,0.0,0.0,1.0,1.0,3,"3/83 Main Street, Gembrook",GEMBROOK,3783,-37.9528656,145.550781,425
322,322,16062004,2022-08-29T14:56:45,Rent,$495_weekly,House,Yarra Ranges Shire - Greater Area,0.0,0.0,3.0,1.0,0,"28 Monash Ave, Olinda",OLINDA,3788,-37.8530846,145.36398300000005,495
323,323,16029591,2022-08-09T12:39:02,Rent,$480_per_week,House,Yarra Ranges Shire - Greater Area,0.0,0.0,2.0,1.0,2,Kallista,KALLISTA,3791,-37.9051,145.411179,480
324,324,16065343,2022-08-31T10:09:07,Rent,$440pw,House,Yarra Ranges Shire - Greater Area,0.0,0.0,3.0,1.0,1,"36 Beveridge Road, Silvan",SILVAN,3795,-37.84897,145.4587,440
325,325,16067879,2022-09-01T11:30:54,Rent,$250_per_week,House,Yarra Ranges Shire - Greater Area,0.0,0.0,1.0,1.0,1,"8A Birmingham Road, Mount Evelyn",MOUNT EVELYN,3796,-37.7856026,145.380417,250
326,326,16042152,2022-08-16T17:19:23,Rent,$540_per_week,House,Yarra Ranges Shire - Greater Area,0.0,0.0,4.0,2.0,5,"17 Borang Avenue, Mount Evelyn",MOUNT EVELYN,3796,-37.79277,145.3859,540
327,327,11225546,2022-08-29T10:44:16,Rent,$350,House,Yarra Ranges Shire - Greater Area,0.0,0.0,4.0,2.0,0,"45 RIVERSDALE Road, Yarra Junction",YARRA JUNCTION,3797,-37.7889977,145.6247,350
329,329,16061946,2022-08-29T14:38:25,Rent,$450,House,Casey City - Greater Area,0.0,0.0,3.0,1.0,1,"50 Scotsburn Way, Endeavour Hills",ENDEAVOUR HILLS,3802,-37.97247,145.266113,450
330,330,16054803,2022-08-24T10:53:55,Rent,$440,House,Casey City - Greater Area,0.0,0.0,3.0,1.0,2,"22 Scotsburn way, Endeavour Hills",ENDEAVOUR HILLS,3802,-37.973156,145.2629,440
331,331,16065527,2022-08-31T10:52:53,Rent,$_400_PER_WEEK,House,Casey City - Greater Area,0.0,0.0,4.0,1.0,2,"16 Sydney Parkinson Drive, Endeavour Hills",ENDEAVOUR HILLS,3802,-37.9840736,145.263672,400
332,332,10647863,2022-08-26T13:57:09,Rent,$550.00_per_week,House,Casey City - Greater Area,0.0,0.0,4.0,2.0,2,"20 Barrier Reef Circuit, Endeavour Hills",ENDEAVOUR HILLS,3802,-37.99091,145.258057,550
333,333,12521554,2022-08-25T15:06:35,Rent,$430_p/w,House,Casey City - Greater Area,0.0,0.0,4.0,1.0,2,"71 James Cook Drive, Endeavour Hills",ENDEAVOUR HILLS,3802,-37.9806747,145.245544,430
334,334,16056630,2022-08-25T09:33:23,Rent,$500,House,Casey City - Greater Area,0.0,0.0,3.0,1.0,2,"23 Axedale Crescent, Endeavour Hills",ENDEAVOUR HILLS,3802,-37.96879000000001,145.2562,500
335,335,16055180,2022-08-24T12:37:01,Rent,$380.00_PER_WEEK,House,Casey City - Greater Area,0.0,0.0,4.0,1.0,1,"12 Essex Park Drive, Endeavour Hills",ENDEAVOUR HILLS,3802,-37.9714165,145.240143,380
336,336,15328206,2022-08-17T11:55:44,Rent,$450,House,Casey City - Greater Area,0.0,0.0,4.0,1.0,2,"2 Melliodora Court, Endeavour Hills",ENDEAVOUR HILLS,3802,-37.9670219,145.24031100000005,450
337,337,16032705,2022-08-10T16:12:43,Rent,$425,House,Casey City - Greater Area,0.0,0.0,3.0,1.0,2,"35 David Collins Drive, Endeavour Hills",ENDEAVOUR HILLS,3802,-37.991333,145.265823,425
338,338,16029293,2022-08-09T11:25:33,Rent,$415,House,Casey City - Greater Area,0.0,0.0,3.0,1.0,3,"13 Clangula Court, Endeavour Hills",ENDEAVOUR HILLS,3802,-37.9739876,145.243332,415
339,339,16028088,2022-08-08T15:50:34,Rent,$355_PW,ApartmentUnitFlat,Casey City - Greater Area,0.0,0.0,2.0,1.0,1,"1/31 David Collins Drive, Endeavour Hills",ENDEAVOUR HILLS,3802,-37.99106,145.265427,355
340,340,16026141,2022-08-05T22:20:07,Rent,$460,House,Casey City - Greater Area,0.0,0.0,3.0,1.0,3,"16 Struan Avenue, Endeavour Hills",ENDEAVOUR HILLS,3802,-37.96465300000001,145.27027900000004,460
341,341,10756495,2022-08-04T14:18:33,Rent,$425,ApartmentUnitFlat,Casey City - Greater Area,0.0,0.0,3.0,1.0,2,"10/8 Monteith Crescent, Endeavour Hills",ENDEAVOUR HILLS,3802,-37.97516,145.2649,425
342,342,15825068,2022-04-06T15:20:35,Rent,$540,House,Casey City - Greater Area,0.0,0.0,4.0,2.0,1,"25 Monteith Crescent, Endeavour Hills",ENDEAVOUR HILLS,3802,-37.973465,145.266525,540
343,343,16070914,2022-09-02T16:12:57,Rent,$650_Per_Week,House,Casey City - Greater Area,0.0,0.0,5.0,3.0,4,"4 Charlton Court, Endeavour Hills",ENDEAVOUR HILLS,3802,-37.98824310000001,145.268951,650
344,344,16064576,2022-08-30T16:02:47,Rent,$500_Per_Week,House,Casey City - Greater Area,0.0,0.0,4.0,2.0,3,"4 Astran Court, Endeavour Hills",ENDEAVOUR HILLS,3802,-37.9789925,145.27200000000005,500
345,345,16062991,2022-08-30T09:31:03,Rent,$480,House,Casey City - Greater Area,0.0,0.0,3.0,2.0,6,"33 Monkhouse Drive, Endeavour Hills",ENDEAVOUR HILLS,3802,-37.9760246,145.2541,480
346,346,16032544,2022-08-10T15:36:56,Rent,$430_Per_Week,ApartmentUnitFlat,Casey City - Greater Area,0.0,0.0,3.0,2.0,2,"43 Endeavour Crescent, Endeavour Hills",ENDEAVOUR HILLS,3802,-37.9753342,145.2569,430
347,347,12884955,2022-06-06T23:46:06,Rent,$700,House,Casey City - Greater Area,0.0,0.0,3.0,2.0,4,"Shafer court, Endeavour Hills",ENDEAVOUR HILLS,3802,-37.98061,145.263016,700
348,348,13116219,2019-04-16T12:00:42,Rent,$490_per_week,House,Casey City - Greater Area,0.0,0.0,3.0,3.0,2,"15 Erica Close, Endeavour Hills",ENDEAVOUR HILLS,3802,-37.9794464,145.25914,490
349,349,16048737,2022-08-19T15:45:33,Rent,$470_Per_Week,House,Casey City - Greater Area,0.0,0.0,3.0,2.0,2,"7 Sigvard Boulevard, Hallam",HALLAM,3803,-38.0006256,145.2799,470
350,350,16027481,2022-08-08T13:38:53,Rent,$420_p.w.,House,Casey City - Greater Area,0.0,0.0,3.0,2.0,2,"69 Marson Crescent, Hallam",HALLAM,3803,-38.00317,145.27813700000004,420
351,351,16068097,2022-09-01T12:32:30,Rent,$_360_PER_WEEK,ApartmentUnitFlat,Casey City - Greater Area,0.0,0.0,2.0,1.0,1,"3/39 Kays Avenue, Hallam",HALLAM,3803,-37.99964,145.25325,360
352,352,16067695,2022-09-01T10:44:38,Rent,$315,ApartmentUnitFlat,Casey City - Greater Area,0.0,0.0,2.0,1.0,1,"2/23 Edinborough Street, Hallam",HALLAM,3803,-38.0017433,145.266739,315
353,353,12057913,2022-07-19T13:56:29,Rent,$460.00_per_week,ApartmentUnitFlat,Casey City - Greater Area,0.0,0.0,3.0,2.0,1,"1/6 Charles Avenue, Hallam",HALLAM,3803,-38.002037,145.25611899999996,460
354,354,12484060,2022-08-24T13:44:09,Rent,$500,House,Casey City - Greater Area,0.0,0.0,5.0,2.0,4,"11 Landhill Court, Hallam",HALLAM,3803,-38.00454000000001,145.278519,500
355,355,16054158,2022-08-23T17:19:44,Rent,$390,ApartmentUnitFlat,Casey City - Greater Area,0.0,0.0,2.0,1.0,1,"2/26 Gunns Road, Hallam",HALLAM,3803,-37.9979439,145.264969,390
356,356,16053228,2022-08-23T13:32:26,Rent,$530,House,Casey City - Greater Area,0.0,0.0,4.0,3.0,2,"37 Saffron Drive, Hallam",HALLAM,3803,-38.00496,145.28372199999995,530
357,357,16008166,2022-07-27T11:43:58,Rent,$410.00_per_week,ApartmentUnitFlat,Casey City - Greater Area,0.0,0.0,2.0,1.0,1,"2/6 Charles Avenue, Hallam",HALLAM,3803,-38.002037,145.25611899999996,410
358,358,15943462,2022-06-20T14:43:21,Rent,$400,ApartmentUnitFlat,Casey City - Greater Area,0.0,0.0,2.0,1.0,1,"3/67 Bella Cresent, Hallam",HALLAM,3803,-38.0171,145.2838,400
359,359,15895560,2022-05-20T15:12:32,Rent,$_420_Per_Week,House,Casey City - Greater Area,0.0,0.0,3.0,1.0,0,"4 Kays Avenue, Hallam",HALLAM,3803,-38.00320429999999,145.253387,420
360,360,16057368,2022-08-25T12:54:44,Rent,$500,House,Casey City - Greater Area,0.0,0.0,4.0,2.0,2,"8 Sigvard Boulevard, Hallam",HALLAM,3803,-38.00021,145.279861,500
361,361,16052528,2022-08-23T10:26:57,Rent,$400,House,Casey City - Greater Area,0.0,0.0,3.0,2.0,0,"2 Fitzgerald Road, Hallam",HALLAM,3803,-38.0078239,145.279175,400
362,362,16028492,2022-08-08T17:18:47,Rent,$480pw_|_$2086pcm,House,Casey City - Greater Area,0.0,0.0,4.0,2.0,2,"16 Pauline Court, Hallam",HALLAM,3803,-38.0174026,145.280426,480
363,363,15484129,2021-10-27T13:28:45,Rent,$480,House,Casey City - Greater Area,0.0,0.0,4.0,2.0,0,"5 Brently Close, Narre Warren North",NARRE WARREN NORTH,3804,-37.99236679999999,145.301208,480
364,364,16060553,2022-08-27T13:16:24,Rent,$480.00_per_week,House,Casey City - Greater Area,0.0,0.0,4.0,2.0,2,"60 Fleet Street, Narre Warren South",NARRE WARREN SOUTH,3805,-38.06652,145.288971,480
365,365,16049134,2022-08-19T17:20:29,Rent,$450_Per_Week,House,Casey City - Greater Area,0.0,0.0,3.0,1.0,0,"97 Darling Way, Narre Warren",NARRE WARREN,3805,-38.0390778,145.32093799999996,450
366,366,14296037,2022-08-15T13:29:24,Rent,$380_p.w.,House,Casey City - Greater Area,0.0,0.0,3.0,2.0,0,"18 Nita Close, Narre Warren",NARRE WARREN,3805,-38.0039825,145.29303000000004,380
367,367,16069796,2022-09-02T11:14:08,Rent,$550,House,Casey City - Greater Area,0.0,0.0,4.0,2.0,2,"6 Rochford Place, Narre Warren South",NARRE WARREN SOUTH,3805,-38.0285,145.2895,550
368,368,16069410,2022-09-02T09:20:36,Rent,$470_pw,House,Casey City - Greater Area,0.0,0.0,3.0,2.0,2,"3 Scoble Place, Narre Warren",NARRE WARREN,3805,-38.0109062,145.3157,470
369,369,16067932,2022-09-01T11:48:27,Rent,$_360_PER_WEEK,House,Casey City - Greater Area,0.0,0.0,3.0,1.0,0,"8 Meredith Close, Narre Warren",NARRE WARREN,3805,-38.04882429999999,145.296524,360
370,370,16064492,2022-08-30T15:46:25,Rent,$380_per_week,House,Casey City - Greater Area,0.0,0.0,3.0,1.0,2,"10 Wesley Drive, Narre Warren",NARRE WARREN,3805,-38.03779220000001,145.3094,380
371,371,16064471,2022-08-30T15:43:06,Rent,$480_weekly,House,Casey City - Greater Area,0.0,0.0,3.0,2.0,2,"10 Hallmark Drive, Narre Warren South",NARRE WARREN SOUTH,3805,-38.0641251,145.286072,480
372,372,16050471,2022-08-22T12:42:01,Rent,$380_per_week,ApartmentUnitFlat,Casey City - Greater Area,0.0,0.0,2.0,1.0,1,"2/4 Ravensthorpe Crescent, Narre Warren",NARRE WARREN,3805,-38.03583,145.316452,380
373,373,16045199,2022-08-18T10:08:31,Rent,$420,House,Casey City - Greater Area,0.0,0.0,3.0,2.0,2,"20 Janson Close, Narre Warren South",NARRE WARREN SOUTH,3805,-38.0416,145.290009,420
374,374,14512018,2022-08-16T09:43:02,Rent,$495_per_week,House,Casey City - Greater Area,0.0,0.0,3.0,2.0,2,"125 Harold Keys Drive, Narre Warren South",NARRE WARREN SOUTH,3805,-38.0302277,145.2882,495
375,375,16030649,2022-08-09T16:38:02,Rent,$430_per_week,House,Casey City - Greater Area,0.0,0.0,3.0,1.0,2,"62 Prospect Hill Road, Narre Warren",NARRE WARREN,3805,-38.01098,145.30452,430
376,376,16065945,2022-08-31T12:42:16,Rent,$_550_PER_WEEK,House,Casey City - Greater Area,0.0,0.0,4.0,2.0,2,"3 Fairmead Place, Narre Warren South",NARRE WARREN SOUTH,3805,-38.0575867,145.291412,550
377,377,16062445,2022-08-29T16:34:14,Rent,$600_pw,House,Casey City - Greater Area,0.0,0.0,5.0,3.0,2,"4 Savile Place, Narre Warren",NARRE WARREN,3805,-37.99860379999999,145.310272,600
378,378,16062329,2022-08-29T16:10:26,Rent,$_490_PER_WEEK,House,Casey City - Greater Area,0.0,0.0,4.0,2.0,2,"30 Armadale Drive, Narre Warren",NARRE WARREN,3805,-38.03631,145.307159,490
379,379,16061053,2022-08-29T10:46:43,Rent,$430_per_week,House,Casey City - Greater Area,0.0,0.0,3.0,1.0,4,"29 Bradley Terrace, Narre Warren",NARRE WARREN,3805,-38.03136,145.311432,430
380,380,16052765,2022-08-23T11:25:43,Rent,$700,House,Casey City - Greater Area,0.0,0.0,5.0,4.0,2,"23 Golden Grove Drive, Narre Warren South",NARRE WARREN SOUTH,3805,-38.06783,145.295578,700
381,381,16042880,2022-08-17T11:08:49,Rent,$405_per_week,House,Casey City - Greater Area,0.0,0.0,3.0,2.0,2,"4 Diosma Court, Narre Warren",NARRE WARREN,3805,-38.01446,145.311523,405
382,382,15345589,2022-08-17T09:41:29,Rent,$430,House,Casey City - Greater Area,0.0,0.0,3.0,2.0,1,"31 Fleetwood Drive, Narre Warren",NARRE WARREN,3805,-38.03878,145.308975,430
383,383,16042436,2022-08-17T08:52:31,Rent,$430_per_week,ApartmentUnitFlat,Casey City - Greater Area,0.0,0.0,2.0,1.0,2,"1/22 Shrives Road, Narre Warren",NARRE WARREN,3805,-38.0287743,145.300781,430
384,384,16041104,2022-08-16T13:09:14,Rent,$325.00_per_week,ApartmentUnitFlat,Casey City - Greater Area,0.0,0.0,2.0,1.0,1,"2/2 Manna Gum Court, Narre Warren",NARRE WARREN,3805,-38.04017260000001,145.315292,325
385,385,16041062,2022-08-16T12:58:32,Rent,$500,House,Casey City - Greater Area,0.0,0.0,4.0,2.0,2,"35 Leyland Drive, Narre Warren South",NARRE WARREN SOUTH,3805,-38.07314,145.327545,500
386,386,16033630,2022-08-11T10:57:55,Rent,$420,House,Casey City - Greater Area,0.0,0.0,3.0,2.0,2,"7 Boomerang Court, Narre Warren South",NARRE WARREN SOUTH,3805,-38.0616,145.29808,420
387,387,16029337,2022-08-09T11:33:16,Rent,$370_per_week,House,Casey City - Greater Area,0.0,0.0,2.0,2.0,2,"41 Fountain Drive, Narre Warren",NARRE WARREN,3805,-38.01514,145.2965,370
388,388,16029298,2022-08-09T11:27:00,Rent,$_380_PER_WEEK,ApartmentUnitFlat,Casey City - Greater Area,0.0,0.0,2.0,1.0,1,"1/5 Saxonwood Drive, Narre Warren",NARRE WARREN,3805,-38.0319633,145.308044,380
389,389,16029237,2022-08-09T11:13:13,Rent,$_380_PER_WEEK,House,Casey City - Greater Area,0.0,0.0,3.0,1.0,1,"53 Norfolk Drive, Narre Warren",NARRE WARREN,3805,-38.0364,145.3117,380
390,390,16026863,2022-08-08T11:01:30,Rent,$600_per_week,House,Casey City - Greater Area,0.0,0.0,4.0,2.0,2,"16 Shamrock Close, Narre Warren",NARRE WARREN,3805,-38.0540962,145.312988,600
391,391,16024836,2022-08-05T12:33:36,Rent,$400_per_week,House,Casey City - Greater Area,0.0,0.0,3.0,2.0,2,"10 Lantana Drive, Narre Warren",NARRE WARREN,3805,-38.03602,145.321365,400
392,392,16018246,2022-08-02T15:46:42,Rent,$395_Per_Week,House,Casey City - Greater Area,0.0,0.0,3.0,2.0,2,"29 Garnet Close, Narre Warren",NARRE WARREN,3805,-38.0015564,145.320953,395
393,393,16017125,2022-08-02T11:30:20,Rent,$_380_PER_WEEK,House,Casey City - Greater Area,0.0,0.0,3.0,2.0,1,"40 Hanley Street, Narre Warren",NARRE WARREN,3805,-38.0308876,145.317963,380
394,394,14582265,2022-08-02T10:27:08,Rent,$380_per_week,House,Casey City - Greater Area,0.0,0.0,2.0,1.0,2,"10 Armadale Drive, Narre Warren",NARRE WARREN,3805,-38.03655,145.30883799999995,380
395,395,16011264,2022-07-28T16:14:19,Rent,From_$195,House,Casey City - Greater Area,0.0,0.0,1.0,1.0,0,"5 Broadacres Court, Narre Warren",NARRE WARREN,3805,-38.0150566,145.298523,195
396,396,16002812,2022-07-25T13:01:04,Rent,$530,House,Casey City - Greater Area,0.0,0.0,4.0,2.0,2,"6 Springvalley Way, Narre Warren South",NARRE WARREN SOUTH,3805,-38.04515,145.28453100000004,530
397,397,15988490,2022-07-15T12:58:46,Rent,$410.00_per_week,House,Casey City - Greater Area,0.0,0.0,4.0,2.0,4,"6 Sugar Gum Court, Narre Warren South",NARRE WARREN SOUTH,3805,-38.040077200000006,145.2884,410
398,398,16071050,2022-09-02T16:52:53,Rent,$480_Per_Week,House,Casey City - Greater Area,0.0,0.0,4.0,2.0,2,"54 Beethoven Drive, Narre Warren South",NARRE WARREN SOUTH,3805,-38.0662231,145.289764,480
399,399,14234017,2022-08-17T14:44:38,Rent,$470_p.w.,House,Casey City - Greater Area,0.0,0.0,4.0,2.0,2,"3 Gossamer Way, Narre Warren South",NARRE WARREN SOUTH,3805,-38.0733566,145.3314,470
400,400,16019298,2022-08-03T10:24:48,Rent,$440_p.w,House,Casey City - Greater Area,0.0,0.0,3.0,2.0,2,"23 Amhurst Drive, Narre Warren South",NARRE WARREN SOUTH,3805,-38.069458,145.292953,440
401,401,16065732,2022-08-31T11:44:50,Rent,$470_per_week,House,Casey City - Greater Area,0.0,0.0,4.0,2.0,2,"2/26 Fleetwood Drive, Narre Warren",NARRE WARREN,3805,-38.0383644,145.30806,470
402,402,16063991,2022-08-30T13:56:14,Rent,$500_per_week,House,Casey City - Greater Area,0.0,0.0,3.0,1.0,2,"13 Hickory Drive, Narre Warren South",NARRE WARREN SOUTH,3805,-38.05785,145.31549099999995,500
403,403,16062442,2022-08-29T16:37:02,Rent,$430,House,Casey City - Greater Area,0.0,0.0,3.0,2.0,1,"45 Anaconda Road, Narre Warren",NARRE WARREN,3805,-38.0038223,145.310043,430
404,404,16057910,2022-08-25T15:30:25,Rent,$500_per_week,House,Casey City - Greater Area,0.0,0.0,4.0,2.0,2,"3 Serendip Court, Narre Warren",NARRE WARREN,3805,-38.0028534,145.314392,500
405,405,15532460,2022-08-25T15:06:52,Rent,$420,House,Casey City - Greater Area,0.0,0.0,3.0,2.0,2,"85 Norfolk Drive, Narre Warren",NARRE WARREN,3805,-38.0366478,145.316315,420
406,406,15334088,2022-08-24T11:46:48,Rent,$440,House,Casey City - Greater Area,0.0,0.0,3.0,2.0,2,"30 Ernest Crescent, Narre Warren South",NARRE WARREN SOUTH,3805,-38.0527878,145.289658,440
407,407,16053923,2022-08-23T16:16:50,Rent,$390_Per_Week,ApartmentUnitFlat,Casey City - Greater Area,0.0,0.0,3.0,2.0,2,"1/17 Damon Close, Narre Warren South",NARRE WARREN SOUTH,3805,-38.04806,145.2948,390
408,408,16053033,2022-08-23T12:32:18,Rent,$430_per_week,House,Casey City - Greater Area,0.0,0.0,3.0,1.0,4,"7 Costata Court, Narre Warren",NARRE WARREN,3805,-38.0414658,145.320114,430
409,409,16049972,2022-08-22T10:42:58,Rent,$490_Per_Week,House,Casey City - Greater Area,0.0,0.0,3.0,2.0,5,"28 Norman Place, Narre Warren",NARRE WARREN,3805,-38.04331,145.31778,490
410,410,16049727,2022-08-22T09:46:35,Rent,$370_Per_Week,ApartmentUnitFlat,Casey City - Greater Area,0.0,0.0,2.0,1.0,1,"11/95 Prospect Hill Road, Narre Warren",NARRE WARREN,3805,-38.01049,145.308929,370
411,411,16046078,2022-08-18T13:59:00,Rent,$400_pw,House,Casey City - Greater Area,154.0,711.0,3.0,1.0,2,"13 St James Court, Narre Warren",NARRE WARREN,3805,-38.03533,145.3125,400
412,412,16045004,2022-08-18T09:08:57,Rent,$630_per_week,House,Casey City - Greater Area,0.0,0.0,4.0,3.0,0,"63 Shinners Avenue, Narre Warren",NARRE WARREN,3805,-38.0126152,145.32103,630
413,413,16032758,2022-08-10T16:22:47,Rent,$450_Per_Week,House,Casey City - Greater Area,0.0,0.0,3.0,2.0,2,"54 Pentland Drive, Narre Warren",NARRE WARREN,3805,-38.0398026,145.31131000000005,450
414,414,16032054,2022-08-10T13:26:26,Rent,$380_Per_Week,House,Casey City - Greater Area,0.0,0.0,3.0,1.0,1,"31 Madison Avenue, Narre Warren",NARRE WARREN,3805,-38.00254,145.297653,380
415,415,16011871,2022-07-29T09:27:43,Rent,$400pw_|_$1738pcm,House,Casey City - Greater Area,0.0,0.0,3.0,1.0,1,"238 Ormond Road, Narre Warren South",NARRE WARREN SOUTH,3805,-38.05298610000001,145.28710900000004,400
416,416,16011848,2022-07-29T09:18:02,Rent,$420pw_|_$1825pcm,House,Casey City - Greater Area,0.0,0.0,4.0,2.0,2,"1 Saxonwood Drive, Narre Warren",NARRE WARREN,3805,-38.031765,145.30741899999995,420
417,417,16010262,2022-07-28T11:31:43,Rent,$430_per_week,House,Casey City - Greater Area,0.0,0.0,3.0,2.0,4,"43 Summerlea Road, Narre Warren",NARRE WARREN,3805,-38.0141,145.302841,430
418,418,14380860,2022-07-22T11:35:26,Rent,$390p.w.,House,Casey City - Greater Area,0.0,0.0,3.0,1.0,1,"33 Sweeney Drive, Narre Warren",NARRE WARREN,3805,-38.0305138,145.313248,390
419,419,15976569,2022-07-08T13:26:40,Rent,$415_Per_Week,House,Casey City - Greater Area,0.0,0.0,3.0,1.0,1,"4 Rolstone Court, Narre Warren",NARRE WARREN,3805,-38.03085,145.316742,415
420,420,15971656,2022-07-06T11:12:20,Rent,$450,House,Casey City - Greater Area,0.0,0.0,4.0,2.0,2,"1 McCartney Drive, Narre Warren South",NARRE WARREN SOUTH,3805,-38.06662,145.2948,450
423,423,16071117,2022-09-02T17:12:36,Rent,$460_Per_Week,Townhouse,Casey City - Greater Area,0.0,0.0,3.0,2.0,2,"2/103 High Street, Berwick",BERWICK,3806,-38.03235,145.350327,460
424,424,16069134,2022-09-01T17:24:56,Rent,$640_Per_Week,House,Casey City - Greater Area,0.0,0.0,4.0,2.0,2,"11 Misty Close, Berwick",BERWICK,3806,-38.07477,145.350235,640
425,425,16064136,2022-08-30T14:26:38,Rent,$410_Per_Week,ApartmentUnitFlat,Casey City - Greater Area,0.0,0.0,3.0,1.0,1,"1/13 Maryn Close, Berwick",BERWICK,3806,-38.0268059,145.331085,410
426,426,14611396,2022-08-23T13:46:24,Rent,$515_per_week,Townhouse,Casey City - Greater Area,0.0,0.0,3.0,3.0,2,"1 & 3/17-19 Hazeldene Court, Berwick",BERWICK,3806,-38.0250435,145.34816,515
427,427,16052753,2022-08-23T11:22:17,Rent,$385.00_pw,House,Casey City - Greater Area,0.0,0.0,2.0,1.0,1,"6 Poa Mews, Berwick",BERWICK,3806,-38.04205,145.323776,385
428,428,16052329,2022-08-23T09:34:31,Rent,$545_per_week,Townhouse,Casey City - Greater Area,0.0,0.0,4.0,2.0,2,"4/17-19 Hazeldene Court, Berwick",BERWICK,3806,-38.0250435,145.34816,545
429,429,16049620,2022-08-22T09:08:13,Rent,$410.00_pw,Townhouse,Casey City - Greater Area,0.0,0.0,3.0,2.0,2,"14 Llano Circuit, Berwick",BERWICK,3806,-38.0413933,145.323883,410
430,430,16037249,2022-08-12T17:24:31,Rent,$430_per_week,House,Casey City - Greater Area,0.0,0.0,3.0,1.0,1,"28 Mansfield Street, Berwick",BERWICK,3806,-38.0323029,145.339127,430
431,431,16036647,2022-08-12T15:06:40,Rent,$550_Per_Week,House,Casey City - Greater Area,0.0,0.0,4.0,2.0,1,"3 Penrith Court, Berwick",BERWICK,3806,-38.031353,145.3362,550
432,432,16025424,2022-08-05T15:16:47,Rent,$420_Per_Week,House,Casey City - Greater Area,0.0,0.0,3.0,2.0,2,"80 Mansfield Street, Berwick",BERWICK,3806,-38.0327072,145.331955,420
434,434,16071350,2022-09-02T20:56:00,Rent,$770,Townhouse,Casey City - Greater Area,0.0,0.0,4.0,2.0,2,"5/137 Brisbane Street, Berwick",BERWICK,3806,-38.03418350000001,145.362091,770
435,435,16069963,2022-09-02T11:51:24,Rent,$480_per_week,House,Casey City - Greater Area,0.0,0.0,3.0,2.0,2,"9 Greystoke Court, Berwick",BERWICK,3806,-38.03176,145.334671,480
436,436,16068316,2022-09-01T13:39:53,Rent,$560,House,Casey City - Greater Area,0.0,0.0,4.0,2.0,2,"14 Royston Avenue, Berwick",BERWICK,3806,-38.02092,145.345215,560
437,437,16065239,2022-08-31T09:36:31,Rent,$_370_PER_WEEK,House,Casey City - Greater Area,0.0,0.0,3.0,1.0,2,"1 Norham Court, Berwick",BERWICK,3806,-38.04697,145.342072,370
438,438,16064094,2022-08-30T14:14:49,Rent,$500_per_week,House,Casey City - Greater Area,0.0,0.0,4.0,2.0,2,"1 Nauru Court, Berwick",BERWICK,3806,-38.0602036,145.344818,500
439,439,16062465,2022-08-29T16:38:21,Rent,$500,House,Casey City - Greater Area,0.0,0.0,3.0,2.0,2,"21 Harkaway Road, Berwick",BERWICK,3806,-38.025135,145.346481,500
440,440,16057835,2022-08-25T15:10:34,Rent,$630,House,Casey City - Greater Area,0.0,0.0,4.0,2.0,2,"49 Masquerade Road, Berwick",BERWICK,3806,-38.0749664,145.364624,630
441,441,16046434,2022-08-18T15:22:39,Rent,$460.00_per_week,House,Casey City - Greater Area,0.0,0.0,4.0,2.0,2,"6 Buffalo Court, Berwick",BERWICK,3806,-38.0603828,145.336426,460
442,442,16040773,2022-08-16T11:45:48,Rent,$460,House,Casey City - Greater Area,0.0,0.0,3.0,2.0,4,"10 Greenlaw Crescent, Berwick",BERWICK,3806,-38.0488968,145.343231,460
444,444,16045604,2022-08-18T11:46:58,Rent,$595,House,Casey City - Greater Area,0.0,0.0,4.0,2.0,2,"3/35 Manuka Road, Berwick",BERWICK,3806,-38.03436,145.364838,595
445,445,16036329,2022-08-12T13:44:30,Rent,$595,House,Casey City - Greater Area,0.0,0.0,4.0,2.0,2,"2/35 Manuka Road, Berwick",BERWICK,3806,-38.03436,145.364838,595
446,446,16036079,2022-08-12T12:28:34,Rent,$525,House,Casey City - Greater Area,0.0,0.0,4.0,2.0,2,"1/35 Manuka Road, Berwick",BERWICK,3806,-38.03436,145.364838,525
448,448,16062713,2022-08-29T17:36:27,Rent,$470_Per_Week,House,Casey City - Greater Area,0.0,0.0,4.0,2.0,2,"9 Chong Court, Berwick",BERWICK,3806,-38.0440559,145.337189,470
449,449,16060277,2022-08-26T17:10:23,Rent,$630.00_per_week,House,Casey City - Greater Area,0.0,0.0,4.0,2.0,2,"3 Bron-Y-Aur Close, Berwick",BERWICK,3806,-38.0406532,145.361084,630
450,450,16058798,2022-08-26T10:06:35,Rent,$455,House,Casey City - Greater Area,0.0,0.0,3.0,2.0,4,"10 Raneen Place, Berwick",BERWICK,3806,-38.0569534,145.337357,455
451,451,15175666,2022-08-18T14:40:25,Rent,$450,Townhouse,Casey City - Greater Area,0.0,0.0,2.0,2.0,1,"67 Marlborough Road, Berwick",BERWICK,3806,-38.073143,145.3617,450
452,452,16045596,2022-08-18T11:46:31,Rent,$440_Per_Week,House,Casey City - Greater Area,0.0,0.0,3.0,1.0,0,"10 Wilmott Close, Berwick",BERWICK,3806,-38.05588,145.33351100000004,440
453,453,15019382,2022-08-17T15:11:28,Rent,$380,House,Casey City - Greater Area,0.0,0.0,4.0,2.0,0,"33 Peel Street, Berwick",BERWICK,3806,-38.02935,145.3518,380
454,454,16040063,2022-08-15T22:09:12,Rent,$495_per_week,Townhouse,Casey City - Greater Area,0.0,0.0,3.0,2.0,2,"32 Masquerade Road, Berwick",BERWICK,3806,-38.0749969,145.36528,495
455,455,13688829,2022-08-15T18:10:46,Rent,$590,House,Casey City - Greater Area,0.0,0.0,4.0,2.0,2,"45 Nixon Drive, Berwick",BERWICK,3806,-38.0618134,145.35771200000005,590
457,457,16012092,2022-08-12T11:08:36,Rent,$550.00_per_week,House,Casey City - Greater Area,0.0,0.0,4.0,2.0,2,"98 Golf Links Road, Berwick",BERWICK,3806,-38.04346,145.327957,550
458,458,13369590,2022-08-11T11:24:42,Rent,$580,House,Casey City - Greater Area,0.0,0.0,4.0,2.0,2,"20 Marija Crescent, Berwick",BERWICK,3806,-38.06934,145.335739,580
459,459,15343501,2022-08-10T13:57:28,Rent,$400,House,Casey City - Greater Area,0.0,0.0,3.0,1.0,2,"19 Sharpe Court, Berwick",BERWICK,3806,-38.0556564,145.334671,400
460,460,16028504,2022-08-08T17:23:53,Rent,$520_per_week,House,Casey City - Greater Area,0.0,0.0,4.0,2.0,2,"10 Florence Avenue, Berwick",BERWICK,3806,-38.0258751,145.328232,520
461,461,16022860,2022-08-04T13:07:01,Rent,$400_per_week,ApartmentUnitFlat,Casey City - Greater Area,0.0,0.0,2.0,1.0,1,"2/23 Peel Street, Berwick",BERWICK,3806,-38.0288925,145.3505,400
462,462,16018271,2022-08-02T15:52:27,Rent,$405_Per_Week,House,Casey City - Greater Area,0.0,0.0,3.0,1.0,0,"25 Jane Street, Berwick",BERWICK,3806,-38.0353966,145.339645,405
463,463,16016130,2022-08-01T17:00:50,Rent,$370.00_per_week,ApartmentUnitFlat,Casey City - Greater Area,0.0,0.0,2.0,1.0,2,"2/11 Reserve Street, Berwick",BERWICK,3806,-38.03631,145.344009,370
464,464,16011186,2022-07-28T15:52:29,Rent,$195_per_week,House,Casey City - Greater Area,0.0,0.0,1.0,1.0,0,"1/1 Daniher Close, Berwick",BERWICK,3806,-38.03432460000001,145.332886,195
465,465,15988514,2022-07-15T13:06:56,Rent,$550_per_week,House,Casey City - Greater Area,0.0,0.0,4.0,3.0,2,"13 Carluke Close, Berwick",BERWICK,3806,-38.05066,145.340775,550
466,466,15982723,2022-07-12T16:50:26,Rent,$_390_PER_WEEK,House,Casey City - Greater Area,0.0,0.0,3.0,1.0,1,"67 Melzak Way, Berwick",BERWICK,3806,-38.04199600000001,145.332565,390
467,467,15767952,2022-03-07T13:59:59,Rent,$530_per_week,House,Casey City - Greater Area,0.0,0.0,4.0,2.0,2,"9 Orsino Place, Berwick",BERWICK,3806,-38.0422,145.329361,530
468,468,16071624,2022-09-04T18:02:19,Rent,$450_Per_Week,House,Casey City - Greater Area,0.0,0.0,3.0,1.0,1,"91 Strathavan Drive, Berwick",BERWICK,3806,-38.051712,145.354126,450
470,470,16055368,2022-08-24T13:38:19,Rent,$450_Per_Week,House,Casey City - Greater Area,0.0,0.0,3.0,1.0,2,"731 Princes Highway, Berwick",BERWICK,3806,-38.0311623,145.337143,450
471,471,16052476,2022-08-23T12:44:20,Rent,$420_p.w.,House,Casey City - Greater Area,0.0,0.0,3.0,1.0,1,"20 Sunnyside Drive, Berwick",BERWICK,3806,-38.0202255,145.319763,420
472,472,16006454,2022-07-26T14:54:31,Rent,$480pw_|_$2086pcm,House,Casey City - Greater Area,0.0,0.0,4.0,2.0,1,"45 Lodge Crescent, Berwick",BERWICK,3806,-38.0320854,145.332825,480
473,473,16058446,2022-08-25T18:32:24,Rent,$430,ApartmentUnitFlat,Casey City - Greater Area,0.0,0.0,3.0,2.0,2,"2/7-8 Roseville Ct, Berwick",BERWICK,3806,-38.0737457,145.3409,430
474,474,16056241,2022-08-24T17:12:21,Rent,$480_per_week,Townhouse,Casey City - Greater Area,0.0,0.0,3.0,2.0,1,"16 Excalibur Street, Berwick",BERWICK,3806,-38.0729179,145.362335,480
475,475,16055369,2022-08-24T13:38:21,Rent,$460_Per_Week,House,Casey City - Greater Area,0.0,0.0,3.0,2.0,2,"11 Eglinton Close, Berwick",BERWICK,3806,-38.0446739,145.325287,460
476,476,16052237,2022-08-23T09:14:41,Rent,$535_Per_Week,House,Casey City - Greater Area,0.0,0.0,4.0,2.0,2,"35 Tyrell Place, Berwick",BERWICK,3806,-38.065834,145.336319,535
477,477,16050829,2022-08-22T14:23:09,Rent,$510_Per_Week,House,Casey City - Greater Area,0.0,0.0,4.0,2.0,2,"44 Shanks Drive, Berwick",BERWICK,3806,-38.0510826,145.326324,510
478,478,16049479,2022-08-21T00:00:30,Rent,$550_Per_Week,House,Casey City - Greater Area,0.0,0.0,4.0,2.0,2,"68 Marlborough Road, Berwick",BERWICK,3806,-38.07316210000001,145.361679,550
479,479,16047869,2022-08-19T11:55:16,Rent,$480/Week,House,Casey City - Greater Area,0.0,0.0,3.0,2.0,2,"30 Sundial Court, Berwick",BERWICK,3806,-38.05716320000001,145.334015,480
480,480,16040785,2022-08-16T11:48:22,Rent,$340,ApartmentUnitFlat,Casey City - Greater Area,0.0,0.0,2.0,1.0,1,"8/37 Clyde Road, Berwick",BERWICK,3806,-38.0355225,145.3434,340
481,481,16039115,2022-08-15T14:40:29,Rent,$400,House,Casey City - Greater Area,0.0,0.0,3.0,2.0,1,"3 Norham Court, Berwick",BERWICK,3806,-38.0467033,145.3416,400
482,482,16037638,2022-08-14T14:00:19,Rent,$440_Per_Week,House,Casey City - Greater Area,0.0,0.0,3.0,2.0,2,"20 York Road, Berwick",BERWICK,3806,-38.02891,145.34141499999996,440
483,483,16034451,2022-08-11T14:36:54,Rent,$480_per_week,House,Casey City - Greater Area,0.0,0.0,3.0,2.0,1,"16 Masquerade Road, Berwick",BERWICK,3806,-38.0744667,145.365219,480
484,484,15761532,2022-08-05T17:03:20,Rent,$499,House,Casey City - Greater Area,0.0,0.0,4.0,2.0,2,"52 Marlborough Road, Berwick",BERWICK,3806,-38.07411,145.360962,499
485,485,16008118,2022-07-27T11:36:40,Rent,$420_Per_Week,House,Casey City - Greater Area,0.0,0.0,3.0,1.0,1,"27 Mansfield Street, Berwick",BERWICK,3806,-38.0331726,145.338348,420
486,486,15976261,2022-07-08T12:00:43,Rent,$365_pw,House,Casey City - Greater Area,0.0,0.0,3.0,1.0,2,"1 Evan Street, Berwick",BERWICK,3806,-38.0342674,145.341553,365
487,487,15857837,2022-04-28T15:52:58,Rent,$270_Per_Week,Studio,Casey City - Greater Area,0.0,0.0,1.0,1.0,0,"12/29 Jane Street, Berwick",BERWICK,3806,-38.0353241,145.339218,270
488,488,15341783,2021-08-23T22:20:23,Rent,$450_Per_Week_LEASED,House,Casey City - Greater Area,0.0,0.0,4.0,2.0,2,"1 Sarah-louise Place, Berwick",BERWICK,3806,-38.041275,145.326782,450
489,489,16040973,2022-08-16T12:32:39,Rent,$520_Per_Week,House,Cardinia Shire - Greater Area,0.0,0.0,4.0,2.0,2,"20 Copper Beech Road, Beaconsfield",BEACONSFIELD,3807,-38.0631943,145.3868,520
490,490,16039248,2022-08-15T15:08:35,Rent,$500_Per_Week,House,Cardinia Shire - Greater Area,0.0,0.0,4.0,2.0,2,"4 Highton Court, Beaconsfield",BEACONSFIELD,3807,-38.0406075,145.374725,500
491,491,16070014,2022-09-02T12:03:00,Rent,$520_per_week,House,Cardinia Shire - Greater Area,0.0,0.0,4.0,2.0,2,"478 Kenilworth Avenue, Beaconsfield",BEACONSFIELD,3807,-38.0617828,145.3867,520
492,492,16054783,2022-08-24T10:49:09,Rent,$590,House,Cardinia Shire - Greater Area,0.0,0.0,4.0,2.0,2,"31 Iceberg Road, Beaconsfield",BEACONSFIELD,3807,-38.06352,145.3836,590
493,493,16050450,2022-08-22T12:33:24,Rent,$430_Per_Week,House,Cardinia Shire - Greater Area,0.0,0.0,4.0,1.0,4,"5 Slingsby Avenue, Beaconsfield",BEACONSFIELD,3807,-38.0507164,145.361389,430
494,494,16038238,2022-08-15T11:14:30,Rent,$490_per_week/$2129_pcm,House,Cardinia Shire - Greater Area,0.0,0.0,4.0,2.0,2,"418 Rix Road, Beaconsfield",BEACONSFIELD,3807,-38.065506,145.386047,490
495,495,16021663,2022-08-03T17:20:28,Rent,$460_per_week/$1999_pcm,House,Cardinia Shire - Greater Area,0.0,0.0,3.0,2.0,2,"12 Copper Beech Road, Beaconsfield",BEACONSFIELD,3807,-38.0622864,145.38797,460
496,496,16067329,2022-09-01T09:10:31,Rent,$520,House,Cardinia Shire - Greater Area,0.0,0.0,4.0,2.0,2,"4 Sakura Drive, Beaconsfield",BEACONSFIELD,3807,-38.047802,145.36991899999995,520
497,497,11785900,2022-08-29T15:02:37,Rent,$570_wk,House,Cardinia Shire - Greater Area,0.0,0.0,5.0,2.0,2,"21 Double Delight Drive, Beaconsfield",BEACONSFIELD,3807,-38.0638771,145.385757,570
498,498,16019815,2022-08-03T12:20:43,Rent,Under_Application_RARE_LOCATION!!_$500.00_PER_WEEK,Townhouse,Cardinia Shire - Greater Area,0.0,0.0,3.0,2.0,2,"2/6 Souter Street, Beaconsfield",BEACONSFIELD,3807,-38.0487976,145.369766,500
499,499,16051941,2022-08-23T08:16:29,Rent,$1000,AcreageSemiRural,Cardinia Shire - Greater Area,0.0,0.0,4.0,2.0,2,"82 Downey Road, Dewhurst",DEWHURST,3808,-37.9804955,145.472824,1000
500,500,16069772,2022-09-02T11:10:47,Rent,$450_per_week,House,Cardinia Shire - Greater Area,0.0,0.0,3.0,2.0,2,"70 Babar Drive, Officer",OFFICER,3809,-38.073555,145.402939,450
501,501,16067046,2022-08-31T17:34:35,Rent,$550_Per_Week,House,Cardinia Shire - Greater Area,0.0,0.0,4.0,2.0,2,"45 Koba Way, Officer",OFFICER,3809,-38.0718956,145.402084,550
502,502,16064056,2022-08-30T14:04:19,Rent,$500.00_per_week,House,Cardinia Shire - Greater Area,0.0,0.0,4.0,2.0,2,"10 Kallista Circuit, Officer",OFFICER,3809,-38.0706978,145.400665,500
503,503,16061686,2022-08-29T13:24:42,Rent,$440_Per_Week,House,Cardinia Shire - Greater Area,0.0,0.0,3.0,2.0,2,"6 Bolton Grove, Officer",OFFICER,3809,-38.076107,145.421432,440
504,504,16054111,2022-08-23T17:04:18,Rent,$440_per_week,House,Cardinia Shire - Greater Area,0.0,0.0,3.0,2.0,1,"60 Heathcote Grove, Officer",OFFICER,3809,-38.06263,145.403366,440
505,505,13891642,2022-08-22T10:39:03,Rent,$410_pw,ApartmentUnitFlat,Cardinia Shire - Greater Area,0.0,0.0,3.0,2.0,2,"8 Jade Walk, Officer",OFFICER,3809,-38.0719032,145.430374,410
506,506,16066150,2022-08-31T13:46:32,Rent,$520_per_week,House,Cardinia Shire - Greater Area,0.0,0.0,4.0,2.0,2,"19 Rix Road, Officer",OFFICER,3809,-38.06883,145.404068,520
507,507,16063925,2022-08-30T13:36:51,Rent,$450_per_week,House,Cardinia Shire - Greater Area,0.0,0.0,4.0,2.0,2,"20 Beatrix Circuit, Officer",OFFICER,3809,-38.0729065,145.408478,450
508,508,16055237,2022-08-24T12:57:19,Rent,$420_per_week,Townhouse,Cardinia Shire - Greater Area,0.0,0.0,3.0,2.0,2,"6 Topal Drive, Officer",OFFICER,3809,-38.0742531,145.434662,420
509,509,16055124,2022-08-24T12:19:39,Rent,$570_per_week,House,Cardinia Shire - Greater Area,0.0,0.0,4.0,2.0,2,"2 Ryeburn Street, Officer",OFFICER,3809,-38.05535,145.43866,570
510,510,16051425,2022-08-22T16:18:31,Rent,$520_per_week,House,Cardinia Shire - Greater Area,0.0,0.0,4.0,2.0,2,"10 Finnegan Way, Officer",OFFICER,3809,-38.06550220000001,145.398254,520
511,511,16071541,2022-09-03T16:40:24,Rent,$520,House,Cardinia Shire - Greater Area,0.0,0.0,4.0,2.0,2,"57 Grant Parade, Officer",OFFICER,3809,-38.05267720000001,145.393219,520
512,512,16069657,2022-09-02T10:37:34,Rent,$480,House,Cardinia Shire - Greater Area,0.0,0.0,4.0,2.0,4,"10 Yolen Street, Officer",OFFICER,3809,-38.0703659,145.405914,480
513,513,15365302,2022-09-02T10:09:04,Rent,$480,House,Cardinia Shire - Greater Area,0.0,0.0,4.0,2.0,2,"33 Curran Drive, Officer",OFFICER,3809,-38.0652771,145.43450900000005,480
514,514,16069147,2022-09-01T17:30:29,Rent,$650,House,Cardinia Shire - Greater Area,0.0,0.0,3.0,2.0,0,"450 Princes Highway, Officer",OFFICER,3809,-38.0617065,145.412064,650
515,515,16065043,2022-08-30T20:46:07,Rent,$450,House,Cardinia Shire - Greater Area,0.0,0.0,4.0,2.0,2,"20 Millicent Parade, Officer",OFFICER,3809,-38.0649071,145.388367,450
516,516,16064451,2022-08-30T15:38:33,Rent,$460_per_week,House,Cardinia Shire - Greater Area,0.0,0.0,4.0,2.0,2,"20 Shakespeare Grove, Officer",OFFICER,3809,-38.06364,145.42983999999996,460
517,517,16062647,2022-08-29T17:16:39,Rent,$450_pw,House,Cardinia Shire - Greater Area,0.0,0.0,4.0,2.0,2,"44 Cherrington Avenue, Officer",OFFICER,3809,-38.06217,145.397964,450
518,518,13412640,2022-08-17T16:53:33,Rent,$480.00_per_week,House,Cardinia Shire - Greater Area,0.0,0.0,4.0,2.0,2,"15 Beatrix Circuit, Officer",OFFICER,3809,-38.07293,145.40866100000005,480
519,519,15840116,2022-08-29T14:26:59,Rent,$455,House,Cardinia Shire - Greater Area,0.0,0.0,4.0,2.0,2,"21 Peridot Avenue, Officer",OFFICER,3809,-38.072834,145.43042,455
520,520,16049424,2022-08-20T14:34:36,Rent,$495,House,Cardinia Shire - Greater Area,0.0,0.0,4.0,2.0,2,"43 Melodie Drive, Officer",OFFICER,3809,-38.0656624,145.399078,495
521,521,16049075,2022-08-19T17:02:42,Rent,$440_pw,House,Cardinia Shire - Greater Area,0.0,0.0,3.0,2.0,2,"5 Fadden Mews, Officer",OFFICER,3809,-38.0741463,145.429077,440
522,522,16039885,2022-08-15T17:26:54,Rent,$450_per_week,Townhouse,Cardinia Shire - Greater Area,0.0,0.0,3.0,2.0,2,"5 Calico Walk, Officer",OFFICER,3809,-38.068222,145.41433700000005,450
523,523,16039129,2022-08-15T14:42:30,Rent,$470_per_week,House,Cardinia Shire - Greater Area,0.0,0.0,3.0,2.0,2,"13 Tryfan Street, Officer",OFFICER,3809,-38.0549431,145.40863000000004,470
524,524,16037510,2022-08-13T11:58:26,Rent,$460,House,Cardinia Shire - Greater Area,0.0,0.0,4.0,2.0,2,"14 Verve Drive, Officer",OFFICER,3809,-38.07544,145.428238,460
525,525,16028710,2022-08-09T08:09:11,Rent,$475,House,Cardinia Shire - Greater Area,0.0,0.0,4.0,2.0,2,"96 Lincoln Avenue, Officer",OFFICER,3809,-38.0672646,145.387039,475
526,526,15996837,2022-07-20T16:33:15,Rent,$450_Per_Week,House,Cardinia Shire - Greater Area,0.0,0.0,4.0,2.0,2,"3 Hughes Lane, Officer",OFFICER,3809,-38.0760422,145.42742900000005,450
527,527,15730017,2022-02-17T09:48:58,Rent,$450_per_week,House,Cardinia Shire - Greater Area,0.0,0.0,3.0,2.0,1,"5 5 Gleeson Way, Officer",OFFICER,3809,-38.06261,145.397568,450
528,528,16069310,2022-09-02T02:08:29,Rent,$440_pw,Townhouse,Cardinia Shire - Greater Area,0.0,0.0,3.0,2.0,1,"6 Sturt Court, Officer",OFFICER,3809,-38.06072620000001,145.403458,440
529,529,16069065,2022-09-01T16:58:36,Rent,$520_Per_Week,House,Cardinia Shire - Greater Area,0.0,0.0,4.0,2.0,2,"10 Jersey Crescent, Officer",OFFICER,3809,-38.0704346,145.390182,520
530,530,15525827,2022-08-31T18:50:39,Rent,$380,House,Cardinia Shire - Greater Area,0.0,0.0,3.0,2.0,2,"56 Bridge Road, Officer",OFFICER,3809,-38.0736275,145.426849,380
531,531,16066518,2022-08-31T15:22:59,Rent,$430pw_|_$1868pcm,House,Cardinia Shire - Greater Area,0.0,0.0,3.0,2.0,1,"6 Cerulean Drive, Officer",OFFICER,3809,-38.07550429999999,145.42918400000005,430
532,532,16061022,2022-08-29T10:36:52,Rent,$365_Per_Week,House,Cardinia Shire - Greater Area,0.0,0.0,2.0,1.0,1,"4 Etonian Street, Officer",OFFICER,3809,-38.0762634,145.42211899999995,365
533,533,16039646,2022-08-15T16:28:19,Rent,$500_pw,House,Cardinia Shire - Greater Area,0.0,0.0,4.0,3.0,2,"110 Primrose Avenue, Officer",OFFICER,3809,-38.06437,145.403381,500
534,534,16037698,2022-08-15T06:46:46,Rent,$660,House,Cardinia Shire - Greater Area,0.0,0.0,5.0,3.0,4,"3 Babar Drive, Officer",OFFICER,3809,-38.0722427,145.405777,660
535,535,16035291,2022-08-11T21:42:33,Rent,$440_Per_Week,House,Cardinia Shire - Greater Area,0.0,0.0,3.0,2.0,1,"38 Gulliver Drive, Officer",OFFICER,3809,-38.07021,145.409,440
536,536,16066531,2022-08-31T15:24:43,Rent,$500_per_week,House,Cardinia Shire - Greater Area,0.0,0.0,4.0,2.0,2,"7 Winnows Street, Officer",OFFICER,3809,-38.060112,145.410049,500
537,537,16063861,2022-08-30T13:21:16,Rent,$425,House,Cardinia Shire - Greater Area,0.0,0.0,3.0,2.0,2,"3 Fairweather Parade, Officer",OFFICER,3809,-38.0586,145.397644,425
538,538,16059043,2022-08-26T11:16:38,Rent,$420_Per_Week,House,Cardinia Shire - Greater Area,0.0,0.0,3.0,2.0,2,"10 Jade Walk, Officer",OFFICER,3809,-38.07189,145.4303,420
539,539,16054702,2022-08-24T10:26:53,Rent,$480_Per_Week,House,Cardinia Shire - Greater Area,0.0,0.0,3.0,2.0,2,"22 Ridgewell Crescent, Officer",OFFICER,3809,-38.060112,145.410049,480
540,540,16049040,2022-08-19T16:56:14,Rent,$530pw_|_$2303pcm,House,Cardinia Shire - Greater Area,0.0,0.0,4.0,2.0,2,"4 Yering Place, Officer",OFFICER,3809,-38.0527153,145.43895,530
541,541,16033349,2022-08-11T09:46:25,Rent,$420_Per_Week,House,Cardinia Shire - Greater Area,0.0,0.0,4.0,2.0,2,"20 Mortlake Drive, Officer South",OFFICER SOUTH,3809,-38.0849,145.428436,420
542,542,15668093,2022-01-20T19:56:07,Rent,$440_Per_Week,House,Cardinia Shire - Greater Area,0.0,0.0,4.0,2.0,0,"17 Celestine Drive , Officer",OFFICER,3809,-38.0542259,145.412491,440
544,544,16047301,2022-08-19T09:18:02,Rent,$450_per_week,House,Cardinia Shire - Greater Area,0.0,0.0,4.0,2.0,2,"104 Park Orchard Drive, Pakenham",PAKENHAM,3810,-38.07669,145.44714399999995,450
545,545,16070118,2022-09-02T12:28:32,Rent,$560_per_week,House,Cardinia Shire - Greater Area,0.0,0.0,5.0,3.0,2,"44 Darwin Way, Pakenham",PAKENHAM,3810,-38.06732,145.44181799999996,560
546,546,16063755,2022-08-30T12:56:34,Rent,$480_per_week,House,Cardinia Shire - Greater Area,0.0,0.0,4.0,2.0,2,"9 Niseko Crescent, Pakenham",PAKENHAM,3810,-38.0523224,145.459381,480
547,547,16063692,2022-08-30T12:38:46,Rent,$455_Per_Week,House,Cardinia Shire - Greater Area,0.0,0.0,3.0,2.0,2,"34 Ashford Drive, Pakenham",PAKENHAM,3810,-38.07623,145.44073500000005,455
548,548,16063456,2022-08-30T11:40:45,Rent,$370_Per_Week,ApartmentUnitFlat,Cardinia Shire - Greater Area,0.0,0.0,3.0,1.0,1,"6/40 Army Road, Pakenham",PAKENHAM,3810,-38.06517410000001,145.496689,370
549,549,16063357,2022-08-30T11:18:26,Rent,$400_Per_Week,House,Cardinia Shire - Greater Area,0.0,0.0,3.0,2.0,1,"1/30 Silver Gum Drive, Pakenham",PAKENHAM,3810,-38.0564766,145.495743,400
550,550,16063098,2022-08-30T10:08:08,Rent,$380_per_week,Townhouse,Cardinia Shire - Greater Area,0.0,0.0,2.0,1.0,1,"14/1 Village Way, Pakenham",PAKENHAM,3810,-38.0746155,145.437332,380
551,551,15297639,2022-08-30T09:11:20,Rent,$480_Per_Week,House,Cardinia Shire - Greater Area,0.0,0.0,4.0,2.0,2,"15 Wendy Way, Pakenham",PAKENHAM,3810,-38.07899000000001,145.440048,480
552,552,16062396,2022-08-29T16:24:46,Rent,$410_per_week,House,Cardinia Shire - Greater Area,0.0,0.0,4.0,2.0,2,"39 Rockford Street, Pakenham",PAKENHAM,3810,-38.0645027,145.49534599999996,410
553,553,16061625,2022-08-29T13:07:47,Rent,$400_per_week,House,Cardinia Shire - Greater Area,0.0,0.0,4.0,2.0,2,"17 Torre Road, Pakenham",PAKENHAM,3810,-38.05651470000001,145.488388,400
554,554,16061403,2022-08-29T12:14:35,Rent,$330_Per_Week,ApartmentUnitFlat,Cardinia Shire - Greater Area,0.0,0.0,2.0,1.0,1,"8/107 Army Road, Pakenham",PAKENHAM,3810,-38.05886,145.4951,330
555,555,16057665,2022-08-25T14:30:32,Rent,$410_Per_Week,Townhouse,Cardinia Shire - Greater Area,0.0,0.0,3.0,2.0,2,"5/16 James Street, Pakenham",PAKENHAM,3810,-38.07402,145.480118,410
556,556,16056306,2022-08-24T17:36:36,Rent,$460_per_week,House,Cardinia Shire - Greater Area,0.0,0.0,4.0,2.0,2,"10 Shirley Street, Pakenham",PAKENHAM,3810,-38.07849,145.438873,460
557,557,16050340,2022-08-22T12:06:16,Rent,$650_PER_WEEK,House,Cardinia Shire - Greater Area,0.0,0.0,3.0,2.0,8,"1 Leigh Drive, Pakenham",PAKENHAM,3810,-38.06027,145.4975,650
558,558,16047518,2022-08-19T10:26:31,Rent,$450_Per_Week,House,Cardinia Shire - Greater Area,0.0,0.0,4.0,2.0,2,"9 Quirk Road, Pakenham",PAKENHAM,3810,-38.0594139,145.4458,450
559,559,16043177,2022-08-17T12:24:04,Rent,$370_per_week,House,Cardinia Shire - Greater Area,0.0,0.0,3.0,1.0,1,"4 Matthews Court, Pakenham",PAKENHAM,3810,-38.067688,145.4641,370
560,560,15790883,2022-08-25T14:56:36,Rent,$550_per_week,House,Cardinia Shire - Greater Area,0.0,0.0,4.0,2.0,2,"29 Stable Street, Pakenham",PAKENHAM,3810,-38.0745926,145.442444,550
561,561,15222935,2022-08-24T13:14:28,Rent,$480_per_week,House,Cardinia Shire - Greater Area,0.0,0.0,4.0,2.0,2,"24 Studd Road, Pakenham",PAKENHAM,3810,-38.05676,145.461349,480
562,562,16053744,2022-08-23T15:37:42,Rent,$460_Per_Week,House,Cardinia Shire - Greater Area,0.0,0.0,3.0,2.0,1,"8 Aberdeen Heights, Pakenham",PAKENHAM,3810,-38.06263,145.480118,460
563,563,15566716,2022-08-23T13:34:16,Rent,$450_per_week,House,Cardinia Shire - Greater Area,0.0,0.0,3.0,3.0,1,"65 Lakeside Blvd, Pakenham",PAKENHAM,3810,-38.06678,145.454208,450
564,564,16050863,2022-08-22T14:28:45,Rent,$450_per_week,House,Cardinia Shire - Greater Area,0.0,0.0,3.0,2.0,1,"164 Racecourse Road, Pakenham",PAKENHAM,3810,-38.06837,145.497864,450
565,565,16045026,2022-08-18T09:16:17,Rent,$400.00_per_week,Townhouse,Cardinia Shire - Greater Area,0.0,0.0,3.0,2.0,2,"82 Henry Street, Pakenham",PAKENHAM,3810,-38.078804,145.490051,400
566,566,16043840,2022-08-17T15:18:45,Rent,$430.00_per_week,House,Cardinia Shire - Greater Area,0.0,0.0,3.0,2.0,1,"20 Bentley Court, Pakenham",PAKENHAM,3810,-38.06838,145.495041,430
567,567,16040372,2022-08-16T10:08:56,Rent,$650_Per_Week,House,Cardinia Shire - Greater Area,0.0,0.0,4.0,2.0,2,"10 Hull Cresent, Pakenham",PAKENHAM,3810,-38.0826874,145.454208,650
568,568,16037012,2022-08-12T16:30:38,Rent,$370_per_week,House,Cardinia Shire - Greater Area,0.0,0.0,3.0,1.0,1,"7 Deveney Street, Pakenham",PAKENHAM,3810,-38.07052,145.4809,370
569,569,16026762,2022-08-08T10:46:48,Rent,$460_per_week,House,Cardinia Shire - Greater Area,0.0,0.0,4.0,2.0,1,"3 Fairywren Street, Pakenham",PAKENHAM,3810,-38.07803,145.446671,460
570,570,16025794,2022-08-05T16:34:38,Rent,$400_pw,House,Cardinia Shire - Greater Area,0.0,0.0,3.0,2.0,2,"4 Mikasa Place, Pakenham",PAKENHAM,3810,-38.0687256,145.493073,400
571,571,16071329,2022-09-02T20:14:24,Rent,$480,Townhouse,Cardinia Shire - Greater Area,0.0,0.0,3.0,2.0,2,"11/13 Harlesden Circuit, Pakenham",PAKENHAM,3810,-38.066864,145.4545,480
572,572,16068423,2022-09-01T14:17:30,Rent,$350,House,Cardinia Shire - Greater Area,0.0,0.0,2.0,1.0,1,"10 St Martin Way, Pakenham",PAKENHAM,3810,-38.0768967,145.489044,350
573,573,16065668,2022-08-31T11:30:48,Rent,$370,House,Cardinia Shire - Greater Area,0.0,0.0,3.0,1.0,3,"94 Duncan Drive, Pakenham",PAKENHAM,3810,-38.0752029,145.4677,370
574,574,15579103,2022-08-25T10:54:33,Rent,$370,House,Cardinia Shire - Greater Area,0.0,0.0,2.0,1.0,1,"4/23 Princes Highway, Pakenham",PAKENHAM,3810,-38.0726242,145.4843,370
575,575,16030375,2022-08-09T15:36:26,Rent,$350,House,Cardinia Shire - Greater Area,0.0,0.0,3.0,1.0,2,"20 James Street, Pakenham",PAKENHAM,3810,-38.0743675,145.4805,350
576,576,15945572,2022-06-21T12:31:21,Rent,$769_per_week,House,Cardinia Shire - Greater Area,0.0,0.0,3.0,2.0,7,"60 Main Street, Pakenham",PAKENHAM,3810,-38.0760574,145.480377,769
577,577,16066368,2022-08-31T14:42:01,Rent,$520,House,Cardinia Shire - Greater Area,0.0,0.0,4.0,2.0,2,"36 Beartooth Court, Pakenham",PAKENHAM,3810,-38.0574646,145.4641,520
578,578,16063273,2022-08-30T10:55:00,Rent,$410,House,Cardinia Shire - Greater Area,0.0,0.0,3.0,2.0,1,"6 The Oaks Avenue, Pakenham",PAKENHAM,3810,-38.0767365,145.48803700000005,410
579,579,16062397,2022-08-29T16:25:02,Rent,$380,House,Cardinia Shire - Greater Area,0.0,0.0,4.0,2.0,2,"9 Kristina Crt, Pakenham",PAKENHAM,3810,-38.0632133,145.476181,380
580,580,16062121,2022-08-29T15:28:45,Rent,$400,House,Cardinia Shire - Greater Area,0.0,0.0,4.0,2.0,2,"13 Stanhope Place, Pakenham",PAKENHAM,3810,-38.0703163,145.4911,400
581,581,16053969,2022-08-23T16:30:42,Rent,$550_Per_Week,House,Cardinia Shire - Greater Area,0.0,0.0,3.0,2.0,2,"12 Buchan Green, Pakenham",PAKENHAM,3810,-38.0733643,145.453018,550
582,582,15309893,2021-08-06T14:52:32,Rent,$650_PER_WEEK_-_HOUSE_&_SHOP,House,Cardinia Shire - Greater Area,0.0,0.0,3.0,2.0,9,"1 Leigh Drive, Pakenham",PAKENHAM,3810,-38.06031420000001,145.497467,650
583,583,16071598,2022-09-04T14:10:18,Rent,$440,House,Cardinia Shire - Greater Area,0.0,0.0,4.0,2.0,2,"20 Natanya Drive, Pakenham",PAKENHAM,3810,-38.055912,145.48963899999995,440
584,584,16070441,2022-09-02T14:16:00,Rent,$450_Per_Week,House,Cardinia Shire - Greater Area,0.0,0.0,4.0,2.0,1,"2 The Parkway, Pakenham",PAKENHAM,3810,-38.06895,145.44714399999995,450
585,585,16069904,2022-09-02T11:38:40,Rent,$430_pw,Townhouse,Cardinia Shire - Greater Area,0.0,0.0,4.0,2.0,2,"36 Hawkesbury Street, Pakenham",PAKENHAM,3810,-38.07726,145.49186699999996,430
586,586,16069900,2022-09-02T11:38:22,Rent,$400_pw,Townhouse,Cardinia Shire - Greater Area,0.0,0.0,3.0,2.0,2,"28 Hawkesbury Street, Pakenham",PAKENHAM,3810,-38.076767,145.4904,400
587,587,16068560,2022-09-01T15:03:03,Rent,$420_per_week,House,Cardinia Shire - Greater Area,0.0,0.0,3.0,2.0,2,"3 Fiona Place, Pakenham",PAKENHAM,3810,-38.06026,145.500809,420
588,588,16068344,2022-09-01T13:53:38,Rent,$390,ApartmentUnitFlat,Cardinia Shire - Greater Area,0.0,0.0,2.0,1.0,1,"7/101 Ebony Drive, Pakenham",PAKENHAM,3810,-38.0647278,145.504547,390
589,589,16064098,2022-08-30T14:16:37,Rent,$450.00_per_week,House,Cardinia Shire - Greater Area,0.0,0.0,4.0,2.0,2,"177 Ahern Road, Pakenham",PAKENHAM,3810,-38.0541954,145.48819,450
590,590,16063985,2022-08-30T13:54:17,Rent,$420.00_per_week,Townhouse,Cardinia Shire - Greater Area,0.0,0.0,3.0,2.0,2,"5/7 Highview Court, Pakenham",PAKENHAM,3810,-38.0701,145.48494,420
591,591,16063830,2022-08-30T13:13:30,Rent,$400_Per_Week,Townhouse,Cardinia Shire - Greater Area,0.0,0.0,3.0,2.0,1,"6 Debra Avenue, Pakenham",PAKENHAM,3810,-38.07882,145.450348,400
